{
"type": "FeatureCollection",
"crs": { "type": "name", "properties": { "name": "urn:ogc:def:crs:OGC:1.3:CRS84" } },
"features": [
{ "type": "Feature", "properties": { "Name": "中国人寿保险股份有限公司（金山枫泾镇营销服务部）", "Ctype": "中国人寿保险公司", "Ntype": "160402", "Address": "枫丽路１５７", "Telephone": null }, "geometry": { "type": "Point", "coordinates": [ 121.016154722222225, 30.886395833333331 ] } },
{ "type": "Feature", "properties": { "Name": "中国太平洋人寿保险股份有限公司（城中北路）", "Ctype": "中国太平洋保险", "Ntype": "160405", "Address": "城中北路４７８号", "Telephone": null }, "geometry": { "type": "Point", "coordinates": [ 121.112610405833337, 31.154823947499999 ] } },
{ "type": "Feature", "properties": { "Name": "中国太平洋安泰人寿保险股份有限公司（公园路）", "Ctype": "中国太平洋保险", "Ntype": "160405", "Address": "公园路９９号舜浦大厦１３层", "Telephone": null }, "geometry": { "type": "Point", "coordinates": [ 121.124888509166666, 31.149198133611112 ] } },
{ "type": "Feature", "properties": { "Name": "上海友邦保险公司", "Ctype": "保险公司", "Ntype": "160400", "Address": "公园路９９号舜浦大厦１２层", "Telephone": null }, "geometry": { "type": "Point", "coordinates": [ 121.124888509166666, 31.149198133611112 ] } },
{ "type": "Feature", "properties": { "Name": "安邦财产保险股份有限公司（欧洲街）", "Ctype": "保险公司", "Ntype": "160400", "Address": "公园路３４８青浦科技园商务中心６层", "Telephone": null }, "geometry": { "type": "Point", "coordinates": [ 121.119201660277781, 31.14912028 ] } },
{ "type": "Feature", "properties": { "Name": "金盛人寿保险有限公司（公园路）", "Ctype": "保险公司", "Ntype": "160400", "Address": "公园路９９号舜浦大厦１４层", "Telephone": null }, "geometry": { "type": "Point", "coordinates": [ 121.124888509166666, 31.149198133611112 ] } },
{ "type": "Feature", "properties": { "Name": "中国大地保险（舜浦大厦）", "Ctype": "保险公司", "Ntype": "160400", "Address": "公园路９９号舜浦大厦１３层", "Telephone": null }, "geometry": { "type": "Point", "coordinates": [ 121.124888509166666, 31.149198133611112 ] } },
{ "type": "Feature", "properties": { "Name": "中国人民财产保险股份有限公司（青浦支公司）", "Ctype": "中国人民保险公司", "Ntype": "160401", "Address": "城中东路２", "Telephone": "021-59711629" }, "geometry": { "type": "Point", "coordinates": [ 121.126074709444453, 31.146922908333334 ] } },
{ "type": "Feature", "properties": { "Name": "中国人寿保险股份有限公司（上海客户服务中心）", "Ctype": "中国人寿保险公司", "Ntype": "160402", "Address": "城中西路１８号", "Telephone": null }, "geometry": { "type": "Point", "coordinates": [ 121.111167263333343, 31.146676432222222 ] } },
{ "type": "Feature", "properties": { "Name": "中国人寿保险股份有限公司（欧洲街）", "Ctype": "中国人寿保险公司", "Ntype": "160402", "Address": "公园路３４８青浦科技园商务中心", "Telephone": null }, "geometry": { "type": "Point", "coordinates": [ 121.119201931388901, 31.149122721388888 ] } },
{ "type": "Feature", "properties": { "Name": "中国人寿保险股份有限公司（吕巷镇办事处）", "Ctype": "中国人寿保险公司", "Ntype": "160402", "Address": "建新大街１７８", "Telephone": null }, "geometry": { "type": "Point", "coordinates": [ 121.18130778, 30.827040744444446 ] } },
{ "type": "Feature", "properties": { "Name": "中国人寿保险股份有限公司（万安街）", "Ctype": "中国人寿保险公司", "Ntype": "160402", "Address": null, "Telephone": null }, "geometry": { "type": "Point", "coordinates": [ 121.17319, 30.896746 ] } },
{ "type": "Feature", "properties": { "Name": "中国人民保险集团股份有限公司（朱泾人民路）", "Ctype": "中国人民保险公司", "Ntype": "160401", "Address": "人民路２５０", "Telephone": null }, "geometry": { "type": "Point", "coordinates": [ 121.166677222222219, 30.898143888888889 ] } },
{ "type": "Feature", "properties": { "Name": "上海市金山区三农保险服务中心", "Ctype": "保险公司", "Ntype": "160400", "Address": "朱泾镇南圩路２４５号", "Telephone": null }, "geometry": { "type": "Point", "coordinates": [ 121.162381260833342, 30.90445904138889 ] } },
{ "type": "Feature", "properties": { "Name": "浙商保险金山支公司", "Ctype": "保险公司", "Ntype": "160400", "Address": null, "Telephone": null }, "geometry": { "type": "Point", "coordinates": [ 121.172925, 30.886386 ] } },
{ "type": "Feature", "properties": { "Name": "华安保险（秀州街）", "Ctype": "保险公司", "Ntype": "160400", "Address": null, "Telephone": null }, "geometry": { "type": "Point", "coordinates": [ 121.170988482222228, 30.902699515833334 ] } },
{ "type": "Feature", "properties": { "Name": "中国太平洋人寿保险股份有限公司（金山文化路营销服务部）", "Ctype": "中国太平洋保险", "Ntype": "160405", "Address": "朱泾镇文化路５５号", "Telephone": null }, "geometry": { "type": "Point", "coordinates": [ 121.160729722222214, 30.89518 ] } },
{ "type": "Feature", "properties": { "Name": "中国平安人寿保险股份有限公司（东林街）", "Ctype": "中国平安保险公司", "Ntype": "160403", "Address": null, "Telephone": null }, "geometry": { "type": "Point", "coordinates": [ 121.169165833333324, 30.893985 ] } },
{ "type": "Feature", "properties": { "Name": "中国人寿保险股份有限公司上海客户服务中心（北门）", "Ctype": "保险公司", "Ntype": "160400", "Address": "万安街３３５", "Telephone": null }, "geometry": { "type": "Point", "coordinates": [ 121.173192222222227, 30.896836666666665 ] } },
{ "type": "Feature", "properties": { "Name": "中国人民保险集团股份有限公司（东门）", "Ctype": "中国人民保险公司", "Ntype": "160401", "Address": "人民路２５０", "Telephone": null }, "geometry": { "type": "Point", "coordinates": [ 121.16676388888888, 30.898146944444445 ] } },
{ "type": "Feature", "properties": { "Name": "天安保险股份有限公司（朱泾营业部）", "Ctype": "保险公司", "Ntype": "160400", "Address": "万安街３５６号", "Telephone": "021-57963547" }, "geometry": { "type": "Point", "coordinates": [ 121.172803611111107, 30.897072222222224 ] } },
{ "type": "Feature", "properties": { "Name": "中国人寿保险股份有限公司（上海客户服务中心）", "Ctype": "保险公司", "Ntype": "160400", "Address": "万安街３３５", "Telephone": null }, "geometry": { "type": "Point", "coordinates": [ 121.173202499999988, 30.896734166666668 ] } },
{ "type": "Feature", "properties": { "Name": "天安保险股份有限公司（临仓街）", "Ctype": "保险公司", "Ntype": "160400", "Address": null, "Telephone": null }, "geometry": { "type": "Point", "coordinates": [ 121.17111, 30.892339722222221 ] } },
{ "type": "Feature", "properties": { "Name": "中国太平洋财产保险股份有限公司（上海金山金龙新街营销服务部）", "Ctype": "中国太平洋保险", "Ntype": "160405", "Address": "金龙新街３６２－３６４", "Telephone": null }, "geometry": { "type": "Point", "coordinates": [ 121.172785555555549, 30.886401111111109 ] } },
{ "type": "Feature", "properties": { "Name": "中国人寿保险股份有限公司（新乐路）", "Ctype": "中国人寿保险公司", "Ntype": "160402", "Address": "新乐路８０号", "Telephone": "021-57727583" }, "geometry": { "type": "Point", "coordinates": [ 121.217027452222226, 30.93177408861111 ] } },
{ "type": "Feature", "properties": { "Name": "上海市机动车物损交通事故保险理赔服务中心汇安分中心（北门）", "Ctype": "保险公司", "Ntype": "160400", "Address": "环城路１１１１", "Telephone": null }, "geometry": { "type": "Point", "coordinates": [ 121.242912222222216, 31.013551666666665 ] } },
{ "type": "Feature", "properties": { "Name": "中宏人寿保险股份有限公司", "Ctype": "保险公司", "Ntype": "160400", "Address": "谷阳北路１６６号上海大江商厦９层西半部", "Telephone": null }, "geometry": { "type": "Point", "coordinates": [ 121.236569281666661, 31.016525065 ] } },
{ "type": "Feature", "properties": { "Name": "广电日生人寿保险有限公司（中山二路）", "Ctype": "保险公司", "Ntype": "160400", "Address": "中山二路２１６平高大厦１１层", "Telephone": null }, "geometry": { "type": "Point", "coordinates": [ 121.229331597222227, 31.010240342777777 ] } },
{ "type": "Feature", "properties": { "Name": "阳光财产保险股份有限公司（西林北路）", "Ctype": "保险公司", "Ntype": "160400", "Address": "新松江路１０６０号恒杰商务大楼Ｂ座３层３０２、３０４－３０５", "Telephone": null }, "geometry": { "type": "Point", "coordinates": [ 121.217034233888896, 31.039177788611109 ] } },
{ "type": "Feature", "properties": { "Name": "上海万三保险代理", "Ctype": "保险公司", "Ntype": "160400", "Address": "乐都路３５８云间大厦１５层", "Telephone": null }, "geometry": { "type": "Point", "coordinates": [ 121.226649305555554, 31.013979220833331 ] } },
{ "type": "Feature", "properties": { "Name": "中国太平洋财产保险股份有限公司（松江支公司）", "Ctype": "中国太平洋保险", "Ntype": "160405", "Address": "中山二路２１６平高大厦８层", "Telephone": null }, "geometry": { "type": "Point", "coordinates": [ 121.229331597222227, 31.010240342777777 ] } },
{ "type": "Feature", "properties": { "Name": "中国大地财产保险有限公司（松江支公司）", "Ctype": "保险公司", "Ntype": "160400", "Address": "谷阳北路１６６号上海大江商厦８０１", "Telephone": null }, "geometry": { "type": "Point", "coordinates": [ 121.236569281666661, 31.016525065 ] } },
{ "type": "Feature", "properties": { "Name": "华泰财产保险股份有限公司（上海市分公司）", "Ctype": "华泰财产保险股份有限公司", "Ntype": "160407", "Address": "谷阳北路１６６号上海大江商厦６０２", "Telephone": null }, "geometry": { "type": "Point", "coordinates": [ 121.236569281666661, 31.016525065 ] } },
{ "type": "Feature", "properties": { "Name": "美国友邦保险有限公司（上海分公司）", "Ctype": "保险公司", "Ntype": "160400", "Address": "乐都路３３９号松江信息大楼１２层", "Telephone": null }, "geometry": { "type": "Point", "coordinates": [ 121.22832573777778, 31.013176269444443 ] } },
{ "type": "Feature", "properties": { "Name": "金盛保险股份有限公司（上海分公司）", "Ctype": "保险公司", "Ntype": "160400", "Address": "谷阳北路１６６号上海大江商厦６０８", "Telephone": null }, "geometry": { "type": "Point", "coordinates": [ 121.236569281666661, 31.016525065 ] } },
{ "type": "Feature", "properties": { "Name": "长生人寿保险有限公司", "Ctype": "保险公司", "Ntype": "160400", "Address": "中山二路２１６平高大厦７层７０１", "Telephone": null }, "geometry": { "type": "Point", "coordinates": [ 121.229331597222227, 31.010240342777777 ] } },
{ "type": "Feature", "properties": { "Name": "中国平安人寿保险股份有限公司（乐都支路）", "Ctype": "中国平安保险公司", "Ntype": "160403", "Address": null, "Telephone": null }, "geometry": { "type": "Point", "coordinates": [ 121.23365, 31.012971 ] } },
{ "type": "Feature", "properties": { "Name": "中国大地保险（乐都路）", "Ctype": "保险公司", "Ntype": "160400", "Address": null, "Telephone": null }, "geometry": { "type": "Point", "coordinates": [ 121.233433, 31.013436 ] } },
{ "type": "Feature", "properties": { "Name": "中国人民财产保险股份有限公司（松江支公司）", "Ctype": "中国人民保险公司", "Ntype": "160401", "Address": "人民北路６６", "Telephone": null }, "geometry": { "type": "Point", "coordinates": [ 121.228544108055544, 31.011065538333334 ] } },
{ "type": "Feature", "properties": { "Name": "中国人民财产保险股份有限公司（上海松江支公司）", "Ctype": "中国人民保险公司", "Ntype": "160401", "Address": "人民北路６６－１", "Telephone": "021-57716087" }, "geometry": { "type": "Point", "coordinates": [ 121.228212, 31.011045 ] } },
{ "type": "Feature", "properties": { "Name": "安信农业保险公司", "Ctype": "保险公司", "Ntype": "160400", "Address": "荣乐中路７００广源楼", "Telephone": null }, "geometry": { "type": "Point", "coordinates": [ 121.217942, 31.01721 ] } },
{ "type": "Feature", "properties": { "Name": "上海市机动车物损交通事故保险理赔服务中心（汇安分中心）", "Ctype": "保险公司", "Ntype": "160400", "Address": "环城路１１１１", "Telephone": null }, "geometry": { "type": "Point", "coordinates": [ 121.242910735555554, 31.013393855555556 ] } },
{ "type": "Feature", "properties": { "Name": "中国人寿保险股份有限公司（上海客户服务中心）", "Ctype": "中国人寿保险公司", "Ntype": "160402", "Address": "人民北路４６", "Telephone": null }, "geometry": { "type": "Point", "coordinates": [ 121.228462, 31.010187 ] } },
{ "type": "Feature", "properties": { "Name": "中国人民保险集团股份有限公司（松江支公司）", "Ctype": "中国人民保险公司", "Ntype": "160401", "Address": null, "Telephone": null }, "geometry": { "type": "Point", "coordinates": [ 121.228037, 31.011134 ] } },
{ "type": "Feature", "properties": { "Name": "中国人寿保险股份有限公司（中山二路）", "Ctype": "中国人寿保险公司", "Ntype": "160402", "Address": null, "Telephone": null }, "geometry": { "type": "Point", "coordinates": [ 121.228876, 31.010033 ] } },
{ "type": "Feature", "properties": { "Name": "中国人民财产保险股份有限公司松江支公司（西南门）", "Ctype": "中国人民保险公司", "Ntype": "160401", "Address": null, "Telephone": null }, "geometry": { "type": "Point", "coordinates": [ 121.228148, 31.011036 ] } },
{ "type": "Feature", "properties": { "Name": "中国人民财产保险股份有限公司上海松江支公司（西南门）", "Ctype": "中国人民保险公司", "Ntype": "160401", "Address": "人民北路６６", "Telephone": null }, "geometry": { "type": "Point", "coordinates": [ 121.228148, 31.011036 ] } },
{ "type": "Feature", "properties": { "Name": "中国人寿财产保险股份有限公司（松江支公司）", "Ctype": "中国人寿保险公司", "Ntype": "160402", "Address": "荣乐中路７１０－７１８", "Telephone": null }, "geometry": { "type": "Point", "coordinates": [ 121.217402, 31.017246 ] } },
{ "type": "Feature", "properties": { "Name": "中国人寿保险股份有限公司上海客户服务中心（南门）", "Ctype": "中国人寿保险公司", "Ntype": "160402", "Address": "人民北路４６", "Telephone": null }, "geometry": { "type": "Point", "coordinates": [ 121.228873, 31.010101 ] } },
{ "type": "Feature", "properties": { "Name": "中华联合财产保险股份有限公司（江学路）", "Ctype": "保险公司", "Ntype": "160400", "Address": "西期昌路２０１弄４０", "Telephone": null }, "geometry": { "type": "Point", "coordinates": [ 121.211481, 31.026173 ] } },
{ "type": "Feature", "properties": { "Name": "上海天安保险股份有限公司", "Ctype": "保险公司", "Ntype": "160400", "Address": "乐都路６７０", "Telephone": "021-67710055" }, "geometry": { "type": "Point", "coordinates": [ 121.209573838888886, 31.013539225277778 ] } },
{ "type": "Feature", "properties": { "Name": "中国大地保险（崧锦路）", "Ctype": "保险公司", "Ntype": "160400", "Address": null, "Telephone": null }, "geometry": { "type": "Point", "coordinates": [ 121.174742555555554, 31.146659607777778 ] } },
{ "type": "Feature", "properties": { "Name": "佘山车辆保险", "Ctype": "保险公司", "Ntype": "160400", "Address": null, "Telephone": null }, "geometry": { "type": "Point", "coordinates": [ 121.1872377, 31.100098950555555 ] } },
{ "type": "Feature", "properties": { "Name": "中华联合财产保险股份有限公司（曹安公路辅路）", "Ctype": "保险公司", "Ntype": "160400", "Address": "墨玉路２９新词大酒店", "Telephone": null }, "geometry": { "type": "Point", "coordinates": [ 121.163948023888892, 31.289772654722224 ] } },
{ "type": "Feature", "properties": { "Name": "华泰保险股份有限公司（安诚路）", "Ctype": "华泰财产保险股份有限公司", "Ntype": "160407", "Address": "安诚路３１８弄２６－２８号兴苑", "Telephone": null }, "geometry": { "type": "Point", "coordinates": [ 121.171170404722218, 31.271091678333335 ] } },
{ "type": "Feature", "properties": { "Name": "华泰保险股份有限公司（嘉定安悦店）", "Ctype": "华泰财产保险股份有限公司", "Ntype": "160407", "Address": null, "Telephone": null }, "geometry": { "type": "Point", "coordinates": [ 121.1509, 31.300357 ] } },
{ "type": "Feature", "properties": { "Name": "中国平安人寿保险股份有限公司（新词商务楼东）", "Ctype": "中国平安保险公司", "Ntype": "160403", "Address": "安亭镇墨玉路２９号", "Telephone": null }, "geometry": { "type": "Point", "coordinates": [ 121.16400583333332, 31.290235 ] } },
{ "type": "Feature", "properties": { "Name": "中国人寿保险股份有限公司嘉定支公司（西南门）", "Ctype": "中国人寿保险公司", "Ntype": "160402", "Address": "人民街２８", "Telephone": null }, "geometry": { "type": "Point", "coordinates": [ 121.246735425555556, 31.382584324166665 ] } },
{ "type": "Feature", "properties": { "Name": "新华保险股份有限公司（嘉定水务稽查西）", "Ctype": "新华人寿保险公司", "Ntype": "160406", "Address": "沪宜公路３５１８号上纺物业汇佳园区", "Telephone": null }, "geometry": { "type": "Point", "coordinates": [ 121.246853841111118, 31.373768446111111 ] } },
{ "type": "Feature", "properties": { "Name": "新华保险（阳川路）", "Ctype": "保险公司", "Ntype": "160400", "Address": "沪宜公路３５１８", "Telephone": null }, "geometry": { "type": "Point", "coordinates": [ 121.246955994722228, 31.373437305277779 ] } },
{ "type": "Feature", "properties": { "Name": "中国人寿保险股份有限公司（嘉定支公司）", "Ctype": "中国人寿保险公司", "Ntype": "160402", "Address": "人民街２８", "Telephone": null }, "geometry": { "type": "Point", "coordinates": [ 121.246812090555551, 31.382622656666666 ] } },
{ "type": "Feature", "properties": { "Name": "史带财产保险股份有限公司（嘉定支公司营业部）", "Ctype": "保险公司", "Ntype": "160400", "Address": "环城路２２２２号嘉乐园商务大厦１８层１８０６", "Telephone": null }, "geometry": { "type": "Point", "coordinates": [ 121.239708658888887, 31.386091037222222 ] } },
{ "type": "Feature", "properties": { "Name": "史带财产保险股份有限公司（嘉行公路）", "Ctype": "保险公司", "Ntype": "160400", "Address": "嘉定环城路２００号徐行大厦", "Telephone": null }, "geometry": { "type": "Point", "coordinates": [ 121.254408841666674, 31.393828948888888 ] } },
{ "type": "Feature", "properties": { "Name": "中国人寿保险股份有限公司（上海客户服务中心）", "Ctype": "中国人寿保险公司", "Ntype": "160402", "Address": "人民街２８", "Telephone": null }, "geometry": { "type": "Point", "coordinates": [ 121.246842777777786, 31.382530277777779 ] } },
{ "type": "Feature", "properties": { "Name": "中国人寿财产保险股份有限公司（嘉定支公司）", "Ctype": "中国人寿保险公司", "Ntype": "160402", "Address": "塔城路４５３－３", "Telephone": null }, "geometry": { "type": "Point", "coordinates": [ 121.24672160055556, 31.378600255833334 ] } },
{ "type": "Feature", "properties": { "Name": "中国人民财产保险股份有限公司（嘉定支公司）", "Ctype": "中国人民保险公司", "Ntype": "160401", "Address": "城中路１９", "Telephone": "021-59928702" }, "geometry": { "type": "Point", "coordinates": [ 121.253392087499989, 31.375713377222219 ] } },
{ "type": "Feature", "properties": { "Name": "上海太保网络定损站", "Ctype": "保险公司", "Ntype": "160400", "Address": null, "Telephone": null }, "geometry": { "type": "Point", "coordinates": [ 121.224624023333334, 31.356877441388889 ] } },
{ "type": "Feature", "properties": { "Name": "上海天越保险代理有限公司", "Ctype": "保险公司", "Ntype": "160400", "Address": "嘉安公路２５９９－２６０１号", "Telephone": null }, "geometry": { "type": "Point", "coordinates": [ 121.20419162333333, 31.343208007777779 ] } },
{ "type": "Feature", "properties": { "Name": "中国人寿保险股份有限公司（中大街）", "Ctype": "中国人寿保险公司", "Ntype": "160402", "Address": "娄塘中大街１０７号", "Telephone": null }, "geometry": { "type": "Point", "coordinates": [ 121.216701660277778, 31.4309562175 ] } },
{ "type": "Feature", "properties": { "Name": "永诚财产保险股份有限公司（卫清西路）", "Ctype": "保险公司", "Ntype": "160400", "Address": null, "Telephone": null }, "geometry": { "type": "Point", "coordinates": [ 121.338966666666678, 30.72788 ] } },
{ "type": "Feature", "properties": { "Name": "中国人寿保险股份有限公司（上海客户服务中心）", "Ctype": "中国人寿保险公司", "Ntype": "160402", "Address": "蒙山路６１", "Telephone": null }, "geometry": { "type": "Point", "coordinates": [ 121.347211870833334, 30.71125803861111 ] } },
{ "type": "Feature", "properties": { "Name": "新华人寿保险股份有限公司（金山营销服务部）", "Ctype": "新华人寿保险公司", "Ntype": "160406", "Address": "卫清西路４２１号金山卫商务大厦Ａ６０３－Ａ６０６室", "Telephone": null }, "geometry": { "type": "Point", "coordinates": [ 121.345168888888892, 30.728991944444445 ] } },
{ "type": "Feature", "properties": { "Name": "安信农业保险股份有限公司（上海金山支公司）", "Ctype": "保险公司", "Ntype": "160400", "Address": "东平南路５６７－５７１", "Telephone": null }, "geometry": { "type": "Point", "coordinates": [ 121.332675555555554, 30.725449722222223 ] } },
{ "type": "Feature", "properties": { "Name": "中国大地财产保险股份有限公司（金山区旅游局东）", "Ctype": "保险公司", "Ntype": "160400", "Address": "金一东路１－３０４", "Telephone": null }, "geometry": { "type": "Point", "coordinates": [ 121.343742404444441, 30.714949544166664 ] } },
{ "type": "Feature", "properties": { "Name": "中国太平洋财产保险股份有限公司（金山支公司）", "Ctype": "中国太平洋保险", "Ntype": "160405", "Address": "卫清西路５９８号", "Telephone": null }, "geometry": { "type": "Point", "coordinates": [ 121.340743888888895, 30.728627777777778 ] } },
{ "type": "Feature", "properties": { "Name": "诚信人寿保险有限公司（上海分公司）", "Ctype": "保险公司", "Ntype": "160400", "Address": "卫清西路４２１号金山卫商务大厦３层３０１Ｂ－３０２Ｂ", "Telephone": null }, "geometry": { "type": "Point", "coordinates": [ 121.345168888888892, 30.728991944444445 ] } },
{ "type": "Feature", "properties": { "Name": "中德安联人寿保险有限公司（蒙山路营销服务部）", "Ctype": "保险公司", "Ntype": "160400", "Address": "蒙山路１１０９弄８号山鑫商务大楼西楼３层３０２", "Telephone": null }, "geometry": { "type": "Point", "coordinates": [ 121.343230833333337, 30.727980833333334 ] } },
{ "type": "Feature", "properties": { "Name": "泰康人寿保险股份有限公司（金山营管处）", "Ctype": "泰康人寿保险公司", "Ntype": "160408", "Address": "蒙山路１１０９弄８号山鑫商务大楼西楼４层４０５", "Telephone": null }, "geometry": { "type": "Point", "coordinates": [ 121.343230833333337, 30.727980833333334 ] } },
{ "type": "Feature", "properties": { "Name": "中国平安财产保险股份有限公司（金山支公司）", "Ctype": "中国平安保险公司", "Ntype": "160403", "Address": null, "Telephone": null }, "geometry": { "type": "Point", "coordinates": [ 121.358545, 30.719829 ] } },
{ "type": "Feature", "properties": { "Name": "中国人寿财产保险股份有限公司（金山支公司）", "Ctype": "中国人寿保险公司", "Ntype": "160402", "Address": "东平南路５７３－５７５", "Telephone": null }, "geometry": { "type": "Point", "coordinates": [ 121.332655555555561, 30.72553388888889 ] } },
{ "type": "Feature", "properties": { "Name": "中国太平洋人寿保险股份有限公司（卫清西路）", "Ctype": "中国太平洋保险", "Ntype": "160405", "Address": "卫清西路４２１号金山卫商务大厦３层３０３Ａ－３０４Ａ", "Telephone": null }, "geometry": { "type": "Point", "coordinates": [ 121.345168888888892, 30.728991944444445 ] } },
{ "type": "Feature", "properties": { "Name": "中国平安人寿保险股份有限公司（金山营管处）", "Ctype": "中国平安保险公司", "Ntype": "160403", "Address": "蒙山路１１０９弄８号山鑫商务大楼西楼２层", "Telephone": null }, "geometry": { "type": "Point", "coordinates": [ 121.343230833333337, 30.727980833333334 ] } },
{ "type": "Feature", "properties": { "Name": "史带财产保险股份有限公司（金一东路）", "Ctype": "保险公司", "Ntype": "160400", "Address": "金一东路７锦宏大楼３２１－３２６", "Telephone": null }, "geometry": { "type": "Point", "coordinates": [ 121.341784939166672, 30.714430609722221 ] } },
{ "type": "Feature", "properties": { "Name": "安邦保险（金山营销部）", "Ctype": "保险公司", "Ntype": "160400", "Address": "蒙山路１３０１", "Telephone": null }, "geometry": { "type": "Point", "coordinates": [ 121.342591111111105, 30.731485555555555 ] } },
{ "type": "Feature", "properties": { "Name": "中华联合财产保险股份有限公司上海金山支公司", "Ctype": "保险公司", "Ntype": "160400", "Address": "板桥西路２５８", "Telephone": null }, "geometry": { "type": "Point", "coordinates": [ 121.345318888888883, 30.733267222222224 ] } },
{ "type": "Feature", "properties": { "Name": "金盛人寿保险有限公司（卫清西路）", "Ctype": "保险公司", "Ntype": "160400", "Address": "卫清西路４２１号金山卫商务大厦４层", "Telephone": null }, "geometry": { "type": "Point", "coordinates": [ 121.345168888888892, 30.728991944444445 ] } },
{ "type": "Feature", "properties": { "Name": "中国人民财产保险股份有限公司（金山支公司）", "Ctype": "中国人民保险公司", "Ntype": "160401", "Address": "卫清西路５１５", "Telephone": "021-57966500" }, "geometry": { "type": "Point", "coordinates": [ 121.342711388888887, 30.728618888888889 ] } },
{ "type": "Feature", "properties": { "Name": "史带财产保险股份有限公司（金山支公司）", "Ctype": "保险公司", "Ntype": "160400", "Address": "卫清西路４２１号金山卫商务大厦６层６０１Ｂ－６０２Ｂ", "Telephone": null }, "geometry": { "type": "Point", "coordinates": [ 121.345168888888892, 30.728991944444445 ] } },
{ "type": "Feature", "properties": { "Name": "新华保险股份有限公司（卫清西路）", "Ctype": "新华人寿保险公司", "Ntype": "160406", "Address": "卫清西路３５５号山鑫城市广场Ｂ区", "Telephone": null }, "geometry": { "type": "Point", "coordinates": [ 121.34618277777777, 30.729218888888887 ] } },
{ "type": "Feature", "properties": { "Name": "华安保险（海丰路）", "Ctype": "保险公司", "Ntype": "160400", "Address": "海丰路１１２弄３３", "Telephone": null }, "geometry": { "type": "Point", "coordinates": [ 121.353110833333346, 30.757580833333332 ] } },
{ "type": "Feature", "properties": { "Name": "中国人寿保险股份有限公司（大慈路）", "Ctype": "中国人寿保险公司", "Ntype": "160402", "Address": "大慈路６０７", "Telephone": null }, "geometry": { "type": "Point", "coordinates": [ 121.316247016111106, 30.886653103333334 ] } },
{ "type": "Feature", "properties": { "Name": "建信人寿保险有限公司（松江洞泾路营销服务部）", "Ctype": "保险公司", "Ntype": "160400", "Address": "荣乐东路１８００", "Telephone": null }, "geometry": { "type": "Point", "coordinates": [ 121.259956, 31.017921 ] } },
{ "type": "Feature", "properties": { "Name": "华泰保险股份有限公司（洞宁路）", "Ctype": "华泰财产保险股份有限公司", "Ntype": "160407", "Address": "洞泾镇洞宁路６０９号", "Telephone": null }, "geometry": { "type": "Point", "coordinates": [ 121.279479222500001, 31.074726863055556 ] } },
{ "type": "Feature", "properties": { "Name": "天安财险（荣乐东路）", "Ctype": "保险公司", "Ntype": "160400", "Address": null, "Telephone": null }, "geometry": { "type": "Point", "coordinates": [ 121.261556, 31.01834 ] } },
{ "type": "Feature", "properties": { "Name": "中国人民财产保险股份有限公司闵行支公司（西北门）", "Ctype": "中国人民保险公司", "Ntype": "160401", "Address": "莘谭路２７５", "Telephone": null }, "geometry": { "type": "Point", "coordinates": [ 121.373396, 31.108955 ] } },
{ "type": "Feature", "properties": { "Name": "中国人寿保险股份有限公司", "Ctype": "中国人寿保险公司", "Ntype": "160402", "Address": "莘谭路５８０", "Telephone": null }, "geometry": { "type": "Point", "coordinates": [ 121.365919, 31.10486 ] } },
{ "type": "Feature", "properties": { "Name": "华泰保险股份有限公司（鼓浪路）", "Ctype": "华泰财产保险股份有限公司", "Ntype": "160407", "Address": null, "Telephone": "021-57711925" }, "geometry": { "type": "Point", "coordinates": [ 121.279793, 31.116636 ] } },
{ "type": "Feature", "properties": { "Name": "上海诚锐保险代理有限公司", "Ctype": "保险公司", "Ntype": "160400", "Address": "西环路３０１齐丰商务大楼", "Telephone": null }, "geometry": { "type": "Point", "coordinates": [ 121.366325030555544, 31.107185282222222 ] } },
{ "type": "Feature", "properties": { "Name": "中国人民财产保险股份有限公司（闵行支公司）", "Ctype": "中国人民保险公司", "Ntype": "160401", "Address": "莘谭路２７５", "Telephone": "021-64883535" }, "geometry": { "type": "Point", "coordinates": [ 121.373454, 31.108858 ] } },
{ "type": "Feature", "properties": { "Name": "华泰财产保险股份有限公司（惠琪店）", "Ctype": "华泰财产保险股份有限公司", "Ntype": "160407", "Address": null, "Telephone": null }, "geometry": { "type": "Point", "coordinates": [ 121.281338, 31.103163 ] } },
{ "type": "Feature", "properties": { "Name": "华泰保险股份有限公司（松江祁嘉店）", "Ctype": "华泰财产保险股份有限公司", "Ntype": "160407", "Address": "虬泾路９３４号", "Telephone": null }, "geometry": { "type": "Point", "coordinates": [ 121.336756891111108, 31.123950585555555 ] } },
{ "type": "Feature", "properties": { "Name": "中国太平洋财产保险股份有限公司（闵行支公司）", "Ctype": "中国太平洋保险", "Ntype": "160405", "Address": "莘建路１２５", "Telephone": null }, "geometry": { "type": "Point", "coordinates": [ 121.377503970555551, 31.106362497222221 ] } },
{ "type": "Feature", "properties": { "Name": "安信农业保险股份有限公司上海闵行支公司", "Ctype": "保险公司", "Ntype": "160400", "Address": "莘谭路１２２号", "Telephone": null }, "geometry": { "type": "Point", "coordinates": [ 121.37577, 31.110427 ] } },
{ "type": "Feature", "properties": { "Name": "中国人寿保险股份有限公司（宝南路）", "Ctype": "中国人寿保险公司", "Ntype": "160402", "Address": "七莘路２８８８号宝利大楼", "Telephone": null }, "geometry": { "type": "Point", "coordinates": [ 121.354130859444439, 31.148960774722223 ] } },
{ "type": "Feature", "properties": { "Name": "中国平安人寿保险股份有限公司（吴宝路）", "Ctype": "中国平安保险公司", "Ntype": "160403", "Address": "吴宝路４１５号新龙大厦", "Telephone": null }, "geometry": { "type": "Point", "coordinates": [ 121.34656336, 31.163134107777775 ] } },
{ "type": "Feature", "properties": { "Name": "中国人寿财产保险股份有限公司（莘松路）", "Ctype": "中国人寿保险公司", "Ntype": "160402", "Address": "莘松路３７８智慧园商务大楼", "Telephone": null }, "geometry": { "type": "Point", "coordinates": [ 121.371874728611118, 31.106212565 ] } },
{ "type": "Feature", "properties": { "Name": "上海锦正保险公估有限公司（西南门）", "Ctype": "保险公司", "Ntype": "160400", "Address": null, "Telephone": null }, "geometry": { "type": "Point", "coordinates": [ 121.373099, 31.211766 ] } },
{ "type": "Feature", "properties": { "Name": "华安保险（哈密路）", "Ctype": "保险公司", "Ntype": "160400", "Address": "哈密路１９６", "Telephone": null }, "geometry": { "type": "Point", "coordinates": [ 121.377548, 31.216924 ] } },
{ "type": "Feature", "properties": { "Name": "机动车物损交通事故保险理赔中心（翟业分中心）", "Ctype": "保险公司", "Ntype": "160400", "Address": null, "Telephone": "021-62205300" }, "geometry": { "type": "Point", "coordinates": [ 121.33842784777778, 31.223633597222221 ] } },
{ "type": "Feature", "properties": { "Name": "中国平安人寿保险股份有限公司（长宁金钟营销服务处）", "Ctype": "中国平安保险公司", "Ntype": "160403", "Address": "福泉路５２东华大学国家大学科技园", "Telephone": null }, "geometry": { "type": "Point", "coordinates": [ 121.359287238888882, 31.222847308055556 ] } },
{ "type": "Feature", "properties": { "Name": "中国人寿保险股份有限公司", "Ctype": "中国人寿保险公司", "Ntype": "160402", "Address": "华江路７８６", "Telephone": null }, "geometry": { "type": "Point", "coordinates": [ 121.328700406111111, 31.242859778055557 ] } },
{ "type": "Feature", "properties": { "Name": "上海锦正保险公估有限公司", "Ctype": "保险公司", "Ntype": "160400", "Address": "哈密路４３３号天涯商务楼４号楼", "Telephone": null }, "geometry": { "type": "Point", "coordinates": [ 121.373560136388889, 31.212438210833334 ] } },
{ "type": "Feature", "properties": { "Name": "中国平安财产保险股份有限公司（绿洲中环中心６东北）", "Ctype": "中国平安保险公司", "Ntype": "160403", "Address": "金沙江路１６２８弄３号１０２室", "Telephone": null }, "geometry": { "type": "Point", "coordinates": [ 121.378797866666673, 31.234064664166667 ] } },
{ "type": "Feature", "properties": { "Name": "徐泾镇三农保险服务站", "Ctype": "保险公司", "Ntype": "160400", "Address": "京华路９０弄５０号", "Telephone": null }, "geometry": { "type": "Point", "coordinates": [ 121.277571944444446, 31.169480833333331 ] } },
{ "type": "Feature", "properties": { "Name": "迪沅", "Ctype": "保险公司", "Ntype": "160400", "Address": null, "Telephone": null }, "geometry": { "type": "Point", "coordinates": [ 121.378557188888891, 31.233555030277778 ] } },
{ "type": "Feature", "properties": { "Name": "鼎和保险（上海嘉定和平综合经营部）", "Ctype": "保险公司", "Ntype": "160400", "Address": null, "Telephone": "021-39596667" }, "geometry": { "type": "Point", "coordinates": [ 121.26815576305556, 31.274528094444442 ] } },
{ "type": "Feature", "properties": { "Name": "交通事故保险理赔服务中心", "Ctype": "保险公司", "Ntype": "160400", "Address": null, "Telephone": null }, "geometry": { "type": "Point", "coordinates": [ 121.276238, 31.2708 ] } },
{ "type": "Feature", "properties": { "Name": "中国人民财产保险股份有限公司（民主街）", "Ctype": "中国人民保险公司", "Ntype": "160401", "Address": "民主街６", "Telephone": null }, "geometry": { "type": "Point", "coordinates": [ 121.313296388888901, 31.292499133611109 ] } },
{ "type": "Feature", "properties": { "Name": "安信农业保险股份有限公司（嘉定支公司）", "Ctype": "保险公司", "Ntype": "160400", "Address": "叶城路６３３", "Telephone": null }, "geometry": { "type": "Point", "coordinates": [ 121.256535373333335, 31.366023220555554 ] } },
{ "type": "Feature", "properties": { "Name": "建信人寿保险有限公司（民乐路）", "Ctype": "保险公司", "Ntype": "160400", "Address": "沪宜公路３０９９号绿地嘉创国际商务广场０９０１－０９０３", "Telephone": null }, "geometry": { "type": "Point", "coordinates": [ 121.257558051111118, 31.368347168055557 ] } },
{ "type": "Feature", "properties": { "Name": "安信农业保险股份有限公司（上海嘉定支公司）", "Ctype": "保险公司", "Ntype": "160400", "Address": "墅沟路６３", "Telephone": null }, "geometry": { "type": "Point", "coordinates": [ 121.277768349166664, 31.380840508888888 ] } },
{ "type": "Feature", "properties": { "Name": "中国平安财产保险股份有限公司（嘉定支公司）", "Ctype": "中国平安保险公司", "Ntype": "160403", "Address": "新成路１２１", "Telephone": null }, "geometry": { "type": "Point", "coordinates": [ 121.270105301388895, 31.376907812222221 ] } },
{ "type": "Feature", "properties": { "Name": "合众人寿（嘉定营销服务部）", "Ctype": "保险公司", "Ntype": "160400", "Address": "塔城路２６１", "Telephone": null }, "geometry": { "type": "Point", "coordinates": [ 121.257483181388892, 31.384462076944445 ] } },
{ "type": "Feature", "properties": { "Name": "中国太平洋保险（集团）股份有限公司（叶城路）", "Ctype": "中国太平洋保险", "Ntype": "160405", "Address": null, "Telephone": null }, "geometry": { "type": "Point", "coordinates": [ 121.255982360277784, 31.3669432425 ] } },
{ "type": "Feature", "properties": { "Name": "中华联合财产保险股份有限公司（嘉定支公司）", "Ctype": "保险公司", "Ntype": "160400", "Address": "塔城路２６１", "Telephone": null }, "geometry": { "type": "Point", "coordinates": [ 121.257371128611098, 31.384513832499998 ] } },
{ "type": "Feature", "properties": { "Name": "中国人寿保险股份有限公司（市一路）", "Ctype": "中国人寿保险公司", "Ntype": "160402", "Address": "罗店镇市一路１５７号", "Telephone": null }, "geometry": { "type": "Point", "coordinates": [ 121.348715636666668, 31.415556574722221 ] } },
{ "type": "Feature", "properties": { "Name": "上海展亚保险代理有限公司", "Ctype": "保险公司", "Ntype": "160400", "Address": null, "Telephone": "021-57252036" }, "geometry": { "type": "Point", "coordinates": [ 121.410804307777781, 30.795606553888888 ] } },
{ "type": "Feature", "properties": { "Name": "中保康联人寿保险有限公司", "Ctype": "保险公司", "Ntype": "160400", "Address": "南中路８０号上海金叶商厦１７层", "Telephone": null }, "geometry": { "type": "Point", "coordinates": [ 121.459364420555545, 30.913893771666665 ] } },
{ "type": "Feature", "properties": { "Name": "泰康人寿保险股份有限公司（周家弄）", "Ctype": "泰康人寿保险公司", "Ntype": "160408", "Address": "南中路８０号上海金叶商厦１６层", "Telephone": null }, "geometry": { "type": "Point", "coordinates": [ 121.459364420555545, 30.913893771666665 ] } },
{ "type": "Feature", "properties": { "Name": "中国平安保险（集团）股份有限公司", "Ctype": "中国平安保险公司", "Ntype": "160403", "Address": "江海路２４６号４层", "Telephone": null }, "geometry": { "type": "Point", "coordinates": [ 121.458844943611098, 30.906435004444447 ] } },
{ "type": "Feature", "properties": { "Name": "广电日生人寿保险有限公司奉贤南桥路营销服务部", "Ctype": "保险公司", "Ntype": "160400", "Address": "南中路１８８号６层", "Telephone": null }, "geometry": { "type": "Point", "coordinates": [ 121.456637912222234, 30.912603352777776 ] } },
{ "type": "Feature", "properties": { "Name": "都邦保险（环城西路）", "Ctype": "保险公司", "Ntype": "160400", "Address": "南桥环城西路５０９", "Telephone": null }, "geometry": { "type": "Point", "coordinates": [ 121.44404107, 30.909903157500001 ] } },
{ "type": "Feature", "properties": { "Name": "天安财产保险有限公司", "Ctype": "保险公司", "Ntype": "160400", "Address": "环城南路１２２９", "Telephone": null }, "geometry": { "type": "Point", "coordinates": [ 121.448244086388897, 30.901628146666667 ] } },
{ "type": "Feature", "properties": { "Name": "美国友邦保险有限公司（奉贤江海路营销服务部）", "Ctype": "保险公司", "Ntype": "160400", "Address": "江海路２４６", "Telephone": null }, "geometry": { "type": "Point", "coordinates": [ 121.458844943611098, 30.906435004444447 ] } },
{ "type": "Feature", "properties": { "Name": "华泰保险股份有限公司（南桥南星路）", "Ctype": "华泰财产保险股份有限公司", "Ntype": "160407", "Address": "南桥南星路６１", "Telephone": null }, "geometry": { "type": "Point", "coordinates": [ 121.458570421111105, 30.901726888055556 ] } },
{ "type": "Feature", "properties": { "Name": "华泰保险股份有限公司（南桥秀龙路）", "Ctype": "华泰财产保险股份有限公司", "Ntype": "160407", "Address": null, "Telephone": null }, "geometry": { "type": "Point", "coordinates": [ 121.45701199, 30.907626953055555 ] } },
{ "type": "Feature", "properties": { "Name": "英大泰和财产保险股份有限公司（新建西路）", "Ctype": "保险公司", "Ntype": "160400", "Address": "新建西路６３１", "Telephone": null }, "geometry": { "type": "Point", "coordinates": [ 121.441835666111118, 30.913363172777778 ] } },
{ "type": "Feature", "properties": { "Name": "紫金财产保险股份有限公司（新建西路）", "Ctype": "保险公司", "Ntype": "160400", "Address": "新建西路６５５－６５９", "Telephone": null }, "geometry": { "type": "Point", "coordinates": [ 121.440797254722227, 30.913060980833333 ] } },
{ "type": "Feature", "properties": { "Name": "上海中贤保险咨询公司", "Ctype": "保险公司", "Ntype": "160400", "Address": "新建西路５０５号", "Telephone": "021-57181258" }, "geometry": { "type": "Point", "coordinates": [ 121.44458903, 30.91406439888889 ] } },
{ "type": "Feature", "properties": { "Name": "中华联合财产保险股份有限公司（奉贤支公司）", "Ctype": "保险公司", "Ntype": "160400", "Address": "新建西路６４９", "Telephone": "021-67111365" }, "geometry": { "type": "Point", "coordinates": [ 121.440925293055557, 30.913088650277778 ] } },
{ "type": "Feature", "properties": { "Name": "上海润予保险代理", "Ctype": "保险公司", "Ntype": "160400", "Address": "育秀路１３５弄９号", "Telephone": null }, "geometry": { "type": "Point", "coordinates": [ 121.467980414444455, 30.909094509444444 ] } },
{ "type": "Feature", "properties": { "Name": "南桥镇农业服务中心三农保险服务站", "Ctype": "保险公司", "Ntype": "160400", "Address": "沪杭公路２１８９号", "Telephone": null }, "geometry": { "type": "Point", "coordinates": [ 121.442381727500006, 30.904541015555555 ] } },
{ "type": "Feature", "properties": { "Name": "中国人寿财产保险股份有限公司（奉贤支公司）", "Ctype": "中国人寿保险公司", "Ntype": "160402", "Address": "江海路１３２", "Telephone": null }, "geometry": { "type": "Point", "coordinates": [ 121.459958346944447, 30.90248570861111 ] } },
{ "type": "Feature", "properties": { "Name": "中国平安保险（集团）股份有限公司", "Ctype": "中国平安保险公司", "Ntype": "160403", "Address": "江海路２４６", "Telephone": null }, "geometry": { "type": "Point", "coordinates": [ 121.458702144444445, 30.906447238888887 ] } },
{ "type": "Feature", "properties": { "Name": "华泰保险股份有限公司（菜场二支路）", "Ctype": "华泰财产保险股份有限公司", "Ntype": "160407", "Address": null, "Telephone": null }, "geometry": { "type": "Point", "coordinates": [ 121.452192925277771, 30.908981662222221 ] } },
{ "type": "Feature", "properties": { "Name": "南桥镇农业服务中心三农保险服务站（西南门）", "Ctype": "保险公司", "Ntype": "160400", "Address": "沪杭公路２１８９号", "Telephone": null }, "geometry": { "type": "Point", "coordinates": [ 121.442222222222227, 30.904484049444445 ] } },
{ "type": "Feature", "properties": { "Name": "工银安盛人寿（奉贤南奉公路营销服务部）", "Ctype": "保险公司", "Ntype": "160400", "Address": "南奉公路９７５０号２层", "Telephone": null }, "geometry": { "type": "Point", "coordinates": [ 121.458940481666673, 30.910893877222222 ] } },
{ "type": "Feature", "properties": { "Name": "浙商保险（奉贤支公司）", "Ctype": "保险公司", "Ntype": "160400", "Address": "环城南路１１４６", "Telephone": null }, "geometry": { "type": "Point", "coordinates": [ 121.448058268333327, 30.901962076944447 ] } },
{ "type": "Feature", "properties": { "Name": "华泰保险股份有限公司（上海泰泰店）", "Ctype": "华泰财产保险股份有限公司", "Ntype": "160407", "Address": "环城西路６６１", "Telephone": null }, "geometry": { "type": "Point", "coordinates": [ 121.443013509166661, 30.913158365833333 ] } },
{ "type": "Feature", "properties": { "Name": "长生人寿保险有限公司（奉贤南桥路营销服务部）", "Ctype": "保险公司", "Ntype": "160400", "Address": "南桥路１８８", "Telephone": null }, "geometry": { "type": "Point", "coordinates": [ 121.456545956111114, 30.91250855611111 ] } },
{ "type": "Feature", "properties": { "Name": "中国人寿保险股份有限公司（奉贤支公司）", "Ctype": "中国人寿保险公司", "Ntype": "160402", "Address": null, "Telephone": null }, "geometry": { "type": "Point", "coordinates": [ 121.458179486944445, 30.914875432222225 ] } },
{ "type": "Feature", "properties": { "Name": "中国太平洋财产保险股份有限公司（奉贤支公司）", "Ctype": "中国太平洋保险", "Ntype": "160405", "Address": "解放东路１００８号绿地翡翠４号楼２６层", "Telephone": "021-37122750" }, "geometry": { "type": "Point", "coordinates": [ 121.472701, 30.918176 ] } },
{ "type": "Feature", "properties": { "Name": "中国人寿保险股份有限公司（奉贤支公司）", "Ctype": "中国人寿保险公司", "Ntype": "160402", "Address": "人民中路１９５、１９９", "Telephone": null }, "geometry": { "type": "Point", "coordinates": [ 121.458489289166678, 30.914833329166665 ] } },
{ "type": "Feature", "properties": { "Name": "安诚保险（奉浦大道）", "Ctype": "保险公司", "Ntype": "160400", "Address": null, "Telephone": null }, "geometry": { "type": "Point", "coordinates": [ 121.460773530000012, 30.942743173611113 ] } },
{ "type": "Feature", "properties": { "Name": "华泰保险股份有限公司（人民北路店）", "Ctype": "华泰财产保险股份有限公司", "Ntype": "160407", "Address": "人民北路５８", "Telephone": null }, "geometry": { "type": "Point", "coordinates": [ 121.457743297222223, 30.917962456666665 ] } },
{ "type": "Feature", "properties": { "Name": "安信农业保险股份有限公司（文耀路）", "Ctype": "保险公司", "Ntype": "160400", "Address": null, "Telephone": null }, "geometry": { "type": "Point", "coordinates": [ 121.501952582499996, 30.918729112499999 ] } },
{ "type": "Feature", "properties": { "Name": "中国人民财产保险股份有限公司（奉贤支公司）", "Ctype": "中国人民保险公司", "Ntype": "160401", "Address": "解放中路３８７", "Telephone": "021-57420051" }, "geometry": { "type": "Point", "coordinates": [ 121.459020724722222, 30.915032009444445 ] } },
{ "type": "Feature", "properties": { "Name": "上海至安保险代理有限公司", "Ctype": "保险公司", "Ntype": "160400", "Address": "新建东路５１８、５２２", "Telephone": "021-37112525" }, "geometry": { "type": "Point", "coordinates": [ 121.469036308888889, 30.919970122500001 ] } },
{ "type": "Feature", "properties": { "Name": "华安保险（解放东路）", "Ctype": "保险公司", "Ntype": "160400", "Address": "解放东路７６９", "Telephone": null }, "geometry": { "type": "Point", "coordinates": [ 121.479382475833333, 30.917955151666668 ] } },
{ "type": "Feature", "properties": { "Name": "平安保险（龙吴路）", "Ctype": "保险公司", "Ntype": "160400", "Address": null, "Telephone": null }, "geometry": { "type": "Point", "coordinates": [ 121.46853244361111, 31.041486545277778 ] } },
{ "type": "Feature", "properties": { "Name": "中国太平洋安泰人寿保险股份有限公司（闵行营销服务部）", "Ctype": "中国太平洋保险", "Ntype": "160405", "Address": "沪闵路６８", "Telephone": null }, "geometry": { "type": "Point", "coordinates": [ 121.425746787500003, 31.000520779722223 ] } },
{ "type": "Feature", "properties": { "Name": "天安财险（市西理赔分部）", "Ctype": "保险公司", "Ntype": "160400", "Address": "光华路９－２", "Telephone": null }, "geometry": { "type": "Point", "coordinates": [ 121.397448, 31.072053 ] } },
{ "type": "Feature", "properties": { "Name": "中华联合财产保险股份有限公司（东川路）", "Ctype": "保险公司", "Ntype": "160400", "Address": "东川路２３３０", "Telephone": null }, "geometry": { "type": "Point", "coordinates": [ 121.412594444444451, 31.012176666666665 ] } },
{ "type": "Feature", "properties": { "Name": "华泰保险股份有限公司（东川路）", "Ctype": "华泰财产保险股份有限公司", "Ntype": "160407", "Address": null, "Telephone": null }, "geometry": { "type": "Point", "coordinates": [ 121.402983, 31.009137 ] } },
{ "type": "Feature", "properties": { "Name": "中国平安人寿保险股份有限公司（闵行沪闵路营销服务部）", "Ctype": "中国平安保险公司", "Ntype": "160403", "Address": "沪闵路３６３号", "Telephone": null }, "geometry": { "type": "Point", "coordinates": [ 121.423194, 31.011196 ] } },
{ "type": "Feature", "properties": { "Name": "英大泰和财产保险股份有限公司（金平路步行街）", "Ctype": "保险公司", "Ntype": "160400", "Address": null, "Telephone": null }, "geometry": { "type": "Point", "coordinates": [ 121.40765555555555, 31.019955555555555 ] } },
{ "type": "Feature", "properties": { "Name": "中国大地财产保险股份有限公司（罗阳路）", "Ctype": "保险公司", "Ntype": "160400", "Address": "罗阳路３３７", "Telephone": null }, "geometry": { "type": "Point", "coordinates": [ 121.407178276944435, 31.124968804166667 ] } },
{ "type": "Feature", "properties": { "Name": "中国人寿保险股份有限公司（沪闵路辅路）", "Ctype": "中国人寿保险公司", "Ntype": "160402", "Address": "沪闵路８０７５号虹梅商务大厦６１４", "Telephone": null }, "geometry": { "type": "Point", "coordinates": [ 121.414360894166663, 31.14255778 ] } },
{ "type": "Feature", "properties": { "Name": "中国平安人寿保险股份有限公司（上海分公司）", "Ctype": "中国平安保险公司", "Ntype": "160403", "Address": "雅致路２１５置业大厦８层", "Telephone": null }, "geometry": { "type": "Point", "coordinates": [ 121.382660047777776, 31.115052897222224 ] } },
{ "type": "Feature", "properties": { "Name": "中华联合财产保险股份有限公司闵行支公司（龙茗路）", "Ctype": "保险公司", "Ntype": "160400", "Address": "龙茗路９８号上海铭阳大酒店５号商务楼４层", "Telephone": null }, "geometry": { "type": "Point", "coordinates": [ 121.39133626305555, 31.124423285555554 ] } },
{ "type": "Feature", "properties": { "Name": "中华联合财产保险股份有限公司（报春路）", "Ctype": "保险公司", "Ntype": "160400", "Address": null, "Telephone": null }, "geometry": { "type": "Point", "coordinates": [ 121.392248, 31.125513 ] } },
{ "type": "Feature", "properties": { "Name": "上海市机动车物损交通事故保险理赔服务中心（星州分中心）", "Ctype": "保险公司", "Ntype": "160400", "Address": "徐梅路１８０号", "Telephone": "021-54825711" }, "geometry": { "type": "Point", "coordinates": [ 121.456924, 31.12468 ] } },
{ "type": "Feature", "properties": { "Name": "中国太平洋安泰人寿保险股份有限公司（雅怡路）", "Ctype": "中国太平洋保险", "Ntype": "160405", "Address": "雅致路２１５置业大厦１５层１５０５Ｂ、１６层", "Telephone": null }, "geometry": { "type": "Point", "coordinates": [ 121.382660047777776, 31.115052897222224 ] } },
{ "type": "Feature", "properties": { "Name": "上海（海上）保险代理公司", "Ctype": "保险公司", "Ntype": "160400", "Address": "罗秀路１０８聚鑫商务楼３层８３０７－８３０８", "Telephone": null }, "geometry": { "type": "Point", "coordinates": [ 121.449188639444444, 31.134800075833333 ] } },
{ "type": "Feature", "properties": { "Name": "中国平安财产保险股份有限公司（闵行客户中心）", "Ctype": "中国平安保险公司", "Ntype": "160403", "Address": "漕宝路１０４４－１０４８", "Telephone": "021-52232842" }, "geometry": { "type": "Point", "coordinates": [ 121.40095, 31.161102 ] } },
{ "type": "Feature", "properties": { "Name": "华泰保险股份有限公司（三林店）", "Ctype": "华泰财产保险股份有限公司", "Ntype": "160407", "Address": null, "Telephone": null }, "geometry": { "type": "Point", "coordinates": [ 121.492612, 31.151546 ] } },
{ "type": "Feature", "properties": { "Name": "太平洋保险闵行分公司", "Ctype": "保险公司", "Ntype": "160400", "Address": "名都路３６弄６０号之１－３号３层", "Telephone": null }, "geometry": { "type": "Point", "coordinates": [ 121.39055149694444, 31.107726650555556 ] } },
{ "type": "Feature", "properties": { "Name": "泰康人寿保险股份有限公司（闵行营销服务部）", "Ctype": "泰康人寿保险公司", "Ntype": "160408", "Address": "雅致路２１５号置业大厦１３０２室", "Telephone": null }, "geometry": { "type": "Point", "coordinates": [ 121.382683333333333, 31.115173611111111 ] } },
{ "type": "Feature", "properties": { "Name": "建信人寿（雅怡路）", "Ctype": "保险公司", "Ntype": "160400", "Address": "雅致路２１５号置业大厦", "Telephone": null }, "geometry": { "type": "Point", "coordinates": [ 121.382683333333333, 31.115173611111111 ] } },
{ "type": "Feature", "properties": { "Name": "中国人寿保险股份有限公司（莘建东路）", "Ctype": "中国人寿保险公司", "Ntype": "160402", "Address": "莘建东路４３７", "Telephone": null }, "geometry": { "type": "Point", "coordinates": [ 121.382451, 31.109436 ] } },
{ "type": "Feature", "properties": { "Name": "中国人寿保险股份有限公司（上海分公司电销中心）", "Ctype": "中国人寿保险公司", "Ntype": "160402", "Address": "莲花南路３８８", "Telephone": null }, "geometry": { "type": "Point", "coordinates": [ 121.406761731944442, 31.123921678611108 ] } },
{ "type": "Feature", "properties": { "Name": "中国人寿保险股份有限公司（杨新路）", "Ctype": "中国人寿保险公司", "Ntype": "160402", "Address": null, "Telephone": null }, "geometry": { "type": "Point", "coordinates": [ 121.491173, 31.162971 ] } },
{ "type": "Feature", "properties": { "Name": "中国平安财产保险股份有限公司（漕宝路）", "Ctype": "中国平安保险公司", "Ntype": "160403", "Address": null, "Telephone": "021-52232842" }, "geometry": { "type": "Point", "coordinates": [ 121.400863, 31.161184 ] } },
{ "type": "Feature", "properties": { "Name": "新华保险股份有限公司（邻里苑商务楼Ｄ栋西）", "Ctype": "新华人寿保险公司", "Ntype": "160406", "Address": "沪闵路５６００弄１４４－１４６", "Telephone": null }, "geometry": { "type": "Point", "coordinates": [ 121.380175952222217, 31.100947764444442 ] } },
{ "type": "Feature", "properties": { "Name": "中宏保险（绿地科技岛广场Ｂ座东北）", "Ctype": "保险公司", "Ntype": "160400", "Address": "广通路６６弄３号１３４室３０８", "Telephone": null }, "geometry": { "type": "Point", "coordinates": [ 121.38670504444444, 31.115756931944443 ] } },
{ "type": "Feature", "properties": { "Name": "中国太平洋保险（集团）股份有限公司（上海分公司）", "Ctype": "中国太平洋保险", "Ntype": "160405", "Address": "陆家浜路１０５４－１０５６东方苑办公楼１８层", "Telephone": null }, "geometry": { "type": "Point", "coordinates": [ 121.488578559166669, 31.21167941611111 ] } },
{ "type": "Feature", "properties": { "Name": "中国平安财产保险股份有限公司（上海汉口路营销服务部）", "Ctype": "中国平安保险公司", "Ntype": "160403", "Address": "汉口路６９８中福时尚地带", "Telephone": null }, "geometry": { "type": "Point", "coordinates": [ 121.477037777777781, 31.233796944444443 ] } },
{ "type": "Feature", "properties": { "Name": "中国平安人寿保险股份有限公司（天目西路营销服务部）", "Ctype": "中国平安保险公司", "Ntype": "160403", "Address": "天目西路５４７号联通国际大厦２３０１－２３１６、２２０１－２２１６", "Telephone": null }, "geometry": { "type": "Point", "coordinates": [ 121.449756651944455, 31.245892068611109 ] } },
{ "type": "Feature", "properties": { "Name": "中国平安人寿保险股份有限公司（巨鹿路）", "Ctype": "中国平安保险公司", "Ntype": "160403", "Address": "巨鹿路４１７欣广大厦１－８层", "Telephone": null }, "geometry": { "type": "Point", "coordinates": [ 121.457655, 31.222073 ] } },
{ "type": "Feature", "properties": { "Name": "中国人寿财产保险股份有限公司（上海市分公司）", "Ctype": "中国人寿保险公司", "Ntype": "160402", "Address": null, "Telephone": null }, "geometry": { "type": "Point", "coordinates": [ 121.490162, 31.245397 ] } },
{ "type": "Feature", "properties": { "Name": "中国太平洋保险（集团）股份有限公司（天目中路）", "Ctype": "中国太平洋保险", "Ntype": "160405", "Address": "天目中路３８３号海文大楼１３层", "Telephone": null }, "geometry": { "type": "Point", "coordinates": [ 121.467280273333344, 31.244890408055557 ] } },
{ "type": "Feature", "properties": { "Name": "中华联合财产保险股份有限公司上海分公司", "Ctype": "保险公司", "Ntype": "160400", "Address": null, "Telephone": null }, "geometry": { "type": "Point", "coordinates": [ 121.466922, 31.234068 ] } },
{ "type": "Feature", "properties": { "Name": "新华人寿保险股份有限公司（上海分公司）", "Ctype": "新华人寿保险公司", "Ntype": "160406", "Address": "新闸路１０５１号东鼎商务中心", "Telephone": null }, "geometry": { "type": "Point", "coordinates": [ 121.455961914166664, 31.232930501388889 ] } },
{ "type": "Feature", "properties": { "Name": "中国平安人寿保险股份有限公司（华山路）", "Ctype": "中国平安保险公司", "Ntype": "160403", "Address": "常熟路８", "Telephone": null }, "geometry": { "type": "Point", "coordinates": [ 121.446458333333339, 31.218169444444445 ] } },
{ "type": "Feature", "properties": { "Name": "中国人寿保险股份有限公司（中山南一路营销服务部）", "Ctype": "中国人寿保险公司", "Ntype": "160402", "Address": "中山南一路７２１弄１号", "Telephone": null }, "geometry": { "type": "Point", "coordinates": [ 121.479762749722227, 31.198480023333335 ] } },
{ "type": "Feature", "properties": { "Name": "美国友邦保险有限公司（天钥桥路营销服务部）", "Ctype": "保险公司", "Ntype": "160400", "Address": "天钥桥路３０美罗大厦８、１０层", "Telephone": null }, "geometry": { "type": "Point", "coordinates": [ 121.440537923055558, 31.193001573333333 ] } },
{ "type": "Feature", "properties": { "Name": "长生人寿（吴江路）", "Ctype": "保险公司", "Ntype": "160400", "Address": "吴江路３１号东方众鑫大厦１１０４Ｆ", "Telephone": null }, "geometry": { "type": "Point", "coordinates": [ 121.463356111111111, 31.230313611111111 ] } },
{ "type": "Feature", "properties": { "Name": "上海易诺保险代理有限公司", "Ctype": "保险公司", "Ntype": "160400", "Address": "天山路１８２５号皇家商务楼３０３", "Telephone": "021-62298377" }, "geometry": { "type": "Point", "coordinates": [ 121.410509440000013, 31.209523383333334 ] } },
{ "type": "Feature", "properties": { "Name": "长安保险经纪有限公司（上海分公司）", "Ctype": "保险公司", "Ntype": "160400", "Address": "重庆南路３１０新电大厦８层８０５－８０７", "Telephone": null }, "geometry": { "type": "Point", "coordinates": [ 121.472016059166663, 31.209555121666668 ] } },
{ "type": "Feature", "properties": { "Name": "亚太保险代理", "Ctype": "保险公司", "Ntype": "160400", "Address": "江宁路４１８－４２２和一大厦２６０３", "Telephone": null }, "geometry": { "type": "Point", "coordinates": [ 121.453735622777785, 31.234952256944446 ] } },
{ "type": "Feature", "properties": { "Name": "蓝十字（亚太）保险有限公司（上海代表处）", "Ctype": "保险公司", "Ntype": "160400", "Address": "北京西路１２７７号国旅大厦９１５", "Telephone": null }, "geometry": { "type": "Point", "coordinates": [ 121.451170518611121, 31.228673502499998 ] } },
{ "type": "Feature", "properties": { "Name": "长城保险经纪有限公司（华东分公司）", "Ctype": "保险公司", "Ntype": "160400", "Address": "定西路１１００号辽油大厦８层Ｇ－Ｈ座", "Telephone": null }, "geometry": { "type": "Point", "coordinates": [ 121.42361735027778, 31.211721462777778 ] } },
{ "type": "Feature", "properties": { "Name": "幸福人寿保险股份有限公司（上海分公司）", "Ctype": "保险公司", "Ntype": "160400", "Address": "北京西路１３９９号信达大厦１６层Ｃ－Ｄ、２３层", "Telephone": null }, "geometry": { "type": "Point", "coordinates": [ 121.448589138333332, 31.2274037 ] } },
{ "type": "Feature", "properties": { "Name": "寰宇保险代理（上海）有限公司", "Ctype": "保险公司", "Ntype": "160400", "Address": "淮海中路１３２５号爱美高大厦１００１", "Telephone": null }, "geometry": { "type": "Point", "coordinates": [ 121.449942777777778, 31.212307777777777 ] } },
{ "type": "Feature", "properties": { "Name": "中国人寿保险股份有限公司（上海市分公司）", "Ctype": "中国人寿保险公司", "Ntype": "160402", "Address": "江宁路８２６弄５号", "Telephone": null }, "geometry": { "type": "Point", "coordinates": [ 121.448255555555548, 31.240493055555554 ] } },
{ "type": "Feature", "properties": { "Name": "太平洋保险（静安支公司）", "Ctype": "中国太平洋保险", "Ntype": "160405", "Address": null, "Telephone": null }, "geometry": { "type": "Point", "coordinates": [ 121.444305, 31.228472 ] } },
{ "type": "Feature", "properties": { "Name": "中国平安（定西路）", "Ctype": "中国平安保险公司", "Ntype": "160403", "Address": null, "Telephone": null }, "geometry": { "type": "Point", "coordinates": [ 121.422017, 31.21662 ] } },
{ "type": "Feature", "properties": { "Name": "凯尔保险代理（上海）有限公司", "Ctype": "保险公司", "Ntype": "160400", "Address": "汉中路１５８号汉中广场１１层１１０３", "Telephone": "021-52358915" }, "geometry": { "type": "Point", "coordinates": [ 121.458211263055546, 31.24226535361111 ] } },
{ "type": "Feature", "properties": { "Name": "中德安联人寿保险有限公司（肇嘉浜路）", "Ctype": "保险公司", "Ntype": "160400", "Address": "肇嘉浜路８０７上海五洲国际大厦１６层", "Telephone": null }, "geometry": { "type": "Point", "coordinates": [ 121.447840983055556, 31.197945149722223 ] } },
{ "type": "Feature", "properties": { "Name": "中国大地保险（峨嵋路）", "Ctype": "保险公司", "Ntype": "160400", "Address": null, "Telephone": null }, "geometry": { "type": "Point", "coordinates": [ 121.490471388888878, 31.246465555555556 ] } },
{ "type": "Feature", "properties": { "Name": "中国大地财产保险股份有限公司（上海分公司）", "Ctype": "保险公司", "Ntype": "160400", "Address": "北京西路１４６５国立大厦７－８层", "Telephone": null }, "geometry": { "type": "Point", "coordinates": [ 121.448017578055556, 31.227231716666669 ] } },
{ "type": "Feature", "properties": { "Name": "中国大地财产保险股份有限公司（延平路）", "Ctype": "保险公司", "Ntype": "160400", "Address": "延平路１２１三和大厦１１层", "Telephone": null }, "geometry": { "type": "Point", "coordinates": [ 121.440983073055563, 31.228477918888888 ] } },
{ "type": "Feature", "properties": { "Name": "上海安国保险经纪有限公司（新桥支路）", "Ctype": "保险公司", "Ntype": "160400", "Address": "莲花路１７３３华纳商务中心３０８－３０９", "Telephone": null }, "geometry": { "type": "Point", "coordinates": [ 121.390204806944453, 31.170069444444444 ] } },
{ "type": "Feature", "properties": { "Name": "永城财产保险股份有限公司（闸北支公司）", "Ctype": "保险公司", "Ntype": "160400", "Address": "天目中路２５３－２６７号蓝宝石大厦１１层", "Telephone": null }, "geometry": { "type": "Point", "coordinates": [ 121.47010281027778, 31.246809081944445 ] } },
{ "type": "Feature", "properties": { "Name": "华泰财产保险股份有限公司（卢湾支公司）", "Ctype": "华泰财产保险股份有限公司", "Ntype": "160407", "Address": "巨鹿路４１７欣广大厦１０层１００５", "Telephone": null }, "geometry": { "type": "Point", "coordinates": [ 121.457648888888897, 31.22204277777778 ] } },
{ "type": "Feature", "properties": { "Name": "阳光人寿保险股份有限公司（吴江路）", "Ctype": "保险公司", "Ntype": "160400", "Address": "吴江路１５８中创大厦２０层", "Telephone": null }, "geometry": { "type": "Point", "coordinates": [ 121.460857777777775, 31.230322777777776 ] } },
{ "type": "Feature", "properties": { "Name": "上海荣广保险代理有限公司", "Ctype": "保险公司", "Ntype": "160400", "Address": "中山南一路１０６５天歌大地大厦２０层２００１", "Telephone": null }, "geometry": { "type": "Point", "coordinates": [ 121.472209303611109, 31.196080726666668 ] } },
{ "type": "Feature", "properties": { "Name": "安信农业保险股份有限公司营业部", "Ctype": "保险公司", "Ntype": "160400", "Address": "延平路１２１三和大厦２２层", "Telephone": null }, "geometry": { "type": "Point", "coordinates": [ 121.440983073055563, 31.228477918888888 ] } },
{ "type": "Feature", "properties": { "Name": "华安财产保险股份有限公司（上海分公司）", "Ctype": "保险公司", "Ntype": "160400", "Address": "江宁路１６８号上海兴业大厦３１层", "Telephone": null }, "geometry": { "type": "Point", "coordinates": [ 121.45537841805556, 31.230708550277779 ] } },
{ "type": "Feature", "properties": { "Name": "永诚财产保险股份有限公司（静安支公司）", "Ctype": "保险公司", "Ntype": "160400", "Address": "万航渡路８８８号开开广场１５层Ｂ－Ｆ", "Telephone": null }, "geometry": { "type": "Point", "coordinates": [ 121.428695475277777, 31.228294270833334 ] } },
{ "type": "Feature", "properties": { "Name": "民生人寿保险股份有限公司（江宁路）", "Ctype": "保险公司", "Ntype": "160400", "Address": "江宁路１６７号新城大厦２３层", "Telephone": null }, "geometry": { "type": "Point", "coordinates": [ 121.454465874444452, 31.230599772222224 ] } },
{ "type": "Feature", "properties": { "Name": "中国人寿财产保险股份有限公司（上海徐汇区公司）", "Ctype": "中国人寿保险公司", "Ntype": "160402", "Address": "吴中路１０８号锦江１００商务中心", "Telephone": null }, "geometry": { "type": "Point", "coordinates": [ 121.413940158333332, 31.187220865833332 ] } },
{ "type": "Feature", "properties": { "Name": "上海市社会保险事业管理中心", "Ctype": "保险公司", "Ntype": "160400", "Address": null, "Telephone": null }, "geometry": { "type": "Point", "coordinates": [ 121.410806, 31.245983 ] } },
{ "type": "Feature", "properties": { "Name": "新华保险股份有限公司客户服务中心（北京西路）", "Ctype": "保险公司", "Ntype": "160400", "Address": "北京西路６６９号东展商业大厦８层", "Telephone": null }, "geometry": { "type": "Point", "coordinates": [ 121.461845, 31.23265388888889 ] } },
{ "type": "Feature", "properties": { "Name": "广州大成保险经纪有限公司", "Ctype": "保险公司", "Ntype": "160400", "Address": "西藏南路７６０安基大厦８层", "Telephone": null }, "geometry": { "type": "Point", "coordinates": [ 121.484838595833324, 31.214718424444445 ] } },
{ "type": "Feature", "properties": { "Name": "中美联泰大都会人寿保险有限公司", "Ctype": "保险公司", "Ntype": "160400", "Address": "黄陂北路２２７中区广场５层、１１层－１２层、１５层", "Telephone": null }, "geometry": { "type": "Point", "coordinates": [ 121.470474444444434, 31.22922916666667 ] } },
{ "type": "Feature", "properties": { "Name": "中国人民保险（上海市分公司）", "Ctype": "中国人民保险公司", "Ntype": "160401", "Address": null, "Telephone": null }, "geometry": { "type": "Point", "coordinates": [ 121.44247, 31.185917 ] } },
{ "type": "Feature", "properties": { "Name": "中国平安财产保险股份有限公司（卢湾支公司）", "Ctype": "中国平安保险公司", "Ntype": "160403", "Address": "打浦路８８号海丽大厦８Ａ", "Telephone": null }, "geometry": { "type": "Point", "coordinates": [ 121.470246310833332, 31.20314398861111 ] } },
{ "type": "Feature", "properties": { "Name": "中国人民财产保险股份有限公司（上海市分公司直属支公司）", "Ctype": "中国人民保险公司", "Ntype": "160401", "Address": "南苏州路３３３号华隆大厦１８层", "Telephone": null }, "geometry": { "type": "Point", "coordinates": [ 121.483942777777784, 31.241846666666667 ] } },
{ "type": "Feature", "properties": { "Name": "华泰财产保险股份有限公司（静安支公司）", "Ctype": "华泰财产保险股份有限公司", "Ntype": "160407", "Address": "万航渡路８８８号开开广场２１层Ｍ", "Telephone": null }, "geometry": { "type": "Point", "coordinates": [ 121.428695475277777, 31.228294270833334 ] } },
{ "type": "Feature", "properties": { "Name": "史带财产保险股份有限公司（上海分公司）", "Ctype": "保险公司", "Ntype": "160400", "Address": "延安西路１０２３－１０３３大众金融大厦３、５－６层", "Telephone": null }, "geometry": { "type": "Point", "coordinates": [ 121.42960801861112, 31.212319607222224 ] } },
{ "type": "Feature", "properties": { "Name": "中国太平人寿保险公司（石门一路）", "Ctype": "保险公司", "Ntype": "160400", "Address": "石门一路２１１旺旺大厦２层、５－７层", "Telephone": null }, "geometry": { "type": "Point", "coordinates": [ 121.462189166666661, 31.227868055555554 ] } },
{ "type": "Feature", "properties": { "Name": "中国大地财产保险股份有限公司（卢湾支公司）", "Ctype": "保险公司", "Ntype": "160400", "Address": "徐家汇路５５０号宝鼎大厦１８层Ａ１", "Telephone": null }, "geometry": { "type": "Point", "coordinates": [ 121.470456543055562, 31.206196560277778 ] } },
{ "type": "Feature", "properties": { "Name": "富士火灾海上保险株式会社上海代表处", "Ctype": "保险公司", "Ntype": "160400", "Address": "仙霞路３１７号远东国际广场Ｂ栋２０层Ｂ２０１０－１１", "Telephone": null }, "geometry": { "type": "Point", "coordinates": [ 121.401483832499991, 31.206458604722222 ] } },
{ "type": "Feature", "properties": { "Name": "长江保险经纪", "Ctype": "保险公司", "Ntype": "160400", "Address": "威海路１２８号长发大厦５层５０５", "Telephone": null }, "geometry": { "type": "Point", "coordinates": [ 121.468481111111117, 31.227989444444447 ] } },
{ "type": "Feature", "properties": { "Name": "东大保险", "Ctype": "保险公司", "Ntype": "160400", "Address": "新华路５３９", "Telephone": null }, "geometry": { "type": "Point", "coordinates": [ 121.422872222222225, 31.203328888888887 ] } },
{ "type": "Feature", "properties": { "Name": "上海亚太保险代理有限公司", "Ctype": "保险公司", "Ntype": "160400", "Address": "新闸路１６０９号锦桥商务楼３１９", "Telephone": null }, "geometry": { "type": "Point", "coordinates": [ 121.447218966944448, 31.22957004111111 ] } },
{ "type": "Feature", "properties": { "Name": "汇丰人寿保险（国际）有限公司（上海代表处）", "Ctype": "保险公司", "Ntype": "160400", "Address": "南京西路１０３８号梅龙镇商厦２１层２１０８Ａ", "Telephone": null }, "geometry": { "type": "Point", "coordinates": [ 121.456878333333336, 31.229345277777778 ] } },
{ "type": "Feature", "properties": { "Name": "汇丰保险（亚洲）有限公司（上海代表处）", "Ctype": "保险公司", "Ntype": "160400", "Address": "南京西路１０３８号梅龙镇商厦２１层２１０８Ｂ", "Telephone": null }, "geometry": { "type": "Point", "coordinates": [ 121.456878333333336, 31.229345277777778 ] } },
{ "type": "Feature", "properties": { "Name": "中国人民财产保险股份有限公司（长寿路）", "Ctype": "中国人民保险公司", "Ntype": "160401", "Address": "长寿路２８５号恒达大厦１４－１５层", "Telephone": "021-62986618" }, "geometry": { "type": "Point", "coordinates": [ 121.439265451944436, 31.24078322361111 ] } },
{ "type": "Feature", "properties": { "Name": "中华联合财产保险股份有限公司（上海分公司）", "Ctype": "保险公司", "Ntype": "160400", "Address": "成都北路６００中华保险华盛大厦１３－２２层", "Telephone": null }, "geometry": { "type": "Point", "coordinates": [ 121.466922222222223, 31.234068333333333 ] } },
{ "type": "Feature", "properties": { "Name": "友邦保险有限公司（陕西北路营销服务部）", "Ctype": "保险公司", "Ntype": "160400", "Address": "陕西北路６６号科恩国际中心５层", "Telephone": null }, "geometry": { "type": "Point", "coordinates": [ 121.456832222222232, 31.224905277777779 ] } },
{ "type": "Feature", "properties": { "Name": "上海群卓保险代理有限公司", "Ctype": "保险公司", "Ntype": "160400", "Address": "南京西路１４８６号东海广场涉外商务楼３号楼５层５０６", "Telephone": null }, "geometry": { "type": "Point", "coordinates": [ 121.44887017138889, 31.22634494361111 ] } },
{ "type": "Feature", "properties": { "Name": "中华联合财产保险公司（徐汇支公司）", "Ctype": "保险公司", "Ntype": "160400", "Address": "漕宝路８０上海光大会展中心Ｄ座６０３、６０５", "Telephone": null }, "geometry": { "type": "Point", "coordinates": [ 121.428232693055548, 31.167412651944446 ] } },
{ "type": "Feature", "properties": { "Name": "Ｊｋ．Ａｃａｄｅｍｙ", "Ctype": "保险公司", "Ntype": "160400", "Address": "吴中路１０６５号永腾大厦１１层１１１１", "Telephone": null }, "geometry": { "type": "Point", "coordinates": [ 121.38753662111111, 31.176451551666666 ] } },
{ "type": "Feature", "properties": { "Name": "信诚人寿保险有限公司（淮海西路营销服务部）", "Ctype": "保险公司", "Ntype": "160400", "Address": "淮海西路５５号申通信息广场２３Ｉ－Ｊ", "Telephone": null }, "geometry": { "type": "Point", "coordinates": [ 121.434429524722219, 31.201471082777775 ] } },
{ "type": "Feature", "properties": { "Name": "康泰人寿保险股份有限公司（上海分公司客户服务中心）", "Ctype": "保险公司", "Ntype": "160400", "Address": "南京西路５８０号仲益大厦Ｂ座９０３", "Telephone": null }, "geometry": { "type": "Point", "coordinates": [ 121.46591, 31.231381388888888 ] } },
{ "type": "Feature", "properties": { "Name": "上海健生保险代理有限公司", "Ctype": "保险公司", "Ntype": "160400", "Address": "胶州路６９９恒森广场商务大厦Ｂ幢６０２", "Telephone": null }, "geometry": { "type": "Point", "coordinates": [ 121.43971896694444, 31.23476671 ] } },
{ "type": "Feature", "properties": { "Name": "康泰人寿保险股份有限公司（银保业务二部）", "Ctype": "保险公司", "Ntype": "160400", "Address": "南京西路５８０号仲益大厦Ｂ座７层７１５－７１７", "Telephone": null }, "geometry": { "type": "Point", "coordinates": [ 121.46591, 31.231381388888888 ] } },
{ "type": "Feature", "properties": { "Name": "上海星坛境外医疗保险代理公司", "Ctype": "保险公司", "Ntype": "160400", "Address": "汉中路１５８号汉中广场７层７０８", "Telephone": null }, "geometry": { "type": "Point", "coordinates": [ 121.458211263055546, 31.24226535361111 ] } },
{ "type": "Feature", "properties": { "Name": "合众人寿保险股份有限公司（江宁路）", "Ctype": "保险公司", "Ntype": "160400", "Address": "江宁路６３１号新建大厦９层、１０层Ａ", "Telephone": null }, "geometry": { "type": "Point", "coordinates": [ 121.449810926666672, 31.236723632777778 ] } },
{ "type": "Feature", "properties": { "Name": "信达财产保险股份有限公司（上海分公司）", "Ctype": "保险公司", "Ntype": "160400", "Address": "北京西路１３９９号信达大厦２层Ｂ、１５层Ａ２、１８层", "Telephone": null }, "geometry": { "type": "Point", "coordinates": [ 121.448589138333332, 31.2274037 ] } },
{ "type": "Feature", "properties": { "Name": "平量行保险公估（上海）有限公司", "Ctype": "保险公司", "Ntype": "160400", "Address": "龙华西路５８５华富大厦Ｂ座１２层Ａ１", "Telephone": null }, "geometry": { "type": "Point", "coordinates": [ 121.44141981333334, 31.177094184166666 ] } },
{ "type": "Feature", "properties": { "Name": "中国大地财产保险股份有限公司（汉中路）", "Ctype": "保险公司", "Ntype": "160400", "Address": "汉中路１５８号汉中广场９层９０８", "Telephone": null }, "geometry": { "type": "Point", "coordinates": [ 121.458211263055546, 31.24226535361111 ] } },
{ "type": "Feature", "properties": { "Name": "中华联合财产保险股份有限公司（黄浦支公司）", "Ctype": "保险公司", "Ntype": "160400", "Address": "陆家浜路２８５三角大楼９层", "Telephone": null }, "geometry": { "type": "Point", "coordinates": [ 121.501080729166659, 31.211064181944444 ] } },
{ "type": "Feature", "properties": { "Name": "中宏人寿保险有限公司（广东路）", "Ctype": "保险公司", "Ntype": "160400", "Address": "广东路５００号世界贸易大厦２－４层", "Telephone": null }, "geometry": { "type": "Point", "coordinates": [ 121.481863888888896, 31.23254 ] } },
{ "type": "Feature", "properties": { "Name": "新华保险股份有限公司（上海分公司运营管理部）", "Ctype": "新华人寿保险公司", "Ntype": "160406", "Address": "北京西路６６９号东展商业大厦８层", "Telephone": null }, "geometry": { "type": "Point", "coordinates": [ 121.461845, 31.23265388888889 ] } },
{ "type": "Feature", "properties": { "Name": "新华人寿保险股份有限公司（北京西路）", "Ctype": "新华人寿保险公司", "Ntype": "160406", "Address": "北京西路６６９号东展商业大厦６－ａ－ｂ－ｃ－ｅ、７－８层", "Telephone": null }, "geometry": { "type": "Point", "coordinates": [ 121.461845, 31.23265388888889 ] } },
{ "type": "Feature", "properties": { "Name": "安诚财产保险股份有限公司（上海分公司）", "Ctype": "保险公司", "Ntype": "160400", "Address": "中山北路２９１１、２９１７号中关村科技大厦Ｂ５０１－Ｂ５０２", "Telephone": null }, "geometry": { "type": "Point", "coordinates": [ 121.416627332777779, 31.240555284166664 ] } },
{ "type": "Feature", "properties": { "Name": "中国太平养老保险股份有限公司（上海分公司）", "Ctype": "保险公司", "Ntype": "160400", "Address": "石门一路２１１旺旺大厦８层", "Telephone": null }, "geometry": { "type": "Point", "coordinates": [ 121.462189166666661, 31.227868055555554 ] } },
{ "type": "Feature", "properties": { "Name": "瑞士苏黎世保险公司上海代表处", "Ctype": "保险公司", "Ntype": "160400", "Address": "西藏中路２６８号来福士广场４７层３", "Telephone": null }, "geometry": { "type": "Point", "coordinates": [ 121.47668, 31.232939722222223 ] } },
{ "type": "Feature", "properties": { "Name": "工银安盛人寿（黄浦安澜路营销服务部）", "Ctype": "保险公司", "Ntype": "160400", "Address": "安澜路８", "Telephone": null }, "geometry": { "type": "Point", "coordinates": [ 121.487066, 31.215892 ] } },
{ "type": "Feature", "properties": { "Name": "上海盛平保险代理有限公司", "Ctype": "保险公司", "Ntype": "160400", "Address": "长寿路１１１８号悦达国际大厦Ｂ座１６Ｃ", "Telephone": null }, "geometry": { "type": "Point", "coordinates": [ 121.427239311944447, 31.23101698138889 ] } },
{ "type": "Feature", "properties": { "Name": "航联保险经纪有限公司（上海分公司）", "Ctype": "保险公司", "Ntype": "160400", "Address": "延安西路１０８８长峰中心２９层２９０１－２９０２", "Telephone": null }, "geometry": { "type": "Point", "coordinates": [ 121.430956217499997, 31.21158176 ] } },
{ "type": "Feature", "properties": { "Name": "天平汽车保险（上海分公司）", "Ctype": "保险公司", "Ntype": "160400", "Address": "淮海东路８５号淮海商业大厦１７层", "Telephone": null }, "geometry": { "type": "Point", "coordinates": [ 121.48150861111111, 31.225896111111108 ] } },
{ "type": "Feature", "properties": { "Name": "上海安欣保险代理有限公司（延安中路）", "Ctype": "保险公司", "Ntype": "160400", "Address": "延安中路５９６梅迪亚天地", "Telephone": null }, "geometry": { "type": "Point", "coordinates": [ 121.462515833333327, 31.224365277777778 ] } },
{ "type": "Feature", "properties": { "Name": "上海中和保险经纪有限公司", "Ctype": "保险公司", "Ntype": "160400", "Address": "中山北路２０５２振源大厦２２层０１－０２", "Telephone": null }, "geometry": { "type": "Point", "coordinates": [ 121.431142849444441, 31.248036295555554 ] } },
{ "type": "Feature", "properties": { "Name": "太平财产保险有限公司（长宁支公司）", "Ctype": "保险公司", "Ntype": "160400", "Address": "天山路６００弄１号同达创业大厦２６０２", "Telephone": null }, "geometry": { "type": "Point", "coordinates": [ 121.396492513055549, 31.213305121666668 ] } },
{ "type": "Feature", "properties": { "Name": "瑞泰人寿保险有限公司（上海分公司）", "Ctype": "保险公司", "Ntype": "160400", "Address": "重庆中路２５号博银国际大厦１９ＡＢＣ１、２０Ｃ２", "Telephone": null }, "geometry": { "type": "Point", "coordinates": [ 121.47179, 31.222539722222223 ] } },
{ "type": "Feature", "properties": { "Name": "中国人民保险（定西路）", "Ctype": "中国人民保险公司", "Ntype": "160401", "Address": null, "Telephone": null }, "geometry": { "type": "Point", "coordinates": [ 121.422775, 31.213799 ] } },
{ "type": "Feature", "properties": { "Name": "中国人寿财产保险股份有限公司（静安支公司）", "Ctype": "中国人寿保险公司", "Ntype": "160402", "Address": "武宁南路４８８智慧广场１５层", "Telephone": null }, "geometry": { "type": "Point", "coordinates": [ 121.430943196666661, 31.233610026111112 ] } },
{ "type": "Feature", "properties": { "Name": "中国太平洋保险（集团）股份有限公司（长宁支公司）", "Ctype": "中国太平洋保险", "Ntype": "160405", "Address": null, "Telephone": null }, "geometry": { "type": "Point", "coordinates": [ 121.423716, 31.210747 ] } },
{ "type": "Feature", "properties": { "Name": "华泰财产保险股份有限公司（徐汇支公司）", "Ctype": "华泰财产保险股份有限公司", "Ntype": "160407", "Address": "肇嘉浜路４４６弄１号伊泰利大厦Ａ座９０５", "Telephone": null }, "geometry": { "type": "Point", "coordinates": [ 121.455209418333339, 31.201823730555557 ] } },
{ "type": "Feature", "properties": { "Name": "日本永松保险公估公司（上海代表处）", "Ctype": "保险公司", "Ntype": "160400", "Address": "东安路８号青松城大酒店商务楼９层９０９", "Telephone": null }, "geometry": { "type": "Point", "coordinates": [ 121.449350067222227, 31.198598158611109 ] } },
{ "type": "Feature", "properties": { "Name": "静安保险公司", "Ctype": "保险公司", "Ntype": "160400", "Address": "常德路３１９号京德大楼２、５层", "Telephone": null }, "geometry": { "type": "Point", "coordinates": [ 121.446723904166674, 31.226630588055556 ] } },
{ "type": "Feature", "properties": { "Name": "中华联合保险控股股份有限公司（定西路）", "Ctype": "保险公司", "Ntype": "160400", "Address": "定西路１０１６银统大厦北楼１２Ｃ－Ｄ", "Telephone": null }, "geometry": { "type": "Point", "coordinates": [ 121.423834906666656, 31.210905761666666 ] } },
{ "type": "Feature", "properties": { "Name": "美国大陆保险公司（上海代表处）", "Ctype": "保险公司", "Ntype": "160400", "Address": "延安西路１２９上海华侨大厦２０层２００３", "Telephone": null }, "geometry": { "type": "Point", "coordinates": [ 121.443771172499993, 31.219736156944442 ] } },
{ "type": "Feature", "properties": { "Name": "上海仁信保险经纪有限公司", "Ctype": "保险公司", "Ntype": "160400", "Address": "延安西路１２２８弄２嘉利大厦２０－Ｃ－Ｅ", "Telephone": null }, "geometry": { "type": "Point", "coordinates": [ 121.427824978333319, 31.209775119444444 ] } },
{ "type": "Feature", "properties": { "Name": "美国友邦保险有限公司（江苏路）", "Ctype": "保险公司", "Ntype": "160400", "Address": "延安西路８８９号太平洋中心１６－１７层", "Telephone": null }, "geometry": { "type": "Point", "coordinates": [ 121.432236599444437, 31.215059136388891 ] } },
{ "type": "Feature", "properties": { "Name": "大地财产保险股份有限公司（黄浦支公司）", "Ctype": "保险公司", "Ntype": "160400", "Address": "陆家浜路１３３２南开大厦１９层１９０６", "Telephone": null }, "geometry": { "type": "Point", "coordinates": [ 121.48378879111111, 31.211184081944445 ] } },
{ "type": "Feature", "properties": { "Name": "中国人民保险（常德路）", "Ctype": "中国人民保险公司", "Ntype": "160401", "Address": null, "Telephone": null }, "geometry": { "type": "Point", "coordinates": [ 121.44684, 31.22682 ] } },
{ "type": "Feature", "properties": { "Name": "中国人民保险集团股份有限公司（徐汇支公司）", "Ctype": "中国人民保险公司", "Ntype": "160401", "Address": "斜土路２６６９号英雄大厦７－８层", "Telephone": "021-64812590" }, "geometry": { "type": "Point", "coordinates": [ 121.442281087222213, 31.18601860888889 ] } },
{ "type": "Feature", "properties": { "Name": "中国人寿保险股份有限公司（上海市市南支公司）", "Ctype": "中国人寿保险公司", "Ntype": "160402", "Address": "斜土东路３２０号", "Telephone": "021-53076622" }, "geometry": { "type": "Point", "coordinates": [ 121.486088, 31.206917 ] } },
{ "type": "Feature", "properties": { "Name": "苏黎世保险经纪（北京）有限公司（上海分公司）", "Ctype": "保险公司", "Ntype": "160400", "Address": "西藏中路２６８号来福士广场４７层４", "Telephone": null }, "geometry": { "type": "Point", "coordinates": [ 121.47668, 31.232939722222223 ] } },
{ "type": "Feature", "properties": { "Name": "中国平安人寿保险股份有限公司（天目中路）", "Ctype": "中国平安保险公司", "Ntype": "160403", "Address": "天目中路３６３－３６５", "Telephone": null }, "geometry": { "type": "Point", "coordinates": [ 121.467995, 31.245217 ] } },
{ "type": "Feature", "properties": { "Name": "渤海财产保险股份有限公司（上海分公司）", "Ctype": "保险公司", "Ntype": "160400", "Address": "西康路１０１８号元茂金豪大厦６层", "Telephone": null }, "geometry": { "type": "Point", "coordinates": [ 121.442073296388898, 31.240754665833332 ] } },
{ "type": "Feature", "properties": { "Name": "中国大地财产保险股份有限公司（西藏中路）", "Ctype": "保险公司", "Ntype": "160400", "Address": "西藏中路７２８号美欣大厦", "Telephone": null }, "geometry": { "type": "Point", "coordinates": [ 121.4730075, 31.23977972222222 ] } },
{ "type": "Feature", "properties": { "Name": "富邦产物保险股份有限公司（上海代表处）", "Ctype": "保险公司", "Ntype": "160400", "Address": "延安西路２２９９号上海世贸大厦２１层２１０８", "Telephone": null }, "geometry": { "type": "Point", "coordinates": [ 121.399895561944447, 31.201433648055556 ] } },
{ "type": "Feature", "properties": { "Name": "国华人寿保险股份有限公司（上海分公司）", "Ctype": "保险公司", "Ntype": "160400", "Address": "南京西路９９３号锦江向阳大楼１５层", "Telephone": null }, "geometry": { "type": "Point", "coordinates": [ 121.45856, 31.228908611111109 ] } },
{ "type": "Feature", "properties": { "Name": "上海亚太保险经纪有限公司", "Ctype": "保险公司", "Ntype": "160400", "Address": "漕溪北路８８号圣爱大厦２１１０", "Telephone": null }, "geometry": { "type": "Point", "coordinates": [ 121.437072753888884, 31.191979709166667 ] } },
{ "type": "Feature", "properties": { "Name": "上海国彰保险代理有限公司", "Ctype": "保险公司", "Ntype": "160400", "Address": "万航渡路８４９海森国际大厦２０层２００４", "Telephone": null }, "geometry": { "type": "Point", "coordinates": [ 121.42995958111112, 31.228430718333332 ] } },
{ "type": "Feature", "properties": { "Name": "康泰人寿保险股份有限公司（上海分公司保费部）", "Ctype": "保险公司", "Ntype": "160400", "Address": "南京西路５８０号仲益大厦Ｂ座７层７１８－７２０、７２３", "Telephone": null }, "geometry": { "type": "Point", "coordinates": [ 121.46591, 31.231381388888888 ] } },
{ "type": "Feature", "properties": { "Name": "上海安国保险经纪有限公司（吴中路）", "Ctype": "保险公司", "Ntype": "160400", "Address": "吴中路１０６５号永腾大厦１１层１１１０", "Telephone": null }, "geometry": { "type": "Point", "coordinates": [ 121.38753662111111, 31.176451551666666 ] } },
{ "type": "Feature", "properties": { "Name": "上海富华保险代理有限公司", "Ctype": "保险公司", "Ntype": "160400", "Address": "天目中路４２８号凯旋门大厦东楼１３Ｈ", "Telephone": null }, "geometry": { "type": "Point", "coordinates": [ 121.46734890416667, 31.243874783055556 ] } },
{ "type": "Feature", "properties": { "Name": "史带财产保险股份有限公司（静安支公司）", "Ctype": "保险公司", "Ntype": "160400", "Address": "新闸路８４８新福康里商务中心４层", "Telephone": null }, "geometry": { "type": "Point", "coordinates": [ 121.459397515277786, 31.23511447472222 ] } },
{ "type": "Feature", "properties": { "Name": "复星保德信人寿保险有限公司", "Ctype": "保险公司", "Ntype": "160400", "Address": null, "Telephone": null }, "geometry": { "type": "Point", "coordinates": [ 121.451448792222223, 31.246731803611109 ] } },
{ "type": "Feature", "properties": { "Name": "中国人民财产保险股份有限公司（卢湾支公司）", "Ctype": "中国人民保险公司", "Ntype": "160401", "Address": "普安路１７７－１十方大厦名都商务楼５层、６层", "Telephone": null }, "geometry": { "type": "Point", "coordinates": [ 121.478425833333333, 31.223241944444446 ] } },
{ "type": "Feature", "properties": { "Name": "中国人民财产保险股份有限公司（静安公司）", "Ctype": "中国人民保险公司", "Ntype": "160401", "Address": "常德路３１９－１", "Telephone": "021-62717518" }, "geometry": { "type": "Point", "coordinates": [ 121.446889617222226, 31.226814162500002 ] } },
{ "type": "Feature", "properties": { "Name": "中国平安保险（集团）股份有限公司（上海太安责任有限公司）", "Ctype": "中国平安保险公司", "Ntype": "160403", "Address": "西康路６１８号华通大厦７层Ｂ", "Telephone": null }, "geometry": { "type": "Point", "coordinates": [ 121.446542155, 31.23521484388889 ] } },
{ "type": "Feature", "properties": { "Name": "上海迈驰保险代理有限公司", "Ctype": "保险公司", "Ntype": "160400", "Address": "安顺路８９弄７浦江大厦１３０３号", "Telephone": null }, "geometry": { "type": "Point", "coordinates": [ 121.422358398333344, 31.200735134444443 ] } },
{ "type": "Feature", "properties": { "Name": "广电日生人寿保险有限公司（吴江路）", "Ctype": "保险公司", "Ntype": "160400", "Address": "吴江路１５８中创大厦１８０８", "Telephone": null }, "geometry": { "type": "Point", "coordinates": [ 121.460857777777775, 31.230322777777776 ] } },
{ "type": "Feature", "properties": { "Name": "丘博保险（石门一路营销服务部）", "Ctype": "保险公司", "Ntype": "160400", "Address": "石门一路２１１旺旺大厦９层", "Telephone": null }, "geometry": { "type": "Point", "coordinates": [ 121.462189166666661, 31.227868055555554 ] } },
{ "type": "Feature", "properties": { "Name": "上海恒康保险代理有限公司", "Ctype": "保险公司", "Ntype": "160400", "Address": "漕溪路２５０号银海大楼Ｂ６１０", "Telephone": null }, "geometry": { "type": "Point", "coordinates": [ 121.434092068055548, 31.1703526475 ] } },
{ "type": "Feature", "properties": { "Name": "上海泛华国盛保险代理有限公司", "Ctype": "保险公司", "Ntype": "160400", "Address": "中山南路１２２８华普科技大厦４层４０６室", "Telephone": null }, "geometry": { "type": "Point", "coordinates": [ 121.501465115, 31.210571831666666 ] } },
{ "type": "Feature", "properties": { "Name": "上海神诩保险代理有限公司", "Ctype": "保险公司", "Ntype": "160400", "Address": "陆家浜路１２９５金田商务９层９０２", "Telephone": null }, "geometry": { "type": "Point", "coordinates": [ 121.483913303055544, 31.211904296944446 ] } },
{ "type": "Feature", "properties": { "Name": "日本财产保险（长乐路）", "Ctype": "保险公司", "Ntype": "160400", "Address": "长乐路９８９世纪商贸广场一区５层", "Telephone": null }, "geometry": { "type": "Point", "coordinates": [ 121.44702745222223, 31.215315755277778 ] } },
{ "type": "Feature", "properties": { "Name": "上海宏天保险代理有限公司", "Ctype": "保险公司", "Ntype": "160400", "Address": "天目西路２９０号康吉大厦８０８", "Telephone": null }, "geometry": { "type": "Point", "coordinates": [ 121.455525173611107, 31.245585395 ] } },
{ "type": "Feature", "properties": { "Name": "江泰保险经纪有限公司华东分公司", "Ctype": "保险公司", "Ntype": "160400", "Address": "中山南二路４４０中粮大厦１０层", "Telephone": null }, "geometry": { "type": "Point", "coordinates": [ 121.461937120277767, 31.190199924166667 ] } },
{ "type": "Feature", "properties": { "Name": "上海恒量保险公估有限公司（瞿溪路）", "Ctype": "保险公司", "Ntype": "160400", "Address": "瞿溪路３５０号１６层", "Telephone": null }, "geometry": { "type": "Point", "coordinates": [ 121.490167371944437, 31.204011230555555 ] } },
{ "type": "Feature", "properties": { "Name": "中国人民保险集团股份有限公司（闸北支公司）", "Ctype": "中国人民保险公司", "Ntype": "160401", "Address": "长安路１００１长安大厦１３层", "Telephone": null }, "geometry": { "type": "Point", "coordinates": [ 121.452336968333341, 31.24521403 ] } },
{ "type": "Feature", "properties": { "Name": "中国太平洋保险（集团）股份有限公司", "Ctype": "中国太平洋保险", "Ntype": "160405", "Address": "田林路２０１", "Telephone": null }, "geometry": { "type": "Point", "coordinates": [ 121.40767356500001, 31.167778312500001 ] } },
{ "type": "Feature", "properties": { "Name": "中国太平洋保险（集团）股份有限公司", "Ctype": "中国太平洋保险", "Ntype": "160405", "Address": null, "Telephone": null }, "geometry": { "type": "Point", "coordinates": [ 121.407476, 31.168342 ] } },
{ "type": "Feature", "properties": { "Name": "中国人民保险集团股份有限公司（人民路）", "Ctype": "中国人民保险公司", "Ntype": "160401", "Address": null, "Telephone": null }, "geometry": { "type": "Point", "coordinates": [ 121.495826, 31.227698 ] } },
{ "type": "Feature", "properties": { "Name": "中国人寿保险股份有限公司（淮海中路）", "Ctype": "中国人寿保险公司", "Ntype": "160402", "Address": "淮海中路１９４６", "Telephone": null }, "geometry": { "type": "Point", "coordinates": [ 121.4375, 31.203908 ] } },
{ "type": "Feature", "properties": { "Name": "中国太平洋保险（集团）股份有限公司", "Ctype": "中国太平洋保险", "Ntype": "160405", "Address": null, "Telephone": null }, "geometry": { "type": "Point", "coordinates": [ 121.443056, 31.186463 ] } },
{ "type": "Feature", "properties": { "Name": "中国人寿保险股份有限公司（人民路客户服务中心）", "Ctype": "中国人寿保险公司", "Ntype": "160402", "Address": "人民路８６４号", "Telephone": null }, "geometry": { "type": "Point", "coordinates": [ 121.482709, 31.225356 ] } },
{ "type": "Feature", "properties": { "Name": "中国太平洋保险（集团）股份有限公司", "Ctype": "中国太平洋保险", "Ntype": "160405", "Address": "桂林路９２９号", "Telephone": null }, "geometry": { "type": "Point", "coordinates": [ 121.413912339444437, 31.1854068725 ] } },
{ "type": "Feature", "properties": { "Name": "中国平安保险（集团）股份有限公司", "Ctype": "中国平安保险公司", "Ntype": "160403", "Address": "东安路２６１号", "Telephone": null }, "geometry": { "type": "Point", "coordinates": [ 121.45413, 31.192157 ] } },
{ "type": "Feature", "properties": { "Name": "中邮人寿保险股份有限公司（上海分公司）", "Ctype": "保险公司", "Ntype": "160400", "Address": null, "Telephone": "021-63178888" }, "geometry": { "type": "Point", "coordinates": [ 121.45285, 31.247999 ] } },
{ "type": "Feature", "properties": { "Name": "中国平安保险（集团）股份有限公司", "Ctype": "中国平安保险公司", "Ntype": "160403", "Address": "常熟路８－１静安广场５层", "Telephone": null }, "geometry": { "type": "Point", "coordinates": [ 121.446933, 31.217834 ] } },
{ "type": "Feature", "properties": { "Name": "中国平安保险（集团）股份有限公司", "Ctype": "中国平安保险公司", "Ntype": "160403", "Address": "常熟路８－１静安广场９－１３层", "Telephone": null }, "geometry": { "type": "Point", "coordinates": [ 121.447003, 31.217791 ] } },
{ "type": "Feature", "properties": { "Name": "中国太平洋保险（集团）股份有限公司", "Ctype": "中国太平洋保险", "Ntype": "160405", "Address": null, "Telephone": null }, "geometry": { "type": "Point", "coordinates": [ 121.423714, 31.210739 ] } },
{ "type": "Feature", "properties": { "Name": "中国人寿保险股份有限公司（万航渡路）", "Ctype": "中国人寿保险公司", "Ntype": "160402", "Address": "万航渡路７８９号金峰世纪大厦５ＡＦ", "Telephone": null }, "geometry": { "type": "Point", "coordinates": [ 121.430973578611102, 31.227883571944442 ] } },
{ "type": "Feature", "properties": { "Name": "中国太平洋保险（集团）股份有限公司", "Ctype": "中国太平洋保险", "Ntype": "160405", "Address": null, "Telephone": null }, "geometry": { "type": "Point", "coordinates": [ 121.413996, 31.185654 ] } },
{ "type": "Feature", "properties": { "Name": "中国平安人寿保险股份有限公司（国峰科技大厦）", "Ctype": "中国平安保险公司", "Ntype": "160403", "Address": "中山西路１２７９弄６国峰科技大厦", "Telephone": null }, "geometry": { "type": "Point", "coordinates": [ 121.420802951388893, 31.192045084722224 ] } },
{ "type": "Feature", "properties": { "Name": "中国人寿保险股份有限公司（虹桥营销服务部）", "Ctype": "中国人寿保险公司", "Ntype": "160402", "Address": null, "Telephone": null }, "geometry": { "type": "Point", "coordinates": [ 121.386118, 31.176531 ] } },
{ "type": "Feature", "properties": { "Name": "上海大通保险技术服务有限公司", "Ctype": "保险公司", "Ntype": "160400", "Address": "四川中路３２８－３３０号４１６－４１８室", "Telephone": null }, "geometry": { "type": "Point", "coordinates": [ 121.488124, 31.23794 ] } },
{ "type": "Feature", "properties": { "Name": "阳光财产保险股份有限公司（沙家街）", "Ctype": "保险公司", "Ntype": "160400", "Address": "陆家浜路１１４１－１１４３六角大楼４层", "Telephone": null }, "geometry": { "type": "Point", "coordinates": [ 121.487127844166665, 31.212189206666665 ] } },
{ "type": "Feature", "properties": { "Name": "中银保险（上海分公司）", "Ctype": "保险公司", "Ntype": "160400", "Address": "四川中路３２１号中央大厦１１层", "Telephone": null }, "geometry": { "type": "Point", "coordinates": [ 121.487858055555549, 31.237711666666666 ] } },
{ "type": "Feature", "properties": { "Name": "中国太平洋财产保险股份有限公司（长宁支公司）", "Ctype": "中国太平洋保险", "Ntype": "160405", "Address": "定西路１０１０号", "Telephone": null }, "geometry": { "type": "Point", "coordinates": [ 121.42368611083333, 31.210858722499999 ] } },
{ "type": "Feature", "properties": { "Name": "中国人保资产管理股份有限公司", "Ctype": "保险公司", "Ntype": "160400", "Address": "银城中路２００号中银大厦１０层", "Telephone": null }, "geometry": { "type": "Point", "coordinates": [ 121.503328888888888, 31.238483611111111 ] } },
{ "type": "Feature", "properties": { "Name": "中国人民财产保险股份有限公司（广盛车险理赔服务中心）", "Ctype": "中国人民保险公司", "Ntype": "160401", "Address": "谈家渡路１８", "Telephone": null }, "geometry": { "type": "Point", "coordinates": [ 121.421606489166663, 31.234418073055554 ] } },
{ "type": "Feature", "properties": { "Name": "中国平安人寿保险股份有限公司（新意城西北）", "Ctype": "中国平安保险公司", "Ntype": "160403", "Address": null, "Telephone": null }, "geometry": { "type": "Point", "coordinates": [ 121.391913243888894, 31.171921366388887 ] } },
{ "type": "Feature", "properties": { "Name": "中国平安保险（集团）股份有限公司", "Ctype": "中国平安保险公司", "Ntype": "160403", "Address": "钦江路８８号", "Telephone": null }, "geometry": { "type": "Point", "coordinates": [ 121.410499413333326, 31.176953686388888 ] } },
{ "type": "Feature", "properties": { "Name": "中国太平洋财产保险股份有限公司（东园路）", "Ctype": "中国太平洋保险", "Ntype": "160405", "Address": "银城中路１８８号交银金融大厦", "Telephone": null }, "geometry": { "type": "Point", "coordinates": [ 121.503777, 31.239336 ] } },
{ "type": "Feature", "properties": { "Name": "中国平安人寿保险股份有限公司（江宁路）", "Ctype": "中国平安保险公司", "Ntype": "160403", "Address": "江宁路１２０７号号百控股大厦", "Telephone": null }, "geometry": { "type": "Point", "coordinates": [ 121.442667100833333, 31.24445421 ] } },
{ "type": "Feature", "properties": { "Name": "中国太平洋财产保险股份有限公司（静安支公司）", "Ctype": "中国太平洋保险", "Ntype": "160405", "Address": "新闸路１７１８－２号宝城商务楼", "Telephone": null }, "geometry": { "type": "Point", "coordinates": [ 121.444444444444443, 31.228595833333337 ] } },
{ "type": "Feature", "properties": { "Name": "上海市长宁区医疗保险事务中心", "Ctype": "保险公司", "Ntype": "160400", "Address": "武夷路７０２", "Telephone": null }, "geometry": { "type": "Point", "coordinates": [ 121.416148274722218, 31.212695583888891 ] } },
{ "type": "Feature", "properties": { "Name": "中国人民财产保险股份有限公司（徐汇支公司）", "Ctype": "中国人民保险公司", "Ntype": "160401", "Address": "斜土路２６６９－１英雄大厦", "Telephone": null }, "geometry": { "type": "Point", "coordinates": [ 121.442476350555552, 31.186138332222221 ] } },
{ "type": "Feature", "properties": { "Name": "美国友邦保险有限公司（中山东一路）", "Ctype": "保险公司", "Ntype": "160400", "Address": "中山东一路１７友邦大厦", "Telephone": null }, "geometry": { "type": "Point", "coordinates": [ 121.489713333333327, 31.238166111111113 ] } },
{ "type": "Feature", "properties": { "Name": "中国人寿养老保险股份有限公司（东淮海国际大厦南）", "Ctype": "中国人寿保险公司", "Ntype": "160402", "Address": "人民路８５８中国人寿大厦", "Telephone": null }, "geometry": { "type": "Point", "coordinates": [ 121.482634, 31.22589 ] } },
{ "type": "Feature", "properties": { "Name": "中国人寿保险股份有限公司（文定路）", "Ctype": "中国人寿保险公司", "Ntype": "160402", "Address": "文定路２１８大地大楼４层", "Telephone": null }, "geometry": { "type": "Point", "coordinates": [ 121.431991, 31.185753 ] } },
{ "type": "Feature", "properties": { "Name": "上海东太保险公估有限公司", "Ctype": "保险公司", "Ntype": "160400", "Address": "宜山路５１５号环线广场２号楼１９Ｄ室", "Telephone": null }, "geometry": { "type": "Point", "coordinates": [ 121.426056835833336, 31.180164743333336 ] } },
{ "type": "Feature", "properties": { "Name": "英大财险（龙华西路）", "Ctype": "保险公司", "Ntype": "160400", "Address": "龙华西路５８５华富大厦Ｂ座", "Telephone": null }, "geometry": { "type": "Point", "coordinates": [ 121.44141981333334, 31.177094184166666 ] } },
{ "type": "Feature", "properties": { "Name": "中国人寿财产保险股份有限公司（广盛车险理赔服务中心）", "Ctype": "中国人寿保险公司", "Ntype": "160402", "Address": "谈家渡路１８", "Telephone": null }, "geometry": { "type": "Point", "coordinates": [ 121.421606489166663, 31.234418073055554 ] } },
{ "type": "Feature", "properties": { "Name": "中国人民保险集团股份有限公司（东北门）", "Ctype": "中国人民保险公司", "Ntype": "160401", "Address": null, "Telephone": null }, "geometry": { "type": "Point", "coordinates": [ 121.495996, 31.227622 ] } },
{ "type": "Feature", "properties": { "Name": "中国太平洋人寿保险股份有限公司（天目中路）", "Ctype": "中国太平洋保险", "Ntype": "160405", "Address": "天目中路３１１－３２５号２－６层", "Telephone": null }, "geometry": { "type": "Point", "coordinates": [ 121.469114, 31.245968 ] } },
{ "type": "Feature", "properties": { "Name": "中国平安人寿保险股份有限公司（上海分公司）", "Ctype": "中国平安保险公司", "Ntype": "160403", "Address": null, "Telephone": null }, "geometry": { "type": "Point", "coordinates": [ 121.410498, 31.176955 ] } },
{ "type": "Feature", "properties": { "Name": "中国人寿保险股份有限公司（三泰路）", "Ctype": "中国人寿保险公司", "Ntype": "160402", "Address": null, "Telephone": null }, "geometry": { "type": "Point", "coordinates": [ 121.47927, 31.242435 ] } },
{ "type": "Feature", "properties": { "Name": "中国平安保险（集团）股份有限公司", "Ctype": "中国平安保险公司", "Ntype": "160403", "Address": null, "Telephone": null }, "geometry": { "type": "Point", "coordinates": [ 121.448249, 31.228901 ] } },
{ "type": "Feature", "properties": { "Name": "中国太平洋保险（集团）股份有限公司", "Ctype": "中国太平洋保险", "Ntype": "160405", "Address": null, "Telephone": null }, "geometry": { "type": "Point", "coordinates": [ 121.493029, 31.229574 ] } },
{ "type": "Feature", "properties": { "Name": "英大长安保险经纪有限公司（上海分公司）", "Ctype": "保险公司", "Ntype": "160400", "Address": "重庆南路３１０新电大厦", "Telephone": null }, "geometry": { "type": "Point", "coordinates": [ 121.472016059166663, 31.209555121666668 ] } },
{ "type": "Feature", "properties": { "Name": "加拿大宏利人寿保险公司（上海代表处）", "Ctype": "保险公司", "Ntype": "160400", "Address": "漕溪北路４３９号上海建国宾馆７２６房", "Telephone": null }, "geometry": { "type": "Point", "coordinates": [ 121.438131239166665, 31.189777289444443 ] } },
{ "type": "Feature", "properties": { "Name": "中国平安人寿保险股份有限公司（外滩客户服务中心）", "Ctype": "中国平安保险公司", "Ntype": "160403", "Address": "汉口路９９", "Telephone": null }, "geometry": { "type": "Point", "coordinates": [ 121.487739, 31.236333 ] } },
{ "type": "Feature", "properties": { "Name": "中国平安保险股份有限公司", "Ctype": "中国平安保险公司", "Ntype": "160403", "Address": null, "Telephone": null }, "geometry": { "type": "Point", "coordinates": [ 121.410775, 31.230656 ] } },
{ "type": "Feature", "properties": { "Name": "大众保险公司（徐汇支公司）", "Ctype": "保险公司", "Ntype": "160400", "Address": "中山西路１５１５大众大厦", "Telephone": null }, "geometry": { "type": "Point", "coordinates": [ 121.423280436111099, 31.187276746944445 ] } },
{ "type": "Feature", "properties": { "Name": "上海天瑞保险公估有限公司", "Ctype": "保险公司", "Ntype": "160400", "Address": "中华路３０８上海东仁商贸中心５０４", "Telephone": null }, "geometry": { "type": "Point", "coordinates": [ 121.499124891388902, 31.220339355555556 ] } },
{ "type": "Feature", "properties": { "Name": "东风裕隆保险经纪有限公司（上海分公司）", "Ctype": "保险公司", "Ntype": "160400", "Address": "虹桥路８０８上海加华商务中心Ａ８栋１层Ａ８１０８", "Telephone": null }, "geometry": { "type": "Point", "coordinates": [ 121.423921441111105, 31.194469129722222 ] } },
{ "type": "Feature", "properties": { "Name": "中国人寿保险股份有限公司（凯旋北路）", "Ctype": "中国人寿保险公司", "Ntype": "160402", "Address": "凯旋北路１３０５号", "Telephone": null }, "geometry": { "type": "Point", "coordinates": [ 121.412861337222225, 31.230046662222222 ] } },
{ "type": "Feature", "properties": { "Name": "中嘉国泰保险经纪有限公司", "Ctype": "保险公司", "Ntype": "160400", "Address": "斜土路１１７５号景泰大厦", "Telephone": null }, "geometry": { "type": "Point", "coordinates": [ 121.465131835833347, 31.199815538333333 ] } },
{ "type": "Feature", "properties": { "Name": "海尔纽约人寿保险有限公司（复兴中路）", "Ctype": "保险公司", "Ntype": "160400", "Address": "复兴中路１１９９明园商务中心Ａ座", "Telephone": null }, "geometry": { "type": "Point", "coordinates": [ 121.458860948333324, 31.212625325555557 ] } },
{ "type": "Feature", "properties": { "Name": "上海广盛保险代理有限公司", "Ctype": "保险公司", "Ntype": "160400", "Address": "谈家渡路１８", "Telephone": null }, "geometry": { "type": "Point", "coordinates": [ 121.421607087222213, 31.234448252777778 ] } },
{ "type": "Feature", "properties": { "Name": "中国人寿保险股份有限公司（北京西路客户服务中心）", "Ctype": "中国人寿保险公司", "Ntype": "160402", "Address": "北京西路１９９号黄河大楼", "Telephone": null }, "geometry": { "type": "Point", "coordinates": [ 121.470246, 31.23589 ] } },
{ "type": "Feature", "properties": { "Name": "中国太平洋人寿保险股份有限公司（东园路）", "Ctype": "中国太平洋保险", "Ntype": "160405", "Address": "银城中路１８８号交银金融大厦", "Telephone": null }, "geometry": { "type": "Point", "coordinates": [ 121.503777, 31.239336 ] } },
{ "type": "Feature", "properties": { "Name": "中国人民财产保险股份有限公司（黄浦支公司）", "Ctype": "中国人民保险公司", "Ntype": "160401", "Address": "金陵东路５６９号汇通大厦１３层", "Telephone": "021-63724402" }, "geometry": { "type": "Point", "coordinates": [ 121.480846944444437, 31.226848611111112 ] } },
{ "type": "Feature", "properties": { "Name": "长安责任保险股份有限公司上海市分公司", "Ctype": "保险公司", "Ntype": "160400", "Address": null, "Telephone": null }, "geometry": { "type": "Point", "coordinates": [ 121.380010289722222, 31.176039284444446 ] } },
{ "type": "Feature", "properties": { "Name": "幸福人寿保险股份有限公司（上海分公司客户服务中心）", "Ctype": "保险公司", "Ntype": "160400", "Address": "北京西路１３９９号信达大厦１层", "Telephone": null }, "geometry": { "type": "Point", "coordinates": [ 121.448589138333332, 31.2274037 ] } },
{ "type": "Feature", "properties": { "Name": "中国人民财产保险股份有限公司（海潮路营业厅）", "Ctype": "中国人民保险公司", "Ntype": "160401", "Address": "海潮路１８８", "Telephone": null }, "geometry": { "type": "Point", "coordinates": [ 121.497532, 31.208899 ] } },
{ "type": "Feature", "properties": { "Name": "中国太平洋人寿保险股份有限公司（徐汇支公司）", "Ctype": "中国太平洋保险", "Ntype": "160405", "Address": null, "Telephone": null }, "geometry": { "type": "Point", "coordinates": [ 121.442994, 31.186294 ] } },
{ "type": "Feature", "properties": { "Name": "中国人民财产保险股份有限公司（长宁支公司）", "Ctype": "中国人民保险公司", "Ntype": "160401", "Address": "定西路１２０７－１", "Telephone": "021-62402200" }, "geometry": { "type": "Point", "coordinates": [ 121.422858662499991, 31.213798779722222 ] } },
{ "type": "Feature", "properties": { "Name": "中国太平洋人寿保险股份有限公司（光复路）", "Ctype": "中国太平洋保险", "Ntype": "160405", "Address": "恒丰路１号创智联合大厦", "Telephone": null }, "geometry": { "type": "Point", "coordinates": [ 121.45875596777779, 31.239307183055555 ] } },
{ "type": "Feature", "properties": { "Name": "友邦保险", "Ctype": "保险公司", "Ntype": "160400", "Address": "徐家汇路６１０号日月光中心", "Telephone": null }, "geometry": { "type": "Point", "coordinates": [ 121.468439876944444, 31.206260941111111 ] } },
{ "type": "Feature", "properties": { "Name": "新安东京海上产物保险股份有限公司上海代表处", "Ctype": "保险公司", "Ntype": "160400", "Address": "虹桥路８０８上海加华商务中心Ａ８栋１层Ａ８１０６", "Telephone": null }, "geometry": { "type": "Point", "coordinates": [ 121.423921441111105, 31.194469129722222 ] } },
{ "type": "Feature", "properties": { "Name": "中国人寿财产保险股份有限公司（福德路）", "Ctype": "中国人寿保险公司", "Ntype": "160402", "Address": "天潼路１３３号家化金融大厦", "Telephone": null }, "geometry": { "type": "Point", "coordinates": [ 121.490292240555561, 31.245505350277778 ] } },
{ "type": "Feature", "properties": { "Name": "中国平安人寿保险股份有限公司（成山路）", "Ctype": "中国平安保险公司", "Ntype": "160403", "Address": "成山路２２０浦东城建大厦Ｂ楼", "Telephone": null }, "geometry": { "type": "Point", "coordinates": [ 121.495612134444443, 31.17115848638889 ] } },
{ "type": "Feature", "properties": { "Name": "国华人寿保险", "Ctype": "保险公司", "Ntype": "160400", "Address": "延安西路３００号静安大厦", "Telephone": null }, "geometry": { "type": "Point", "coordinates": [ 121.439473888888898, 31.219203611111112 ] } },
{ "type": "Feature", "properties": { "Name": "大家保", "Ctype": "保险公司", "Ntype": "160400", "Address": null, "Telephone": null }, "geometry": { "type": "Point", "coordinates": [ 121.472921, 31.270591 ] } },
{ "type": "Feature", "properties": { "Name": "中国人民财产保险股份有限公司（虹口支公司）", "Ctype": "中国人民保险公司", "Ntype": "160401", "Address": "曲阳路２５９", "Telephone": "021-65218900" }, "geometry": { "type": "Point", "coordinates": [ 121.492132672777771, 31.27145081 ] } },
{ "type": "Feature", "properties": { "Name": "新华保险股份有限公司（上海建工大厦西）", "Ctype": "新华人寿保险公司", "Ntype": "160406", "Address": "东大名路５５８新华人寿大厦", "Telephone": "021-62189313" }, "geometry": { "type": "Point", "coordinates": [ 121.499617, 31.248669 ] } },
{ "type": "Feature", "properties": { "Name": "中国人民财产保险股份有限公司（江湾办事处）", "Ctype": "中国人民保险公司", "Ntype": "160401", "Address": "纪念路３１９", "Telephone": null }, "geometry": { "type": "Point", "coordinates": [ 121.486953172500009, 31.297444388611112 ] } },
{ "type": "Feature", "properties": { "Name": "中国平安人寿保险股份有限公司（纪念路）", "Ctype": "中国平安保险公司", "Ntype": "160403", "Address": "纪念路４６５", "Telephone": null }, "geometry": { "type": "Point", "coordinates": [ 121.485632540833336, 31.296706264444445 ] } },
{ "type": "Feature", "properties": { "Name": "中国平安人寿保险股份有限公司（场中路）", "Ctype": "中国平安保险公司", "Ntype": "160403", "Address": "场中路３６４５号", "Telephone": null }, "geometry": { "type": "Point", "coordinates": [ 121.424131647777784, 31.303230432222222 ] } },
{ "type": "Feature", "properties": { "Name": "中国平安人寿保险股份有限公司（大连路营销部）", "Ctype": "中国平安保险公司", "Ntype": "160403", "Address": "大连路１５４８号莱克商务中心４层４０８", "Telephone": null }, "geometry": { "type": "Point", "coordinates": [ 121.50349880638889, 31.273530544722224 ] } },
{ "type": "Feature", "properties": { "Name": "中国人寿保险股份有限公司（广粤路）", "Ctype": "中国人寿保险公司", "Ntype": "160402", "Address": "广粤路５０１号信南商务综合楼南侧６层", "Telephone": null }, "geometry": { "type": "Point", "coordinates": [ 121.466395128055566, 31.29218451611111 ] } },
{ "type": "Feature", "properties": { "Name": "中国人寿保险股份有限公司（共和新路）", "Ctype": "中国人寿保险公司", "Ntype": "160402", "Address": "柳营路６１８号上海现代交通商务园区北楼５层５０６、６层６０１", "Telephone": null }, "geometry": { "type": "Point", "coordinates": [ 121.460214843888892, 31.264790581666666 ] } },
{ "type": "Feature", "properties": { "Name": "太平保险有限公司（上海分公司）", "Ctype": "保险公司", "Ntype": "160400", "Address": "曲阳路１号华西证券大厦１０层", "Telephone": null }, "geometry": { "type": "Point", "coordinates": [ 121.493668891111113, 31.268455946111111 ] } },
{ "type": "Feature", "properties": { "Name": "上海信言保险经纪有限公司", "Ctype": "保险公司", "Ntype": "160400", "Address": "吴淞路６６９号申贝大厦", "Telephone": null }, "geometry": { "type": "Point", "coordinates": [ 121.486050618611102, 31.254353841111111 ] } },
{ "type": "Feature", "properties": { "Name": "中国太平洋保险（集团）股份有限公司（共康路）", "Ctype": "中国太平洋保险", "Ntype": "160405", "Address": "共康路１５１号宝业商务楼３层３０１", "Telephone": null }, "geometry": { "type": "Point", "coordinates": [ 121.442126193611102, 31.321394585555556 ] } },
{ "type": "Feature", "properties": { "Name": "幸福人寿（曲阳路）", "Ctype": "保险公司", "Ntype": "160400", "Address": "曲阳路２９９号宝莲大厦８－９层", "Telephone": null }, "geometry": { "type": "Point", "coordinates": [ 121.49154920777778, 31.272132975277778 ] } },
{ "type": "Feature", "properties": { "Name": "中国平安保险（集团）股份有限公司", "Ctype": "中国平安保险公司", "Ntype": "160403", "Address": "东江湾路１８８号空间１８８创意产业园", "Telephone": null }, "geometry": { "type": "Point", "coordinates": [ 121.480303005555555, 31.267054036388888 ] } },
{ "type": "Feature", "properties": { "Name": "紫金财产保险股份有限公司（虹口支公司）", "Ctype": "保险公司", "Ntype": "160400", "Address": "四川北路２２６１－２２６３号嘉兰大厦Ａ座２１", "Telephone": null }, "geometry": { "type": "Point", "coordinates": [ 121.481436360555563, 31.26849528 ] } },
{ "type": "Feature", "properties": { "Name": "大庆石油管理局保险中心（上海分理处）", "Ctype": "保险公司", "Ntype": "160400", "Address": "中山北二路１５１５号石油大厦商务楼Ｄ座６层０９室", "Telephone": null }, "geometry": { "type": "Point", "coordinates": [ 121.496750759444453, 31.285218912777779 ] } },
{ "type": "Feature", "properties": { "Name": "上海天澜保险公估有限公司", "Ctype": "保险公司", "Ntype": "160400", "Address": "场中路２０１号元博商务３号楼２０２", "Telephone": null }, "geometry": { "type": "Point", "coordinates": [ 121.480108506944447, 31.30816677527778 ] } },
{ "type": "Feature", "properties": { "Name": "安诚财险", "Ctype": "保险公司", "Ntype": "160400", "Address": "花园路８８华博科技大楼８层", "Telephone": null }, "geometry": { "type": "Point", "coordinates": [ 121.476448025277776, 31.270325792222224 ] } },
{ "type": "Feature", "properties": { "Name": "史带财产保险股份有限公司（四平路）", "Ctype": "保险公司", "Ntype": "160400", "Address": "曲阳路１号华西证券大厦１３层", "Telephone": null }, "geometry": { "type": "Point", "coordinates": [ 121.493668891111113, 31.268455946111111 ] } },
{ "type": "Feature", "properties": { "Name": "中国人民健康保险股份有限公司（四平路）", "Ctype": "中国人民保险公司", "Ntype": "160401", "Address": "四平路２７３号福龙大厦４层", "Telephone": null }, "geometry": { "type": "Point", "coordinates": [ 121.489495171388896, 31.262371419166666 ] } },
{ "type": "Feature", "properties": { "Name": "中国人民财产保险股份有限公司（上海市分公司理赔中心市西分中心）", "Ctype": "中国人民保险公司", "Ntype": "160401", "Address": "大渡河路１７１８号阳光商务大厦Ａ楼９层、Ｂ楼９层", "Telephone": null }, "geometry": { "type": "Point", "coordinates": [ 121.396892361111114, 31.25029107 ] } },
{ "type": "Feature", "properties": { "Name": "上海国安保险代理有限公司", "Ctype": "保险公司", "Ntype": "160400", "Address": "四平路７７８盛业大厦１３０３", "Telephone": null }, "geometry": { "type": "Point", "coordinates": [ 121.49918891055556, 31.272259928333334 ] } },
{ "type": "Feature", "properties": { "Name": "上海安欣保险代理有限公司（邯郸路）", "Ctype": "保险公司", "Ntype": "160400", "Address": "邯郸路９８号甲无锡大厦５０４", "Telephone": null }, "geometry": { "type": "Point", "coordinates": [ 121.494743652222226, 31.294619411944446 ] } },
{ "type": "Feature", "properties": { "Name": "中国人寿保险股份有限公司（四平路）", "Ctype": "中国人寿保险公司", "Ntype": "160402", "Address": "四平路７８２－９号", "Telephone": null }, "geometry": { "type": "Point", "coordinates": [ 121.499625345, 31.272902968333334 ] } },
{ "type": "Feature", "properties": { "Name": "上海恒泰保险代理有限公司", "Ctype": "保险公司", "Ntype": "160400", "Address": "芷江西路７８８华舟大厦１１０４－１１０５Ｆ", "Telephone": null }, "geometry": { "type": "Point", "coordinates": [ 121.452855360277766, 31.255366753611113 ] } },
{ "type": "Feature", "properties": { "Name": "中国太平洋保险（集团）股份有限公司（普陀支公司）", "Ctype": "中国太平洋保险", "Ntype": "160405", "Address": "中山北路２０００中期大厦１１层", "Telephone": "021-62050740" }, "geometry": { "type": "Point", "coordinates": [ 121.431972927499999, 31.248801811944443 ] } },
{ "type": "Feature", "properties": { "Name": "合众人寿保险股份有限公司（甘河路）", "Ctype": "保险公司", "Ntype": "160400", "Address": "甘河路８号明道大厦２层２０１", "Telephone": null }, "geometry": { "type": "Point", "coordinates": [ 121.487330186666654, 31.289979383611112 ] } },
{ "type": "Feature", "properties": { "Name": "上海江锦保险代理有限公司", "Ctype": "保险公司", "Ntype": "160400", "Address": "虬江路５００、５２６号新虬江数码世界９０７", "Telephone": null }, "geometry": { "type": "Point", "coordinates": [ 121.482317165833322, 31.253969455277776 ] } },
{ "type": "Feature", "properties": { "Name": "史带财产保险股份有限公司（上海虹口支公司）", "Ctype": "保险公司", "Ntype": "160400", "Address": "曲阳路２９９号宝莲大厦６层６０３－６０４", "Telephone": null }, "geometry": { "type": "Point", "coordinates": [ 121.49154920777778, 31.272132975277778 ] } },
{ "type": "Feature", "properties": { "Name": "上海天合保险经纪有限公司", "Ctype": "保险公司", "Ntype": "160400", "Address": "四川北路２２６１－２２６３号嘉兰大厦Ａ座２", "Telephone": null }, "geometry": { "type": "Point", "coordinates": [ 121.481436360555563, 31.26849528 ] } },
{ "type": "Feature", "properties": { "Name": "中国太平洋人寿保险股份有限公司（志强营业区）", "Ctype": "中国太平洋保险", "Ntype": "160405", "Address": "四川北路１６８８号福德商务中心北楼１６１０", "Telephone": null }, "geometry": { "type": "Point", "coordinates": [ 121.483328450555547, 31.258390570833335 ] } },
{ "type": "Feature", "properties": { "Name": "中宏人寿保险有限公司（西江湾路）", "Ctype": "保险公司", "Ntype": "160400", "Address": "西江湾路３８８凯德龙之梦Ａ座９－２０层", "Telephone": null }, "geometry": { "type": "Point", "coordinates": [ 121.478311360555566, 31.270786132777779 ] } },
{ "type": "Feature", "properties": { "Name": "永达理保险经纪有限公司（上海分公司）", "Ctype": "保险公司", "Ntype": "160400", "Address": null, "Telephone": "021-26019789" }, "geometry": { "type": "Point", "coordinates": [ 121.4843, 31.256979 ] } },
{ "type": "Feature", "properties": { "Name": "幸福人寿（东长治路）", "Ctype": "保险公司", "Ntype": "160400", "Address": "东长治路７０１号长治大楼Ａ座６０２室", "Telephone": null }, "geometry": { "type": "Point", "coordinates": [ 121.501285264722227, 31.251837836388891 ] } },
{ "type": "Feature", "properties": { "Name": "上海市机动车物损交通事故保险理赔服务中心（南空分中心）", "Ctype": "保险公司", "Ntype": "160400", "Address": "场中路３３５", "Telephone": null },