{
"type": "FeatureCollection",
"crs": { "type": "name", "properties": { "name": "urn:ogc:def:crs:OGC:1.3:CRS84" } },
"features": [
{ "type": "Feature", "properties": { "Name": "天主堂（东北门）", "Ctype": "教堂", "Ntype": "110206", "Address": "培爱路１８１", "Telephone": null }, "geometry": { "type": "Point", "coordinates": [ 120.920221625555556, 31.04246148 ] } },
{ "type": "Feature", "properties": { "Name": "桥乡金泽", "Ctype": "风景名胜", "Ntype": "110200", "Address": null, "Telephone": null }, "geometry": { "type": "Point", "coordinates": [ 120.919262, 31.032044 ] } },
{ "type": "Feature", "properties": { "Name": "元荡湖", "Ctype": "风景名胜", "Ntype": "110200", "Address": null, "Telephone": null }, "geometry": { "type": "Point", "coordinates": [ 120.911745605555566, 31.067367892777778 ] } },
{ "type": "Feature", "properties": { "Name": "杨舍游览点", "Ctype": "风景名胜", "Ntype": "110200", "Address": null, "Telephone": null }, "geometry": { "type": "Point", "coordinates": [ 120.915982801666672, 31.070990125833333 ] } },
{ "type": "Feature", "properties": { "Name": "淀山湖风景区", "Ctype": "风景名胜", "Ntype": "110200", "Address": null, "Telephone": null }, "geometry": { "type": "Point", "coordinates": [ 120.907452799444457, 31.07161865222222 ] } },
{ "type": "Feature", "properties": { "Name": "梅坞春浓", "Ctype": "风景名胜", "Ntype": "110200", "Address": null, "Telephone": null }, "geometry": { "type": "Point", "coordinates": [ 120.907983398333343, 31.079084201388888 ] } },
{ "type": "Feature", "properties": { "Name": "桃花岛", "Ctype": "风景名胜", "Ntype": "110200", "Address": "嘉城嘉怡路２７９弄", "Telephone": null }, "geometry": { "type": "Point", "coordinates": [ 120.90540445972222, 31.075074598611113 ] } },
{ "type": "Feature", "properties": { "Name": "碧波楼", "Ctype": "风景名胜", "Ntype": "110200", "Address": "金商公路７０１号", "Telephone": null }, "geometry": { "type": "Point", "coordinates": [ 120.908982747499991, 31.069784885 ] } },
{ "type": "Feature", "properties": { "Name": "颐浩禅寺", "Ctype": "寺庙道观", "Ntype": "110205", "Address": "迎祥街１２", "Telephone": null }, "geometry": { "type": "Point", "coordinates": [ 120.921679958888888, 31.0355287 ] } },
{ "type": "Feature", "properties": { "Name": "青云塔", "Ctype": "风景名胜", "Ntype": "110200", "Address": "金商公路７０１号", "Telephone": null }, "geometry": { "type": "Point", "coordinates": [ 120.908887261388884, 31.073420138888888 ] } },
{ "type": "Feature", "properties": { "Name": "农家小木船", "Ctype": "风景名胜", "Ntype": "110200", "Address": null, "Telephone": null }, "geometry": { "type": "Point", "coordinates": [ 120.906917046388898, 31.073219672222223 ] } },
{ "type": "Feature", "properties": { "Name": "东兴国际游艇俱乐部", "Ctype": "风景名胜", "Ntype": "110200", "Address": "西岑镇", "Telephone": null }, "geometry": { "type": "Point", "coordinates": [ 120.925384385833325, 31.067819824166666 ] } },
{ "type": "Feature", "properties": { "Name": "金泽镇", "Ctype": "风景名胜", "Ntype": "110200", "Address": "金中路２号", "Telephone": null }, "geometry": { "type": "Point", "coordinates": [ 120.921737738611114, 31.034011501666665 ] } },
{ "type": "Feature", "properties": { "Name": "上海东兴国际游艇俱乐部", "Ctype": "风景名胜", "Ntype": "110200", "Address": "沪青平公路８５００号", "Telephone": "021-59292468" }, "geometry": { "type": "Point", "coordinates": [ 120.92437038833333, 31.068834906666666 ] } },
{ "type": "Feature", "properties": { "Name": "太虚幻境", "Ctype": "风景名胜", "Ntype": "110200", "Address": "金商公路７０１号", "Telephone": null }, "geometry": { "type": "Point", "coordinates": [ 120.907462836388888, 31.07347683388889 ] } },
{ "type": "Feature", "properties": { "Name": "耶稣堂（金泽镇农村土地承包经营权流转管理服务中心西南）", "Ctype": "教堂", "Ntype": "110206", "Address": null, "Telephone": null }, "geometry": { "type": "Point", "coordinates": [ 120.919063313888898, 31.03451551638889 ] } },
{ "type": "Feature", "properties": { "Name": "上海民族文化村", "Ctype": "风景名胜", "Ntype": "110200", "Address": "金泽镇", "Telephone": "021-59262918" }, "geometry": { "type": "Point", "coordinates": [ 120.911390787777776, 31.073156195833334 ] } },
{ "type": "Feature", "properties": { "Name": "普济桥", "Ctype": "风景名胜", "Ntype": "110200", "Address": null, "Telephone": null }, "geometry": { "type": "Point", "coordinates": [ 120.921678602499995, 31.035514594166667 ] } },
{ "type": "Feature", "properties": { "Name": "天主堂", "Ctype": "教堂", "Ntype": "110206", "Address": "培爱路１８１", "Telephone": null }, "geometry": { "type": "Point", "coordinates": [ 120.920010579444451, 31.042255859444445 ] } },
{ "type": "Feature", "properties": { "Name": "桂花苑", "Ctype": "风景名胜", "Ntype": "110200", "Address": null, "Telephone": null }, "geometry": { "type": "Point", "coordinates": [ 120.907983941111112, 31.071987847222221 ] } },
{ "type": "Feature", "properties": { "Name": "少年村", "Ctype": "风景名胜", "Ntype": "110200", "Address": null, "Telephone": null }, "geometry": { "type": "Point", "coordinates": [ 120.91398356111111, 31.067887098611113 ] } },
{ "type": "Feature", "properties": { "Name": "青浦大观园", "Ctype": "风景名胜", "Ntype": "110200", "Address": "金商公路７０１", "Telephone": null }, "geometry": { "type": "Point", "coordinates": [ 120.912708055555555, 31.092680555555553 ] } },
{ "type": "Feature", "properties": { "Name": "报国寺（关王庙路）", "Ctype": "寺庙道观", "Ntype": "110205", "Address": "朱家角镇淀峰村", "Telephone": "021-69247826" }, "geometry": { "type": "Point", "coordinates": [ 120.981743055555569, 31.089516666666665 ] } },
{ "type": "Feature", "properties": { "Name": "玉佛功德园", "Ctype": "风景名胜", "Ntype": "110200", "Address": "朱家角淀峰村报国寺内", "Telephone": "021-64664948" }, "geometry": { "type": "Point", "coordinates": [ 120.982086046111107, 31.090167914444443 ] } },
{ "type": "Feature", "properties": { "Name": "关王庙", "Ctype": "寺庙道观", "Ntype": "110205", "Address": null, "Telephone": null }, "geometry": { "type": "Point", "coordinates": [ 120.961121961944443, 31.082581380277777 ] } },
{ "type": "Feature", "properties": { "Name": "大方庵（南门）", "Ctype": "寺庙道观", "Ntype": "110205", "Address": null, "Telephone": null }, "geometry": { "type": "Point", "coordinates": [ 121.048981391111113, 30.907551269444443 ] } },
{ "type": "Feature", "properties": { "Name": "桥英广场", "Ctype": "城市广场", "Ntype": "110105", "Address": null, "Telephone": "021-57354122" }, "geometry": { "type": "Point", "coordinates": [ 121.023755150833324, 30.893486801111113 ] } },
{ "type": "Feature", "properties": { "Name": "毛泽东像章珍藏馆", "Ctype": "风景名胜", "Ntype": "110200", "Address": "和平街８５", "Telephone": null }, "geometry": { "type": "Point", "coordinates": [ 121.01866583333333, 30.887845 ] } },
{ "type": "Feature", "properties": { "Name": "枫泾古戏台", "Ctype": "风景名胜", "Ntype": "110200", "Address": "亭枫公路８５８８弄－２８号", "Telephone": null }, "geometry": { "type": "Point", "coordinates": [ 121.019073333333324, 30.887453611111109 ] } },
{ "type": "Feature", "properties": { "Name": "江南水乡婚俗馆", "Ctype": "风景名胜", "Ntype": "110200", "Address": "亭枫公路８５８８弄－２８号枫泾古镇旅游区内", "Telephone": null }, "geometry": { "type": "Point", "coordinates": [ 121.013796666666664, 30.885523888888887 ] } },
{ "type": "Feature", "properties": { "Name": "金圃宅第", "Ctype": "风景名胜", "Ntype": "110200", "Address": "亭枫公路８５８８弄－２８号枫泾古镇旅游区内", "Telephone": null }, "geometry": { "type": "Point", "coordinates": [ 121.013626302222221, 30.884670410277778 ] } },
{ "type": "Feature", "properties": { "Name": "竹行桥", "Ctype": "风景名胜", "Ntype": "110200", "Address": "亭枫公路８５８８弄－２８号枫泾古镇旅游区内", "Telephone": null }, "geometry": { "type": "Point", "coordinates": [ 121.016491111111122, 30.888397777777779 ] } },
{ "type": "Feature", "properties": { "Name": "桥湾亭", "Ctype": "风景名胜", "Ntype": "110200", "Address": "亭枫公路８５８８弄－２８号枫泾古镇旅游区内", "Telephone": null }, "geometry": { "type": "Point", "coordinates": [ 121.018058611111115, 30.889800833333332 ] } },
{ "type": "Feature", "properties": { "Name": "小南栅", "Ctype": "风景名胜", "Ntype": "110200", "Address": "亭枫公路８５８８弄－２８号枫泾古镇旅游区内", "Telephone": null }, "geometry": { "type": "Point", "coordinates": [ 121.013328333333334, 30.885031388888887 ] } },
{ "type": "Feature", "properties": { "Name": "举人榜", "Ctype": "风景名胜", "Ntype": "110200", "Address": "亭枫公路８５８８弄－２８号枫泾古镇旅游区内", "Telephone": null }, "geometry": { "type": "Point", "coordinates": [ 121.013411186944452, 30.884597439166665 ] } },
{ "type": "Feature", "properties": { "Name": "迎贤桥", "Ctype": "风景名胜", "Ntype": "110200", "Address": "亭枫公路８５８８弄－２８号枫泾古镇旅游区内", "Telephone": null }, "geometry": { "type": "Point", "coordinates": [ 121.013826226111107, 30.88458984388889 ] } },
{ "type": "Feature", "properties": { "Name": "施王庙", "Ctype": "寺庙道观", "Ntype": "110205", "Address": "北大街３９３", "Telephone": null }, "geometry": { "type": "Point", "coordinates": [ 121.01765555555555, 30.890279722222221 ] } },
{ "type": "Feature", "properties": { "Name": "进士榜", "Ctype": "风景名胜", "Ntype": "110200", "Address": "亭枫公路８５８８弄－２８号枫泾古镇旅游区内", "Telephone": null }, "geometry": { "type": "Point", "coordinates": [ 121.013273654444447, 30.884676378055556 ] } },
{ "type": "Feature", "properties": { "Name": "大方庵", "Ctype": "寺庙道观", "Ntype": "110205", "Address": "新浜镇", "Telephone": "021-57896059" }, "geometry": { "type": "Point", "coordinates": [ 121.048946111111107, 30.907813888888889 ] } },
{ "type": "Feature", "properties": { "Name": "天下第一篮", "Ctype": "风景名胜", "Ntype": "110200", "Address": "和平街４９号三百园内", "Telephone": null }, "geometry": { "type": "Point", "coordinates": [ 121.018144531388884, 30.888244357777779 ] } },
{ "type": "Feature", "properties": { "Name": "酒泉池", "Ctype": "风景名胜", "Ntype": "110200", "Address": "亭枫公路８５８８弄－２８号枫泾古镇旅游区内", "Telephone": null }, "geometry": { "type": "Point", "coordinates": [ 121.013718888888889, 30.885425833333333 ] } },
{ "type": "Feature", "properties": { "Name": "北丰桥", "Ctype": "风景名胜", "Ntype": "110200", "Address": "亭枫公路８５８８弄－２８号枫泾古镇旅游区内", "Telephone": null }, "geometry": { "type": "Point", "coordinates": [ 121.016709166666658, 30.888713333333335 ] } },
{ "type": "Feature", "properties": { "Name": "百篮馆", "Ctype": "风景名胜", "Ntype": "110200", "Address": "和平街４９号三百园内", "Telephone": null }, "geometry": { "type": "Point", "coordinates": [ 121.018175998333334, 30.888409830833336 ] } },
{ "type": "Feature", "properties": { "Name": "状元坊", "Ctype": "风景名胜", "Ntype": "110200", "Address": "亭枫公路８５８８弄－２８号枫泾古镇旅游区内", "Telephone": null }, "geometry": { "type": "Point", "coordinates": [ 121.013205023888887, 30.884741210833333 ] } },
{ "type": "Feature", "properties": { "Name": "三桥里", "Ctype": "风景名胜", "Ntype": "110200", "Address": "亭枫公路８５８８弄－２８号枫泾古镇旅游区内", "Telephone": null }, "geometry": { "type": "Point", "coordinates": [ 121.016019986388883, 30.888344478333334 ] } },
{ "type": "Feature", "properties": { "Name": "朱学范故居", "Ctype": "纪念馆", "Ntype": "110204", "Address": null, "Telephone": null }, "geometry": { "type": "Point", "coordinates": [ 121.015382499999987, 30.888420555555555 ] } },
{ "type": "Feature", "properties": { "Name": "东区火政会", "Ctype": "风景名胜", "Ntype": "110200", "Address": "生产街１２４号", "Telephone": null }, "geometry": { "type": "Point", "coordinates": [ 121.019201388888888, 30.886928888888889 ] } },
{ "type": "Feature", "properties": { "Name": "泰平桥", "Ctype": "风景名胜", "Ntype": "110200", "Address": "亭枫公路８５８８弄－２８号枫泾古镇旅游区内", "Telephone": null }, "geometry": { "type": "Point", "coordinates": [ 121.019286666666659, 30.887031944444445 ] } },
{ "type": "Feature", "properties": { "Name": "进士坊", "Ctype": "风景名胜", "Ntype": "110200", "Address": "亭枫公路８５８８弄－２８号枫泾古镇旅游区内", "Telephone": null }, "geometry": { "type": "Point", "coordinates": [ 121.013324652777783, 30.884619411944445 ] } },
{ "type": "Feature", "properties": { "Name": "状元榜", "Ctype": "风景名胜", "Ntype": "110200", "Address": "亭枫公路８５８８弄－２８号枫泾古镇旅游区内", "Telephone": null }, "geometry": { "type": "Point", "coordinates": [ 121.013111436666662, 30.884776204444446 ] } },
{ "type": "Feature", "properties": { "Name": "清风桥", "Ctype": "风景名胜", "Ntype": "110200", "Address": "亭枫公路８５８８弄－２８号枫泾古镇旅游区内", "Telephone": null }, "geometry": { "type": "Point", "coordinates": [ 121.016593611111119, 30.888680555555556 ] } },
{ "type": "Feature", "properties": { "Name": "枫溪长廊", "Ctype": "风景名胜", "Ntype": "110200", "Address": null, "Telephone": null }, "geometry": { "type": "Point", "coordinates": [ 121.01459222222222, 30.88644 ] } },
{ "type": "Feature", "properties": { "Name": "三百园游船码头", "Ctype": "旅游景点", "Ntype": "110000", "Address": "和平街４９号三百园内", "Telephone": null }, "geometry": { "type": "Point", "coordinates": [ 121.017770555555558, 30.887999722222222 ] } },
{ "type": "Feature", "properties": { "Name": "爱心锁", "Ctype": "风景名胜", "Ntype": "110200", "Address": "亭枫公路８５８８弄－２８号枫泾古镇旅游区内", "Telephone": null }, "geometry": { "type": "Point", "coordinates": [ 121.013596388888885, 30.885314444444443 ] } },
{ "type": "Feature", "properties": { "Name": "瑞虹桥", "Ctype": "风景名胜", "Ntype": "110200", "Address": "亭枫公路８５８８弄－２８号枫泾古镇旅游区内", "Telephone": null }, "geometry": { "type": "Point", "coordinates": [ 121.013252222222221, 30.885073055555559 ] } },
{ "type": "Feature", "properties": { "Name": "我爱你墙", "Ctype": "风景名胜", "Ntype": "110200", "Address": "亭枫公路８５８８弄－２８号枫泾古镇旅游区内", "Telephone": null }, "geometry": { "type": "Point", "coordinates": [ 121.013488888888887, 30.885141944444445 ] } },
{ "type": "Feature", "properties": { "Name": "吴越界记", "Ctype": "风景名胜", "Ntype": "110200", "Address": "亭枫公路８５８８弄－２８号枫泾古镇旅游区内", "Telephone": null }, "geometry": { "type": "Point", "coordinates": [ 121.014495833333328, 30.8863075 ] } },
{ "type": "Feature", "properties": { "Name": "启秀堂", "Ctype": "风景名胜", "Ntype": "110200", "Address": "亭枫公路８５８８弄－２８号枫泾古镇旅游区内", "Telephone": null }, "geometry": { "type": "Point", "coordinates": [ 121.013550889722225, 30.884711371666668 ] } },
{ "type": "Feature", "properties": { "Name": "新泾桥", "Ctype": "风景名胜", "Ntype": "110200", "Address": "亭枫公路８５８８弄－２８号枫泾古镇旅游区内", "Telephone": null }, "geometry": { "type": "Point", "coordinates": [ 121.015701944444444, 30.887608888888892 ] } },
{ "type": "Feature", "properties": { "Name": "醉眠亭", "Ctype": "风景名胜", "Ntype": "110200", "Address": "和平街４９号三百园内", "Telephone": null }, "geometry": { "type": "Point", "coordinates": [ 121.017841796944438, 30.888729112500002 ] } },
{ "type": "Feature", "properties": { "Name": "文化广场", "Ctype": "公园广场", "Ntype": "110100", "Address": null, "Telephone": null }, "geometry": { "type": "Point", "coordinates": [ 121.01631888888889, 30.887051944444444 ] } },
{ "type": "Feature", "properties": { "Name": "性觉寺（西南门）", "Ctype": "寺庙道观", "Ntype": "110205", "Address": "枫湾路５６８", "Telephone": null }, "geometry": { "type": "Point", "coordinates": [ 121.024058050833332, 30.896142769722221 ] } },
{ "type": "Feature", "properties": { "Name": "施王庙（东南门）", "Ctype": "寺庙道观", "Ntype": "110205", "Address": "北大街３９３", "Telephone": null }, "geometry": { "type": "Point", "coordinates": [ 121.017921666666666, 30.890023333333335 ] } },
{ "type": "Feature", "properties": { "Name": "上海原派画院", "Ctype": "风景名胜", "Ntype": "110200", "Address": null, "Telephone": null }, "geometry": { "type": "Point", "coordinates": [ 121.0190575, 30.887538888888887 ] } },
{ "type": "Feature", "properties": { "Name": "枫泾", "Ctype": "风景名胜", "Ntype": "110200", "Address": "枫丽路９５号", "Telephone": null }, "geometry": { "type": "Point", "coordinates": [ 121.01432, 30.884242777777779 ] } },
{ "type": "Feature", "properties": { "Name": "留春亭", "Ctype": "风景名胜", "Ntype": "110200", "Address": "和平街４９号三百园内", "Telephone": null }, "geometry": { "type": "Point", "coordinates": [ 121.01785373277778, 30.888352321944442 ] } },
{ "type": "Feature", "properties": { "Name": "致和桥", "Ctype": "风景名胜", "Ntype": "110200", "Address": "亭枫公路８５８８弄－２８号枫泾古镇旅游区内", "Telephone": null }, "geometry": { "type": "Point", "coordinates": [ 121.0136025, 30.885738888888891 ] } },
{ "type": "Feature", "properties": { "Name": "施王桥", "Ctype": "风景名胜", "Ntype": "110200", "Address": "亭枫公路８５８８弄－２８号枫泾古镇旅游区内", "Telephone": null }, "geometry": { "type": "Point", "coordinates": [ 121.018173611111109, 30.889882222222223 ] } },
{ "type": "Feature", "properties": { "Name": "通济桥", "Ctype": "风景名胜", "Ntype": "110200", "Address": "亭枫公路８５８８弄－２８号枫泾古镇旅游区内", "Telephone": null }, "geometry": { "type": "Point", "coordinates": [ 121.014056111111117, 30.886193333333335 ] } },
{ "type": "Feature", "properties": { "Name": "天主堂（白牛二村东南）", "Ctype": "教堂", "Ntype": "110206", "Address": null, "Telephone": null }, "geometry": { "type": "Point", "coordinates": [ 121.022557222222218, 30.886963611111113 ] } },
{ "type": "Feature", "properties": { "Name": "丁蹄作坊", "Ctype": "风景名胜", "Ntype": "110200", "Address": "南大街１４９", "Telephone": null }, "geometry": { "type": "Point", "coordinates": [ 121.013389722222215, 30.885955277777779 ] } },
{ "type": "Feature", "properties": { "Name": "月老", "Ctype": "风景名胜", "Ntype": "110200", "Address": "亭枫公路８５８８弄－２８号枫泾古镇旅游区内", "Telephone": null }, "geometry": { "type": "Point", "coordinates": [ 121.013561944444433, 30.8852425 ] } },
{ "type": "Feature", "properties": { "Name": "留春桥", "Ctype": "风景名胜", "Ntype": "110200", "Address": "和平街４９号三百园内", "Telephone": null }, "geometry": { "type": "Point", "coordinates": [ 121.017833387499991, 30.888557128888888 ] } },
{ "type": "Feature", "properties": { "Name": "吕吉人画馆", "Ctype": "风景名胜", "Ntype": "110200", "Address": "枫泾古镇和平街５１号", "Telephone": null }, "geometry": { "type": "Point", "coordinates": [ 121.01816, 30.888154722222222 ] } },
{ "type": "Feature", "properties": { "Name": "万缘桥", "Ctype": "风景名胜", "Ntype": "110200", "Address": "亭枫公路８５８８弄－２８号枫泾古镇旅游区内", "Telephone": null }, "geometry": { "type": "Point", "coordinates": [ 121.013948567777774, 30.884686415 ] } },
{ "type": "Feature", "properties": { "Name": "三百园", "Ctype": "风景名胜", "Ntype": "110200", "Address": "和平街４９", "Telephone": null }, "geometry": { "type": "Point", "coordinates": [ 121.0180075, 30.888524444444442 ] } },
{ "type": "Feature", "properties": { "Name": "举人坊", "Ctype": "风景名胜", "Ntype": "110200", "Address": "亭枫公路８５８８弄－２８号枫泾古镇旅游区内", "Telephone": null }, "geometry": { "type": "Point", "coordinates": [ 121.013452962222217, 30.884544813333331 ] } },
{ "type": "Feature", "properties": { "Name": "百灯馆", "Ctype": "风景名胜", "Ntype": "110200", "Address": "和平街４９号三百园内", "Telephone": null }, "geometry": { "type": "Point", "coordinates": [ 121.018052842777792, 30.88824056 ] } },
{ "type": "Feature", "properties": { "Name": "一枕堂", "Ctype": "风景名胜", "Ntype": "110200", "Address": "和平街４９号三百园内", "Telephone": null }, "geometry": { "type": "Point", "coordinates": [ 121.018147786388894, 30.888787977500002 ] } },
{ "type": "Feature", "properties": { "Name": "爱之旅", "Ctype": "风景名胜", "Ntype": "110200", "Address": "亭枫公路８５８８弄－２８号枫泾古镇旅游区内", "Telephone": null }, "geometry": { "type": "Point", "coordinates": [ 121.01337472222221, 30.8850775 ] } },
{ "type": "Feature", "properties": { "Name": "人民公社旧址", "Ctype": "风景名胜", "Ntype": "110200", "Address": "和平街８５", "Telephone": null }, "geometry": { "type": "Point", "coordinates": [ 121.01866583333333, 30.887845 ] } },
{ "type": "Feature", "properties": { "Name": "得泉亭", "Ctype": "风景名胜", "Ntype": "110200", "Address": "亭枫公路８５８８弄－２８号枫泾古镇旅游区内", "Telephone": null }, "geometry": { "type": "Point", "coordinates": [ 121.013736388888887, 30.885462777777779 ] } },
{ "type": "Feature", "properties": { "Name": "性觉寺", "Ctype": "寺庙道观", "Ntype": "110205", "Address": "枫湾路５６８", "Telephone": null }, "geometry": { "type": "Point", "coordinates": [ 121.02413, 30.896345555555556 ] } },
{ "type": "Feature", "properties": { "Name": "程十发祖居", "Ctype": "纪念馆", "Ntype": "110204", "Address": "和平街１５１", "Telephone": null }, "geometry": { "type": "Point", "coordinates": [ 121.020262777777774, 30.886975833333331 ] } },
{ "type": "Feature", "properties": { "Name": "东庄村永兴堂庙脚二老太（东南门）", "Ctype": "寺庙道观", "Ntype": "110205", "Address": null, "Telephone": null }, "geometry": { "type": "Point", "coordinates": [ 121.063830867499988, 30.977221075277779 ] } },
{ "type": "Feature", "properties": { "Name": "大浜村灵观庙", "Ctype": "寺庙道观", "Ntype": "110205", "Address": null, "Telephone": null }, "geometry": { "type": "Point", "coordinates": [ 121.02524447361111, 30.956588125555555 ] } },
{ "type": "Feature", "properties": { "Name": "金山农民画村（正门）", "Ctype": "风景名胜", "Ntype": "110200", "Address": null, "Telephone": null }, "geometry": { "type": "Point", "coordinates": [ 121.019916, 30.922353 ] } },
{ "type": "Feature", "properties": { "Name": "福禄园", "Ctype": "风景名胜", "Ntype": "110200", "Address": null, "Telephone": null }, "geometry": { "type": "Point", "coordinates": [ 121.030167374722225, 30.958738516944443 ] } },
{ "type": "Feature", "properties": { "Name": "金山农民画村", "Ctype": "风景名胜", "Ntype": "110200", "Address": "朱枫公路８２５８弄１６９号", "Telephone": "021-57355555|57321363" }, "geometry": { "type": "Point", "coordinates": [ 121.017040473055559, 30.922153591666667 ] } },
{ "type": "Feature", "properties": { "Name": "金山农民画村－枫泾波兰倒置屋", "Ctype": "风景名胜", "Ntype": "110200", "Address": null, "Telephone": "021-57358802" }, "geometry": { "type": "Point", "coordinates": [ 121.01707, 30.922126 ] } },
{ "type": "Feature", "properties": { "Name": "石湖荡耶稣堂", "Ctype": "教堂", "Ntype": "110206", "Address": "石湖荡镇古场村２队２６５号", "Telephone": null }, "geometry": { "type": "Point", "coordinates": [ 121.116468098888888, 30.982723253055557 ] } },
{ "type": "Feature", "properties": { "Name": "大浜村灵观庙（北门）", "Ctype": "寺庙道观", "Ntype": "110205", "Address": null, "Telephone": null }, "geometry": { "type": "Point", "coordinates": [ 121.02524447361111, 30.956645938333335 ] } },
{ "type": "Feature", "properties": { "Name": "福禄园（东北门）", "Ctype": "风景名胜", "Ntype": "110200", "Address": null, "Telephone": null }, "geometry": { "type": "Point", "coordinates": [ 121.030403653888882, 30.958653054166668 ] } },
{ "type": "Feature", "properties": { "Name": "莲花寺（东南门）", "Ctype": "寺庙道观", "Ntype": "110205", "Address": null, "Telephone": null }, "geometry": { "type": "Point", "coordinates": [ 121.073820573333322, 30.986035041111112 ] } },
{ "type": "Feature", "properties": { "Name": "莲花寺", "Ctype": "寺庙道观", "Ntype": "110205", "Address": null, "Telephone": null }, "geometry": { "type": "Point", "coordinates": [ 121.073757733055558, 30.98615820777778 ] } },
{ "type": "Feature", "properties": { "Name": "广庵寺", "Ctype": "寺庙道观", "Ntype": "110205", "Address": "松蒸公路２１号", "Telephone": null }, "geometry": { "type": "Point", "coordinates": [ 121.116472981666675, 30.988370225833336 ] } },
{ "type": "Feature", "properties": { "Name": "东庄村永兴堂庙脚二老太", "Ctype": "寺庙道观", "Ntype": "110205", "Address": null, "Telephone": null }, "geometry": { "type": "Point", "coordinates": [ 121.063823326666665, 30.977260036111112 ] } },
{ "type": "Feature", "properties": { "Name": "上海江南田园会所", "Ctype": "风景名胜", "Ntype": "110200", "Address": "许村公路１２８８号", "Telephone": "021-57897777" }, "geometry": { "type": "Point", "coordinates": [ 121.053911404166669, 30.9592385525 ] } },
{ "type": "Feature", "properties": { "Name": "庄严寺", "Ctype": "寺庙道观", "Ntype": "110205", "Address": null, "Telephone": null }, "geometry": { "type": "Point", "coordinates": [ 121.031563683888876, 30.957630015833335 ] } },
{ "type": "Feature", "properties": { "Name": "城英台", "Ctype": "风景名胜", "Ntype": "110200", "Address": null, "Telephone": null }, "geometry": { "type": "Point", "coordinates": [ 121.04996266472223, 30.962195984444442 ] } },
{ "type": "Feature", "properties": { "Name": "寻梦园香草农场（西南门）", "Ctype": "风景名胜", "Ntype": "110200", "Address": "沈太路２３６５号", "Telephone": null }, "geometry": { "type": "Point", "coordinates": [ 121.090643446111116, 31.041062825555557 ] } },
{ "type": "Feature", "properties": { "Name": "陈云纪念馆", "Ctype": "纪念馆", "Ntype": "110204", "Address": "朱枫公路３５１６号", "Telephone": "021-59257179|59255052|59255762|59257178" }, "geometry": { "type": "Point", "coordinates": [ 121.044061656111097, 31.006308230833334 ] } },
{ "type": "Feature", "properties": { "Name": "伟人足迹馆", "Ctype": "旅游景点", "Ntype": "110000", "Address": null, "Telephone": null }, "geometry": { "type": "Point", "coordinates": [ 121.044182, 31.008084 ] } },
{ "type": "Feature", "properties": { "Name": "天光禅寺", "Ctype": "寺庙道观", "Ntype": "110205", "Address": null, "Telephone": "021-59849901" }, "geometry": { "type": "Point", "coordinates": [ 121.057316666666679, 31.015014444444443 ] } },
{ "type": "Feature", "properties": { "Name": "水务世博林", "Ctype": "风景名胜", "Ntype": "110200", "Address": null, "Telephone": null }, "geometry": { "type": "Point", "coordinates": [ 121.076669921944443, 31.029319118888889 ] } },
{ "type": "Feature", "properties": { "Name": "泖塔", "Ctype": "风景名胜", "Ntype": "110200", "Address": null, "Telephone": null }, "geometry": { "type": "Point", "coordinates": [ 121.085398763055551, 31.029222276388889 ] } },
{ "type": "Feature", "properties": { "Name": "上海永申园林景观", "Ctype": "风景名胜", "Ntype": "110200", "Address": null, "Telephone": null }, "geometry": { "type": "Point", "coordinates": [ 121.074492187499999, 31.055208333333333 ] } },
{ "type": "Feature", "properties": { "Name": "怡荷园", "Ctype": "风景名胜", "Ntype": "110200", "Address": "天淀路１５８", "Telephone": null }, "geometry": { "type": "Point", "coordinates": [ 121.117779948055556, 31.062457139722223 ] } },
{ "type": "Feature", "properties": { "Name": "九峰寺", "Ctype": "寺庙道观", "Ntype": "110205", "Address": null, "Telephone": null }, "geometry": { "type": "Point", "coordinates": [ 121.129065277777784, 31.0498875 ] } },
{ "type": "Feature", "properties": { "Name": "练塘健康广场", "Ctype": "城市广场", "Ntype": "110105", "Address": null, "Telephone": null }, "geometry": { "type": "Point", "coordinates": [ 121.043702838611111, 31.009486687777777 ] } },
{ "type": "Feature", "properties": { "Name": "三泖森林", "Ctype": "风景名胜", "Ntype": "110200", "Address": "练塘镇", "Telephone": null }, "geometry": { "type": "Point", "coordinates": [ 121.050780215555548, 31.01452992777778 ] } },
{ "type": "Feature", "properties": { "Name": "陈云故里", "Ctype": "风景名胜", "Ntype": "110200", "Address": null, "Telephone": null }, "geometry": { "type": "Point", "coordinates": [ 121.044457777777779, 31.007328611111113 ] } },
{ "type": "Feature", "properties": { "Name": "寻梦园香草农场", "Ctype": "风景名胜", "Ntype": "110200", "Address": "沈太路２３６５号", "Telephone": "021-62758862" }, "geometry": { "type": "Point", "coordinates": [ 121.090717, 31.041839 ] } },
{ "type": "Feature", "properties": { "Name": "城隍庙（北门）", "Ctype": "寺庙道观", "Ntype": "110205", "Address": "漕河街６９", "Telephone": null }, "geometry": { "type": "Point", "coordinates": [ 121.053893888888879, 31.1086 ] } },
{ "type": "Feature", "properties": { "Name": "藏书楼", "Ctype": "风景名胜", "Ntype": "110200", "Address": null, "Telephone": "021-59240077" }, "geometry": { "type": "Point", "coordinates": [ 121.053011666666663, 31.1138825 ] } },
{ "type": "Feature", "properties": { "Name": "圆津禅院（西门）", "Ctype": "寺庙道观", "Ntype": "110205", "Address": "漕河街２２５", "Telephone": null }, "geometry": { "type": "Point", "coordinates": [ 121.054514166666664, 31.110561388888886 ] } },
{ "type": "Feature", "properties": { "Name": "圆津禅院（东南门）", "Ctype": "寺庙道观", "Ntype": "110205", "Address": "漕河街１９３", "Telephone": null }, "geometry": { "type": "Point", "coordinates": [ 121.054790227500007, 31.110144143611109 ] } },
{ "type": "Feature", "properties": { "Name": "烈士塔（青安路）", "Ctype": "风景名胜", "Ntype": "110200", "Address": null, "Telephone": null }, "geometry": { "type": "Point", "coordinates": [ 121.118871666666678, 31.156577222222221 ] } },
{ "type": "Feature", "properties": { "Name": "万寿塔", "Ctype": "风景名胜", "Ntype": "110200", "Address": "南门外", "Telephone": null }, "geometry": { "type": "Point", "coordinates": [ 121.114541944444454, 31.141561388888888 ] } },
{ "type": "Feature", "properties": { "Name": "王昶纪念馆", "Ctype": "纪念馆", "Ntype": "110204", "Address": "西湖街２４", "Telephone": null }, "geometry": { "type": "Point", "coordinates": [ 121.053687777777782, 31.107260833333331 ] } },
{ "type": "Feature", "properties": { "Name": "课植园", "Ctype": "风景名胜", "Ntype": "110200", "Address": "朱家角镇西井街１１１号", "Telephone": "021-59240808" }, "geometry": { "type": "Point", "coordinates": [ 121.053465833333334, 31.113493888888886 ] } },
{ "type": "Feature", "properties": { "Name": "梅兰芳雕像", "Ctype": "风景名胜", "Ntype": "110200", "Address": null, "Telephone": null }, "geometry": { "type": "Point", "coordinates": [ 121.013266, 31.1018 ] } },
{ "type": "Feature", "properties": { "Name": "思亲堂", "Ctype": "风景名胜", "Ntype": "110200", "Address": "朱家角翔宁浜７６３号上海朱家角古镇旅游区城隍庙内", "Telephone": "021-59240077" }, "geometry": { "type": "Point", "coordinates": [ 121.053409441944453, 31.10858960111111 ] } },
{ "type": "Feature", "properties": { "Name": "六十甲子殿", "Ctype": "风景名胜", "Ntype": "110200", "Address": "翔宁浜７６３号上海朱家角古镇旅游区内", "Telephone": null }, "geometry": { "type": "Point", "coordinates": [ 121.053537638611118, 31.108424956388887 ] } },
{ "type": "Feature", "properties": { "Name": "庄子雕塑", "Ctype": "风景名胜", "Ntype": "110200", "Address": null, "Telephone": null }, "geometry": { "type": "Point", "coordinates": [ 121.01757, 31.09937 ] } },
{ "type": "Feature", "properties": { "Name": "王纪念馆", "Ctype": "纪念馆", "Ntype": "110204", "Address": "翔宁浜７６３号上海朱家角古镇旅游区内", "Telephone": null }, "geometry": { "type": "Point", "coordinates": [ 121.045986870555566, 31.108486328055555 ] } },
{ "type": "Feature", "properties": { "Name": "朱家角颂恩堂", "Ctype": "风景名胜", "Ntype": "110200", "Address": "朱家角镇", "Telephone": null }, "geometry": { "type": "Point", "coordinates": [ 121.05378987638889, 31.115288085833331 ] } },
{ "type": "Feature", "properties": { "Name": "东方绿舟国防教育园", "Ctype": "风景名胜", "Ntype": "110200", "Address": null, "Telephone": null }, "geometry": { "type": "Point", "coordinates": [ 121.019006846944436, 31.1033053775 ] } },
{ "type": "Feature", "properties": { "Name": "放生桥", "Ctype": "风景名胜", "Ntype": "110200", "Address": "翔宁浜７６３号上海朱家角古镇旅游区内", "Telephone": null }, "geometry": { "type": "Point", "coordinates": [ 121.056216516944431, 31.111395194166665 ] } },
{ "type": "Feature", "properties": { "Name": "永丰桥", "Ctype": "风景名胜", "Ntype": "110200", "Address": "翔宁浜７６３号上海朱家角古镇旅游区内", "Telephone": null }, "geometry": { "type": "Point", "coordinates": [ 121.054145277777778, 31.107379444444447 ] } },
{ "type": "Feature", "properties": { "Name": "碑廊", "Ctype": "风景名胜", "Ntype": "110200", "Address": "翔宁浜７６３号上海朱家角古镇旅游区内", "Telephone": null }, "geometry": { "type": "Point", "coordinates": [ 121.052830555555559, 31.113268055555555 ] } },
{ "type": "Feature", "properties": { "Name": "清华阁", "Ctype": "风景名胜", "Ntype": "110200", "Address": "漕河街２２５", "Telephone": "021-59240077" }, "geometry": { "type": "Point", "coordinates": [ 121.054709722222228, 31.110498611111112 ] } },
{ "type": "Feature", "properties": { "Name": "王氏民宅", "Ctype": "风景名胜", "Ntype": "110200", "Address": "漕河街４７弄", "Telephone": null }, "geometry": { "type": "Point", "coordinates": [ 121.054060523611113, 31.108233319722224 ] } },
{ "type": "Feature", "properties": { "Name": "张宅", "Ctype": "风景名胜", "Ntype": "110200", "Address": "朱家角镇西井街９２弄", "Telephone": null }, "geometry": { "type": "Point", "coordinates": [ 121.053832777777785, 31.112845833333331 ] } },
{ "type": "Feature", "properties": { "Name": "和心园", "Ctype": "风景名胜", "Ntype": "110200", "Address": "西井街７９－８１", "Telephone": "021-59240077" }, "geometry": { "type": "Point", "coordinates": [ 121.053536666666673, 31.112795833333333 ] } },
{ "type": "Feature", "properties": { "Name": "迎贵厅", "Ctype": "风景名胜", "Ntype": "110200", "Address": "翔宁浜７６３号上海朱家角古镇旅游区内", "Telephone": null }, "geometry": { "type": "Point", "coordinates": [ 121.052759166666675, 31.1135875 ] } },
{ "type": "Feature", "properties": { "Name": "圆津禅院（漕河街）", "Ctype": "寺庙道观", "Ntype": "110205", "Address": "漕河街２２５", "Telephone": null }, "geometry": { "type": "Point", "coordinates": [ 121.054566944444446, 31.110561388888886 ] } },
{ "type": "Feature", "properties": { "Name": "朱家角天主堂", "Ctype": "风景名胜", "Ntype": "110200", "Address": "漕河街３１７弄２７", "Telephone": null }, "geometry": { "type": "Point", "coordinates": [ 121.052227499999987, 31.109499166666666 ] } },
{ "type": "Feature", "properties": { "Name": "清代民居舒宅", "Ctype": "风景名胜", "Ntype": "110200", "Address": null, "Telephone": null }, "geometry": { "type": "Point", "coordinates": [ 121.053885555555553, 31.112466944444442 ] } },
{ "type": "Feature", "properties": { "Name": "马到成功", "Ctype": "风景名胜", "Ntype": "110200", "Address": "翔宁浜７６３号上海朱家角古镇旅游区内", "Telephone": null }, "geometry": { "type": "Point", "coordinates": [ 121.053074444444448, 31.113333055555554 ] } },
{ "type": "Feature", "properties": { "Name": "童天和药号", "Ctype": "风景名胜", "Ntype": "110200", "Address": "翔宁浜７６３号上海朱家角古镇旅游区内", "Telephone": "021-59240077" }, "geometry": { "type": "Point", "coordinates": [ 121.05461160083334, 31.108005175 ] } },
{ "type": "Feature", "properties": { "Name": "朱家角市民广场", "Ctype": "城市广场", "Ntype": "110105", "Address": null, "Telephone": null }, "geometry": { "type": "Point", "coordinates": [ 121.047611812777774, 31.106859141666668 ] } },
{ "type": "Feature", "properties": { "Name": "水乐堂", "Ctype": "风景名胜", "Ntype": "110200", "Address": "朱家角翔宁浜７６３号上海朱家角古镇旅游区内", "Telephone": "021-59240077" }, "geometry": { "type": "Point", "coordinates": [ 121.054556944444457, 31.111353888888889 ] } },
{ "type": "Feature", "properties": { "Name": "倒狮亭", "Ctype": "风景名胜", "Ntype": "110200", "Address": "翔宁浜７６３号上海朱家角古镇旅游区内", "Telephone": "021-59240077" }, "geometry": { "type": "Point", "coordinates": [ 121.052502222222216, 31.112883333333336 ] } },
{ "type": "Feature", "properties": { "Name": "城隍庙桥", "Ctype": "风景名胜", "Ntype": "110200", "Address": "翔宁浜７６３号上海朱家角古镇旅游区内", "Telephone": null }, "geometry": { "type": "Point", "coordinates": [ 121.05420583888889, 31.108689036111112 ] } },
{ "type": "Feature", "properties": { "Name": "永安桥", "Ctype": "风景名胜", "Ntype": "110200", "Address": "翔宁浜７６３号上海朱家角古镇旅游区内", "Telephone": null }, "geometry": { "type": "Point", "coordinates": [ 121.054785043611105, 31.111847306388889 ] } },
{ "type": "Feature", "properties": { "Name": "廊桥", "Ctype": "风景名胜", "Ntype": "110200", "Address": "翔宁浜７６３号上海朱家角古镇旅游区内", "Telephone": null }, "geometry": { "type": "Point", "coordinates": [ 121.054449444444444, 31.109256666666663 ] } },
{ "type": "Feature", "properties": { "Name": "颂恩堂（人和路）", "Ctype": "教堂", "Ntype": "110206", "Address": null, "Telephone": null }, "geometry": { "type": "Point", "coordinates": [ 121.057139722222217, 31.104616666666665 ] } },
{ "type": "Feature", "properties": { "Name": "古镇游船码头", "Ctype": "风景名胜", "Ntype": "110200", "Address": null, "Telephone": null }, "geometry": { "type": "Point", "coordinates": [ 121.054106668888892, 31.108571377222223 ] } },
{ "type": "Feature", "properties": { "Name": "圆通宝殿", "Ctype": "风景名胜", "Ntype": "110200", "Address": "翔宁浜７６３号上海朱家角古镇旅游区内", "Telephone": null }, "geometry": { "type": "Point", "coordinates": [ 121.054525277777785, 31.110476111111112 ] } },
{ "type": "Feature", "properties": { "Name": "大清邮局旧址", "Ctype": "风景名胜", "Ntype": "110200", "Address": "西湖街３５", "Telephone": null }, "geometry": { "type": "Point", "coordinates": [ 121.053580833333328, 31.106997777777778 ] } },
{ "type": "Feature", "properties": { "Name": "中观音桥", "Ctype": "风景名胜", "Ntype": "110200", "Address": "翔宁浜７６３号上海朱家角古镇旅游区内", "Telephone": null }, "geometry": { "type": "Point", "coordinates": [ 121.05472935611111, 31.107747584722222 ] } },
{ "type": "Feature", "properties": { "Name": "藕香阁", "Ctype": "风景名胜", "Ntype": "110200", "Address": "朱家角翔宁浜７６３号上海朱家角古镇旅游区课植园内", "Telephone": "021-59240077" }, "geometry": { "type": "Point", "coordinates": [ 121.052459444444438, 31.11304472222222 ] } },
{ "type": "Feature", "properties": { "Name": "戚家桥", "Ctype": "风景名胜", "Ntype": "110200", "Address": "翔宁浜７６３号上海朱家角古镇旅游区内", "Telephone": null }, "geometry": { "type": "Point", "coordinates": [ 121.054262830277779, 31.108091267777777 ] } },
{ "type": "Feature", "properties": { "Name": "福星桥", "Ctype": "风景名胜", "Ntype": "110200", "Address": "翔宁浜７６３号上海朱家角古镇旅游区内", "Telephone": null }, "geometry": { "type": "Point", "coordinates": [ 121.050497365555557, 31.10505413638889 ] } },
{ "type": "Feature", "properties": { "Name": "涌泉桥", "Ctype": "风景名胜", "Ntype": "110200", "Address": "翔宁浜７６３号上海朱家角古镇旅游区内", "Telephone": null }, "geometry": { "type": "Point", "coordinates": [ 121.053614304444437, 31.114031968611112 ] } },
{ "type": "Feature", "properties": { "Name": "中市河桥", "Ctype": "风景名胜", "Ntype": "110200", "Address": "翔宁浜７６３号上海朱家角古镇旅游区内", "Telephone": null }, "geometry": { "type": "Point", "coordinates": [ 121.055493267222218, 31.106960748611112 ] } },
{ "type": "Feature", "properties": { "Name": "席氏厅堂旧址", "Ctype": "风景名胜", "Ntype": "110200", "Address": "翔宁浜７６３号上海朱家角古镇旅游区内", "Telephone": null }, "geometry": { "type": "Point", "coordinates": [ 121.04598415805556, 31.1052916125 ] } },
{ "type": "Feature", "properties": { "Name": "基督教堂（青松路４４７弄小区东）", "Ctype": "教堂", "Ntype": "110206", "Address": "青松路４０５弄７５", "Telephone": null }, "geometry": { "type": "Point", "coordinates": [ 121.119130859444439, 31.139795464444443 ] } },
{ "type": "Feature", "properties": { "Name": "兵器博览馆", "Ctype": "风景名胜", "Ntype": "110200", "Address": "沪青平公路６８８８号", "Telephone": "021-59233000" }, "geometry": { "type": "Point", "coordinates": [ 121.007601996666665, 31.098712836388888 ] } },
{ "type": "Feature", "properties": { "Name": "仲宅", "Ctype": "风景名胜", "Ntype": "110200", "Address": "朱家角镇胜利街２３９弄７号", "Telephone": null }, "geometry": { "type": "Point", "coordinates": [ 121.055485833333336, 31.106065555555553 ] } },
{ "type": "Feature", "properties": { "Name": "周氏民宅", "Ctype": "风景名胜", "Ntype": "110200", "Address": "东市街１５７", "Telephone": null }, "geometry": { "type": "Point", "coordinates": [ 121.057583333333326, 31.105931111111111 ] } },
{ "type": "Feature", "properties": { "Name": "水月榭", "Ctype": "风景名胜", "Ntype": "110200", "Address": "翔宁浜７６３号上海朱家角古镇旅游区内", "Telephone": null }, "geometry": { "type": "Point", "coordinates": [ 121.052450833333324, 31.112955833333334 ] } },
{ "type": "Feature", "properties": { "Name": "上海申窑", "Ctype": "风景名胜", "Ntype": "110200", "Address": "东井街７０", "Telephone": "021-59240077" }, "geometry": { "type": "Point", "coordinates": [ 121.055959166666668, 31.111855277777778 ] } },
{ "type": "Feature", "properties": { "Name": "东井亭桥", "Ctype": "风景名胜", "Ntype": "110200", "Address": null, "Telephone": null }, "geometry": { "type": "Point", "coordinates": [ 121.056757256944451, 31.112288781666667 ] } },
{ "type": "Feature", "properties": { "Name": "二太子殿", "Ctype": "风景名胜", "Ntype": "110200", "Address": "朱家角翔宁浜７６３号上海朱家角古镇旅游区城隍庙内", "Telephone": "021-59240077" }, "geometry": { "type": "Point", "coordinates": [ 121.053439722222208, 31.108613055555555 ] } },
{ "type": "Feature", "properties": { "Name": "慈门街", "Ctype": "风景名胜", "Ntype": "110200", "Address": "翔宁浜７６３号上海朱家角古镇旅游区内", "Telephone": null }, "geometry": { "type": "Point", "coordinates": [ 121.056314444444453, 31.109924166666666 ] } },
{ "type": "Feature", "properties": { "Name": "张氏民宅", "Ctype": "风景名胜", "Ntype": "110200", "Address": "祥凝浜路６０２", "Telephone": null }, "geometry": { "type": "Point", "coordinates": [ 121.05606, 31.107640833333331 ] } },
{ "type": "Feature", "properties": { "Name": "天主堂", "Ctype": "教堂", "Ntype": "110206", "Address": null, "Telephone": null }, "geometry": { "type": "Point", "coordinates": [ 121.086547037777777, 31.154821506111112 ] } },
{ "type": "Feature", "properties": { "Name": "阴阳廊", "Ctype": "风景名胜", "Ntype": "110200", "Address": "翔宁浜７６３号上海朱家角古镇旅游区内", "Telephone": null }, "geometry": { "type": "Point", "coordinates": [ 121.053064722222217, 31.113519722222222 ] } },
{ "type": "Feature", "properties": { "Name": "慈航殿", "Ctype": "风景名胜", "Ntype": "110200", "Address": "朱家角翔宁浜７６３号上海朱家角古镇旅游区城隍庙内", "Telephone": "021-59240077" }, "geometry": { "type": "Point", "coordinates": [ 121.05336916666667, 31.10868416666667 ] } },
{ "type": "Feature", "properties": { "Name": "中和桥", "Ctype": "风景名胜", "Ntype": "110200", "Address": "翔宁浜７６３号上海朱家角古镇旅游区内", "Telephone": null }, "geometry": { "type": "Point", "coordinates": [ 121.051378611111105, 31.105646388888889 ] } },
{ "type": "Feature", "properties": { "Name": "观音宝塔", "Ctype": "风景名胜", "Ntype": "110200", "Address": "漕河街２２５", "Telephone": "021-59240077" }, "geometry": { "type": "Point", "coordinates": [ 121.054709722222228, 31.110498611111112 ] } },
{ "type": "Feature", "properties": { "Name": "双帛亭", "Ctype": "风景名胜", "Ntype": "110200", "Address": "朱家角翔宁浜７６３号上海朱家角古镇旅游区课植园内", "Telephone": "021-59240077" }, "geometry": { "type": "Point", "coordinates": [ 121.052995833333327, 31.113646944444444 ] } },
{ "type": "Feature", "properties": { "Name": "财神殿", "Ctype": "风景名胜", "Ntype": "110200", "Address": "朱家角翔宁浜７６３号上海朱家角古镇旅游区城隍庙内", "Telephone": "021-59240077" }, "geometry": { "type": "Point", "coordinates": [ 121.053631111111102, 31.108497777777778 ] } },
{ "type": "Feature", "properties": { "Name": "城隍庙", "Ctype": "寺庙道观", "Ntype": "110205", "Address": "公园路６４８－６５０", "Telephone": null }, "geometry": { "type": "Point", "coordinates": [ 121.113348784166675, 31.148365090833334 ] } },
{ "type": "Feature", "properties": { "Name": "金宅（漕河街）", "Ctype": "风景名胜", "Ntype": "110200", "Address": "西湖街２４", "Telephone": null }, "geometry": { "type": "Point", "coordinates": [ 121.053687777777782, 31.107260833333331 ] } },
{ "type": "Feature", "properties": { "Name": "银杏树广场", "Ctype": "公园广场", "Ntype": "110100", "Address": null, "Telephone": null }, "geometry": { "type": "Point", "coordinates": [ 121.055697, 31.108804 ] } },
{ "type": "Feature", "properties": { "Name": "迎曛阁", "Ctype": "风景名胜", "Ntype": "110200", "Address": "朱家角翔宁浜７６３号上海朱家角古镇旅游区课植园内", "Telephone": "021-59240077" }, "geometry": { "type": "Point", "coordinates": [ 121.05279, 31.11307722222222 ] } },
{ "type": "Feature", "properties": { "Name": "转运堂", "Ctype": "风景名胜", "Ntype": "110200", "Address": "朱家角翔宁浜７６３号上海朱家角古镇旅游区城隍庙内", "Telephone": "021-59240077" }, "geometry": { "type": "Point", "coordinates": [ 121.053646111111107, 31.108610833333334 ] } },
{ "type": "Feature", "properties": { "Name": "猛将殿", "Ctype": "风景名胜", "Ntype": "110200", "Address": "朱家角翔宁浜７６３号上海朱家角古镇旅游区城隍庙内", "Telephone": "021-59240077" }, "geometry": { "type": "Point", "coordinates": [ 121.053302222222214, 31.108677777777778 ] } },
{ "type": "Feature", "properties": { "Name": "青浦泰来天主堂", "Ctype": "教堂", "Ntype": "110206", "Address": "青浦镇", "Telephone": null }, "geometry": { "type": "Point", "coordinates": [ 121.103581543055554, 31.12494493277778 ] } },
{ "type": "Feature", "properties": { "Name": "淼趣楼", "Ctype": "风景名胜", "Ntype": "110200", "Address": "北大街２２２", "Telephone": null }, "geometry": { "type": "Point", "coordinates": [ 121.05529, 31.110812777777781 ] } },
{ "type": "Feature", "properties": { "Name": "青浦泰来天主堂（北门）", "Ctype": "教堂", "Ntype": "110206", "Address": null, "Telephone": null }, "geometry": { "type": "Point", "coordinates": [ 121.103665635833323, 31.125126953055556 ] } },
{ "type": "Feature", "properties": { "Name": "宝庆寺（东门）", "Ctype": "寺庙道观", "Ntype": "110205", "Address": "南门街１００号", "Telephone": null }, "geometry": { "type": "Point", "coordinates": [ 121.112804745277771, 31.143512570833334 ] } },
{ "type": "Feature", "properties": { "Name": "钟楼", "Ctype": "风景名胜", "Ntype": "110200", "Address": "漕河街２２５", "Telephone": "021-59240077" }, "geometry": { "type": "Point", "coordinates": [ 121.054709722222228, 31.110498611111112 ] } },
{ "type": "Feature", "properties": { "Name": "三圣殿", "Ctype": "寺庙道观", "Ntype": "110205", "Address": "漕河街２２５", "Telephone": "021-59240077" }, "geometry": { "type": "Point", "coordinates": [ 121.054709722222228, 31.110281944444445 ] } },
{ "type": "Feature", "properties": { "Name": "古镇游船码头", "Ctype": "风景名胜", "Ntype": "110200", "Address": "北大街２２８", "Telephone": null }, "geometry": { "type": "Point", "coordinates": [ 121.05525194444445, 31.110772777777779 ] } },
{ "type": "Feature", "properties": { "Name": "颂恩堂（西南门）", "Ctype": "教堂", "Ntype": "110206", "Address": null, "Telephone": null }, "geometry": { "type": "Point", "coordinates": [ 121.057100833333337, 31.104601388888888 ] } },
{ "type": "Feature", "properties": { "Name": "仲宅（西南门）", "Ctype": "风景名胜", "Ntype": "110200", "Address": "朱家角镇胜利街２３９弄７号", "Telephone": null }, "geometry": { "type": "Point", "coordinates": [ 121.055401676111117, 31.106036035555558 ] } },
{ "type": "Feature", "properties": { "Name": "基督教堂（南门）", "Ctype": "教堂", "Ntype": "110206", "Address": "青松路４０５弄７５", "Telephone": null }, "geometry": { "type": "Point", "coordinates": [ 121.119109429166656, 31.139381781666668 ] } },
{ "type": "Feature", "properties": { "Name": "城隍庙（南门）", "Ctype": "寺庙道观", "Ntype": "110205", "Address": "公园路６４８－６５０", "Telephone": null }, "geometry": { "type": "Point", "coordinates": [ 121.113315007777771, 31.148243809166665 ] } },
{ "type": "Feature", "properties": { "Name": "天主堂（东北门）", "Ctype": "教堂", "Ntype": "110206", "Address": null, "Telephone": null }, "geometry": { "type": "Point", "coordinates": [ 121.086956200833328, 31.155021185833334 ] } },
{ "type": "Feature", "properties": { "Name": "佛缘精舍", "Ctype": "风景名胜", "Ntype": "110200", "Address": "翔宁浜７６３号上海朱家角古镇旅游区内", "Telephone": null }, "geometry": { "type": "Point", "coordinates": [ 121.052691666666661, 31.113505 ] } },
{ "type": "Feature", "properties": { "Name": "朱家角会客厅", "Ctype": "风景名胜", "Ntype": "110200", "Address": "朱家角翔宁浜７６３号上海朱家角古镇旅游区课植园内", "Telephone": "021-59240077" }, "geometry": { "type": "Point", "coordinates": [ 121.0533, 31.113492777777775 ] } },
{ "type": "Feature", "properties": { "Name": "沈宅", "Ctype": "风景名胜", "Ntype": "110200", "Address": "朱家角镇西井街８４号", "Telephone": null }, "geometry": { "type": "Point", "coordinates": [ 121.054, 31.112735 ] } },
{ "type": "Feature", "properties": { "Name": "中龙桥", "Ctype": "风景名胜", "Ntype": "110200", "Address": "翔宁浜７６３号上海朱家角古镇旅游区内", "Telephone": null }, "geometry": { "type": "Point", "coordinates": [ 121.054230780833336, 31.112421677777778 ] } },
{ "type": "Feature", "properties": { "Name": "五老图", "Ctype": "风景名胜", "Ntype": "110200", "Address": "翔宁浜７６３号上海朱家角古镇旅游区内", "Telephone": null }, "geometry": { "type": "Point", "coordinates": [ 121.052683055555548, 31.113825555555554 ] } },
{ "type": "Feature", "properties": { "Name": "宝庆寺", "Ctype": "寺庙道观", "Ntype": "110205", "Address": "南门街１００号", "Telephone": "021-59737360" }, "geometry": { "type": "Point", "coordinates": [ 121.112769444444439, 31.1435075 ] } },
{ "type": "Feature", "properties": { "Name": "城隍庙", "Ctype": "寺庙道观", "Ntype": "110205", "Address": "漕河街６９翔宁浜７６３号上海朱家角古镇旅游区内", "Telephone": null }, "geometry": { "type": "Point", "coordinates": [ 121.053580833333328, 31.108427777777777 ] } },
{ "type": "Feature", "properties": { "Name": "望月楼", "Ctype": "风景名胜", "Ntype": "110200", "Address": "朱家角翔宁浜７６３号上海朱家角古镇旅游区课植园内", "Telephone": "021-59240077" }, "geometry": { "type": "Point", "coordinates": [ 121.05294, 31.1130975 ] } },
{ "type": "Feature", "properties": { "Name": "后花厅", "Ctype": "风景名胜", "Ntype": "110200", "Address": "朱家角翔宁浜７６３号上海朱家角古镇旅游区课植园内", "Telephone": "021-59240077" }, "geometry": { "type": "Point", "coordinates": [ 121.053149444444443, 31.113495555555556 ] } },
{ "type": "Feature", "properties": { "Name": "龚氏民宅", "Ctype": "风景名胜", "Ntype": "110200", "Address": "漕河街１５７", "Telephone": null }, "geometry": { "type": "Point", "coordinates": [ 121.054538843333333, 31.109730796944444 ] } },
{ "type": "Feature", "properties": { "Name": "泰安桥", "Ctype": "风景名胜", "Ntype": "110200", "Address": "翔宁浜７６３号上海朱家角古镇旅游区内", "Telephone": null }, "geometry": { "type": "Point", "coordinates": [ 121.055058717777783, 31.110184362222224 ] } },
{ "type": "Feature", "properties": { "Name": "观鱼亭", "Ctype": "风景名胜", "Ntype": "110200", "Address": "朱家角翔宁浜７６３号上海朱家角古镇旅游区课植园内", "Telephone": "021-59240077" }, "geometry": { "type": "Point", "coordinates": [ 121.05245972222221, 31.113725 ] } },
{ "type": "Feature", "properties": { "Name": "天主教佘山修院青浦分院", "Ctype": "教堂", "Ntype": "110206", "Address": "青浦镇", "Telephone": null }, "geometry": { "type": "Point", "coordinates": [ 121.103591851111105, 31.124948188055555 ] } },
{ "type": "Feature", "properties": { "Name": "财府", "Ctype": "风景名胜", "Ntype": "110200", "Address": "漕河街１１１", "Telephone": null }, "geometry": { "type": "Point", "coordinates": [ 121.054158888888892, 31.109153055555556 ] } },
{ "type": "Feature", "properties": { "Name": "民惠法治文化广场（北门）", "Ctype": "城市广场", "Ntype": "110105", "Address": null, "Telephone": null }, "geometry": { "type": "Point", "coordinates": [ 121.101108299722227, 31.213172184444442 ] } },
{ "type": "Feature", "properties": { "Name": "民惠法治文化广场", "Ctype": "城市广场", "Ntype": "110105", "Address": null, "Telephone": null }, "geometry": { "type": "Point", "coordinates": [ 121.101260373055553, 31.212863010555555 ] } },
{ "type": "Feature", "properties": { "Name": "沁园湖绿地广场", "Ctype": "城市广场", "Ntype": "110105", "Address": null, "Telephone": null }, "geometry": { "type": "Point", "coordinates": [ 121.0980775, 31.171718611111114 ] } },
{ "type": "Feature", "properties": { "Name": "赵屯绿化广场", "Ctype": "公园广场", "Ntype": "110100", "Address": null, "Telephone": null }, "geometry": { "type": "Point", "coordinates": [ 121.083736127777783, 31.257225046666665 ] } },
{ "type": "Feature", "properties": { "Name": "徐召来宅", "Ctype": "风景名胜", "Ntype": "110200", "Address": null, "Telephone": null }, "geometry": { "type": "Point", "coordinates": [ 121.236780281666654, 30.827055002222224 ] } },
{ "type": "Feature", "properties": { "Name": "上海金山农村新天地", "Ctype": "风景名胜", "Ntype": "110200", "Address": null, "Telephone": null }, "geometry": { "type": "Point", "coordinates": [ 121.154639756944448, 30.78740532777778 ] } },
{ "type": "Feature", "properties": { "Name": "车镜广场", "Ctype": "城市广场", "Ntype": "110105", "Address": "干巷镇", "Telephone": null }, "geometry": { "type": "Point", "coordinates": [ 121.236109904722227, 30.830226596944446 ] } },
{ "type": "Feature", "properties": { "Name": "午望山宅", "Ctype": "风景名胜", "Ntype": "110200", "Address": null, "Telephone": null }, "geometry": { "type": "Point", "coordinates": [ 121.237204453055554, 30.826972053055556 ] } },
{ "type": "Feature", "properties": { "Name": "午望山宅（西南门）", "Ctype": "风景名胜", "Ntype": "110200", "Address": null, "Telephone": null }, "geometry": { "type": "Point", "coordinates": [ 121.237180573888892, 30.826945660277779 ] } },
{ "type": "Feature", "properties": { "Name": "廊下生态园（北门）", "Ctype": "风景名胜", "Ntype": "110200", "Address": "漕廊公路９１３３号附近", "Telephone": null }, "geometry": { "type": "Point", "coordinates": [ 121.158251410555565, 30.787246093888889 ] } },
{ "type": "Feature", "properties": { "Name": "廊下生态园", "Ctype": "风景名胜", "Ntype": "110200", "Address": "金山廊下镇漕廊公路９１３３号", "Telephone": "021-57395422|57395433" }, "geometry": { "type": "Point", "coordinates": [ 121.158821333333321, 30.786656888888889 ] } },
{ "type": "Feature", "properties": { "Name": "车镜广场（北门）", "Ctype": "城市广场", "Ntype": "110105", "Address": null, "Telephone": null }, "geometry": { "type": "Point", "coordinates": [ 121.236109148611106, 30.830280589444445 ] } },
{ "type": "Feature", "properties": { "Name": "东林寺（南门）", "Ctype": "寺庙道观", "Ntype": "110205", "Address": "东林街１５０", "Telephone": null }, "geometry": { "type": "Point", "coordinates": [ 121.166045833333342, 30.893847777777779 ] } },
{ "type": "Feature", "properties": { "Name": "东林寺（东林街）", "Ctype": "寺庙道观", "Ntype": "110205", "Address": "东林街１５０号", "Telephone": "021-57314019|57336970" }, "geometry": { "type": "Point", "coordinates": [ 121.1660425, 30.894440555555558 ] } },
{ "type": "Feature", "properties": { "Name": "胥浦净寺", "Ctype": "寺庙道观", "Ntype": "110205", "Address": null, "Telephone": null }, "geometry": { "type": "Point", "coordinates": [ 121.159383, 30.841355 ] } },
{ "type": "Feature", "properties": { "Name": "孙旭初旧宅", "Ctype": "纪念馆", "Ntype": "110204", "Address": null, "Telephone": null }, "geometry": { "type": "Point", "coordinates": [ 121.166415, 30.894238 ] } },
{ "type": "Feature", "properties": { "Name": "沈庄庙", "Ctype": "寺庙道观", "Ntype": "110205", "Address": null, "Telephone": null }, "geometry": { "type": "Point", "coordinates": [ 121.203858506944442, 30.877732747500001 ] } },
{ "type": "Feature", "properties": { "Name": "朱泾镇紫金人口文化广场", "Ctype": "城市广场", "Ntype": "110105", "Address": null, "Telephone": null }, "geometry": { "type": "Point", "coordinates": [ 121.162843055555555, 30.89652388888889 ] } },
{ "type": "Feature", "properties": { "Name": "大觉寺", "Ctype": "寺庙道观", "Ntype": "110205", "Address": null, "Telephone": null }, "geometry": { "type": "Point", "coordinates": [ 121.21730673361111, 30.880623755277778 ] } },
{ "type": "Feature", "properties": { "Name": "大觉寺（南门）", "Ctype": "寺庙道观", "Ntype": "110205", "Address": null, "Telephone": null }, "geometry": { "type": "Point", "coordinates": [ 121.217307047777766, 30.880617785277778 ] } },
{ "type": "Feature", "properties": { "Name": "华严寺", "Ctype": "寺庙道观", "Ntype": "110205", "Address": null, "Telephone": null }, "geometry": { "type": "Point", "coordinates": [ 121.244694281666668, 30.903825955 ] } },
{ "type": "Feature", "properties": { "Name": "松隐禅寺", "Ctype": "寺庙道观", "Ntype": "110205", "Address": "华严塔路５８", "Telephone": "021-57381384" }, "geometry": { "type": "Point", "coordinates": [ 121.246309407500007, 30.899152289444444 ] } },
{ "type": "Feature", "properties": { "Name": "蟠桃广场", "Ctype": "城市广场", "Ntype": "110105", "Address": "朱吕公路吕巷镇", "Telephone": null }, "geometry": { "type": "Point", "coordinates": [ 121.182883843333343, 30.831306152222222 ] } },
{ "type": "Feature", "properties": { "Name": "上海仓城影视园盐仓拍摄基地", "Ctype": "风景名胜", "Ntype": "110200", "Address": null, "Telephone": null }, "geometry": { "type": "Point", "coordinates": [ 121.229627278611119, 30.997609591944443 ] } },
{ "type": "Feature", "properties": { "Name": "善海寺（南门）", "Ctype": "寺庙道观", "Ntype": "110205", "Address": null, "Telephone": null }, "geometry": { "type": "Point", "coordinates": [ 121.250660264722228, 30.936377766944446 ] } },
{ "type": "Feature", "properties": { "Name": "上海仓城影视园盐仓拍摄基地（西门）", "Ctype": "风景名胜", "Ntype": "110200", "Address": null, "Telephone": null }, "geometry": { "type": "Point", "coordinates": [ 121.22935574, 30.997813313888891 ] } },
{ "type": "Feature", "properties": { "Name": "新奄观世音菩萨", "Ctype": "寺庙道观", "Ntype": "110205", "Address": null, "Telephone": null }, "geometry": { "type": "Point", "coordinates": [ 121.198228611111119, 30.964275555555556 ] } },
{ "type": "Feature", "properties": { "Name": "李塔景区", "Ctype": "风景名胜", "Ntype": "110200", "Address": null, "Telephone": null }, "geometry": { "type": "Point", "coordinates": [ 121.180124722222232, 30.970707222222224 ] } },
{ "type": "Feature", "properties": { "Name": "善海寺", "Ctype": "寺庙道观", "Ntype": "110205", "Address": null, "Telephone": null }, "geometry": { "type": "Point", "coordinates": [ 121.2502902561111, 30.93650255 ] } },
{ "type": "Feature", "properties": { "Name": "延寿寺", "Ctype": "寺庙道观", "Ntype": "110205", "Address": null, "Telephone": null }, "geometry": { "type": "Point", "coordinates": [ 121.179505479722224, 30.970732150555556 ] } },
{ "type": "Feature", "properties": { "Name": "昆秀湖（东南门）", "Ctype": "风景名胜", "Ntype": "110200", "Address": null, "Telephone": null }, "geometry": { "type": "Point", "coordinates": [ 121.171476508333342, 31.040091688333334 ] } },
{ "type": "Feature", "properties": { "Name": "西林禅寺（南门）", "Ctype": "寺庙道观", "Ntype": "110205", "Address": "中山中路６６６", "Telephone": null }, "geometry": { "type": "Point", "coordinates": [ 121.224202213611122, 31.006779343333331 ] } },
{ "type": "Feature", "properties": { "Name": "松江清真寺（东门）", "Ctype": "回教寺", "Ntype": "110207", "Address": "缸甏巷４３", "Telephone": null }, "geometry": { "type": "Point", "coordinates": [ 121.227600555555568, 31.00593111111111 ] } },
{ "type": "Feature", "properties": { "Name": "松江东岳庙（东南门）", "Ctype": "寺庙道观", "Ntype": "110205", "Address": "中山中路１９６弄－９", "Telephone": null }, "geometry": { "type": "Point", "coordinates": [ 121.23347737638889, 31.007369249166668 ] } },
{ "type": "Feature", "properties": { "Name": "雷圭元纪念馆", "Ctype": "风景名胜", "Ntype": "110200", "Address": null, "Telephone": null }, "geometry": { "type": "Point", "coordinates": [ 121.220863, 31.005934 ] } },
{ "type": "Feature", "properties": { "Name": "小昆山园（南门）", "Ctype": "风景名胜", "Ntype": "110200", "Address": "山西路４号", "Telephone": null }, "geometry": { "type": "Point", "coordinates": [ 121.134546983611102, 31.03622829861111 ] } },
{ "type": "Feature", "properties": { "Name": "巾帼园", "Ctype": "风景名胜", "Ntype": "110200", "Address": null, "Telephone": null }, "geometry": { "type": "Point", "coordinates": [ 121.229709201388886, 31.010036078611112 ] } },
{ "type": "Feature", "properties": { "Name": "广富林遗址", "Ctype": "风景名胜", "Ntype": "110200", "Address": null, "Telephone": null }, "geometry": { "type": "Point", "coordinates": [ 121.196072222222213, 31.064491666666665 ] } },
{ "type": "Feature", "properties": { "Name": "华东植物区", "Ctype": "旅游景点", "Ntype": "110000", "Address": null, "Telephone": null }, "geometry": { "type": "Point", "coordinates": [ 121.18146, 31.07131 ] } },
{ "type": "Feature", "properties": { "Name": "天马山深坑", "Ctype": "旅游景点", "Ntype": "110000", "Address": null, "Telephone": null }, "geometry": { "type": "Point", "coordinates": [ 121.165963, 31.080392 ] } },
{ "type": "Feature", "properties": { "Name": "松江唐经幢", "Ctype": "风景名胜", "Ntype": "110200", "Address": null, "Telephone": null }, "geometry": { "type": "Point", "coordinates": [ 121.241715, 31.005577 ] } },
{ "type": "Feature", "properties": { "Name": "读书堂", "Ctype": "风景名胜", "Ntype": "110200", "Address": null, "Telephone": null }, "geometry": { "type": "Point", "coordinates": [ 121.229986436666664, 31.001687011666665 ] } },
{ "type": "Feature", "properties": { "Name": "玉兰院", "Ctype": "风景名胜", "Ntype": "110200", "Address": null, "Telephone": null }, "geometry": { "type": "Point", "coordinates": [ 121.23098334416666, 31.001691080833336 ] } },
{ "type": "Feature", "properties": { "Name": "东岳庙", "Ctype": "寺庙道观", "Ntype": "110205", "Address": "中山中路１９６弄－９", "Telephone": null }, "geometry": { "type": "Point", "coordinates": [ 121.23322618277777, 31.007363552499999 ] } },
{ "type": "Feature", "properties": { "Name": "天妃宫", "Ctype": "旅游景点", "Ntype": "110000", "Address": "中山东路２３５号", "Telephone": "021-57832621" }, "geometry": { "type": "Point", "coordinates": [ 121.246091851111103, 31.005651041666667 ] } },
{ "type": "Feature", "properties": { "Name": "小昆山园", "Ctype": "风景名胜", "Ntype": "110200", "Address": "山西路４号", "Telephone": null }, "geometry": { "type": "Point", "coordinates": [ 121.134522777777775, 31.037734722222222 ] } },
{ "type": "Feature", "properties": { "Name": "九峰源书法广场", "Ctype": "城市广场", "Ntype": "110105", "Address": null, "Telephone": null }, "geometry": { "type": "Point", "coordinates": [ 121.231258409166671, 31.052405598888889 ] } },
{ "type": "Feature", "properties": { "Name": "盆景园", "Ctype": "风景名胜", "Ntype": "110200", "Address": null, "Telephone": null }, "geometry": { "type": "Point", "coordinates": [ 121.231990017499996, 31.001286892500001 ] } },
{ "type": "Feature", "properties": { "Name": "云间第一楼", "Ctype": "风景名胜", "Ntype": "110200", "Address": "中山东路", "Telephone": null }, "geometry": { "type": "Point", "coordinates": [ 121.244592285277776, 31.007205675 ] } },
{ "type": "Feature", "properties": { "Name": "莲花池", "Ctype": "风景名胜", "Ntype": "110200", "Address": null, "Telephone": null }, "geometry": { "type": "Point", "coordinates": [ 121.23098334416666, 31.001191406388891 ] } },
{ "type": "Feature", "properties": { "Name": "思源湖（经略路）", "Ctype": "风景名胜", "Ntype": "110200", "Address": null, "Telephone": null }, "geometry": { "type": "Point", "coordinates": [ 121.215471642777786, 31.046803945277777 ] } },
{ "type": "Feature", "properties": { "Name": "颐园", "Ctype": "风景名胜", "Ntype": "110200", "Address": "松汇西路１１７２", "Telephone": null }, "geometry": { "type": "Point", "coordinates": [ 121.216694335833338, 31.003943142500002 ] } },
{ "type": "Feature", "properties": { "Name": "思鲈园", "Ctype": "风景名胜", "Ntype": "110200", "Address": null, "Telephone": null }, "geometry": { "type": "Point", "coordinates": [ 121.221378774166666, 31.006217673611111 ] } },
{ "type": "Feature", "properties": { "Name": "王冶山宅", "Ctype": "风景名胜", "Ntype": "110200", "Address": "中山中路４６６", "Telephone": null }, "geometry": { "type": "Point", "coordinates": [ 121.227338595833331, 31.006920573055556 ] } },
{ "type": "Feature", "properties": { "Name": "西林禅寺", "Ctype": "寺庙道观", "Ntype": "110205", "Address": "中山中路６６６", "Telephone": "021-57813454" }, "geometry": { "type": "Point", "coordinates": [ 121.224196, 31.006832 ] } },
{ "type": "Feature", "properties": { "Name": "上海外国语大学松江校区图文广场", "Ctype": "公园广场", "Ntype": "110100", "Address": null, "Telephone": null }, "geometry": { "type": "Point", "coordinates": [ 121.22536, 31.046348 ] } },
{ "type": "Feature", "properties": { "Name": "东华大学松江校区露天广场", "Ctype": "城市广场", "Ntype": "110105", "Address": null, "Telephone": null }, "geometry": { "type": "Point", "coordinates": [ 121.219255, 31.056762 ] } },
{ "type": "Feature", "properties": { "Name": "大邱泾", "Ctype": "风景名胜", "Ntype": "110200", "Address": null, "Telephone": null }, "geometry": { "type": "Point", "coordinates": [ 121.226960872777767, 31.046337121111112 ] } },
{ "type": "Feature", "properties": { "Name": "水云阁", "Ctype": "风景名胜", "Ntype": "110200", "Address": null, "Telephone": null }, "geometry": { "type": "Point", "coordinates": [ 121.221343, 31.006363 ] } },
{ "type": "Feature", "properties": { "Name": "三十三观音堂", "Ctype": "寺庙道观", "Ntype": "110205", "Address": null, "Telephone": null }, "geometry": { "type": "Point", "coordinates": [ 121.215875198611116, 31.004529258055555 ] } },
{ "type": "Feature", "properties": { "Name": "天主堂", "Ctype": "教堂", "Ntype": "110206", "Address": null, "Telephone": null }, "geometry": { "type": "Point", "coordinates": [ 121.194071571388889, 31.033808042777778 ] } },
{ "type": "Feature", "properties": { "Name": "马路桥绿地", "Ctype": "城市广场", "Ntype": "110105", "Address": null, "Telephone": null }, "geometry": { "type": "Point", "coordinates": [ 121.228504231666676, 31.007664659166664 ] } },
{ "type": "Feature", "properties": { "Name": "松江老城区休闲绿地", "Ctype": "公园广场", "Ntype": "110100", "Address": "中山路西林南路路口", "Telephone": null }, "geometry": { "type": "Point", "coordinates": [ 121.222223849722226, 31.006097547777777 ] } },
{ "type": "Feature", "properties": { "Name": "永丰社区文体广场", "Ctype": "城市广场", "Ntype": "110105", "Address": "仓丰路８号", "Telephone": null }, "geometry": { "type": "Point", "coordinates": [ 121.202070041111114, 31.010597873333335 ] } },
{ "type": "Feature", "properties": { "Name": "水族艺馆（松江店）", "Ctype": "水族馆", "Ntype": "110104", "Address": null, "Telephone": null }, "geometry": { "type": "Point", "coordinates": [ 121.232923, 31.007154 ] } },
{ "type": "Feature", "properties": { "Name": "知也禅寺（松辰公路）", "Ctype": "寺庙道观", "Ntype": "110205", "Address": null, "Telephone": null }, "geometry": { "type": "Point", "coordinates": [ 121.196520182222216, 31.060445149722224 ] } },
{ "type": "Feature", "properties": { "Name": "灌顶禅院", "Ctype": "寺庙道观", "Ntype": "110205", "Address": null, "Telephone": null }, "geometry": { "type": "Point", "coordinates": [ 121.209349166666669, 31.005196666666667 ] } },
{ "type": "Feature", "properties": { "Name": "费骅宅", "Ctype": "风景名胜", "Ntype": "110200", "Address": null, "Telephone": null }, "geometry": { "type": "Point", "coordinates": [ 121.212741156666667, 31.006510416666668 ] } },
{ "type": "Feature", "properties": { "Name": "护珠塔", "Ctype": "风景名胜", "Ntype": "110200", "Address": "天马山中峰", "Telephone": null }, "geometry": { "type": "Point", "coordinates": [ 121.148575, 31.0747325 ] } },
{ "type": "Feature", "properties": { "Name": "松江邱家湾耶稣圣心堂", "Ctype": "教堂", "Ntype": "110206", "Address": null, "Telephone": null }, "geometry": { "type": "Point", "coordinates": [ 121.248048, 31.009438 ] } },
{ "type": "Feature", "properties": { "Name": "华亭湖", "Ctype": "风景名胜", "Ntype": "110200", "Address": null, "Telephone": null }, "geometry": { "type": "Point", "coordinates": [ 121.205851063611107, 31.033964336944447 ] } },
{ "type": "Feature", "properties": { "Name": "松江明刻照壁", "Ctype": "风景名胜", "Ntype": "110200", "Address": "中山东路２３５号", "Telephone": "021-57838594" }, "geometry": { "type": "Point", "coordinates": [ 121.246091851111103, 31.005651041666667 ] } },
{ "type": "Feature", "properties": { "Name": "天主堂", "Ctype": "教堂", "Ntype": "110206", "Address": null, "Telephone": null }, "geometry": { "type": "Point", "coordinates": [ 121.20450222444444, 31.078513455 ] } },
{ "type": "Feature", "properties": { "Name": "天主教上海教区松江邱家湾天主堂", "Ctype": "教堂", "Ntype": "110206", "Address": "方塔北路１０号", "Telephone": null }, "geometry": { "type": "Point", "coordinates": [ 121.247748173888894, 31.00946320138889 ] } },
{ "type": "Feature", "properties": { "Name": "知也禅寺（方松街道）", "Ctype": "寺庙道观", "Ntype": "110205", "Address": "广福林路龙源路", "Telephone": null }, "geometry": { "type": "Point", "coordinates": [ 121.19633382166667, 31.061653103333335 ] } },
{ "type": "Feature", "properties": { "Name": "岳阳人口文化广场", "Ctype": "城市广场", "Ntype": "110105", "Address": "松江镇", "Telephone": null }, "geometry": { "type": "Point", "coordinates": [ 121.227688259444449, 31.010232747500002 ] } },
{ "type": "Feature", "properties": { "Name": "钱以同宅", "Ctype": "风景名胜", "Ntype": "110200", "Address": "景德路４０", "Telephone": null }, "geometry": { "type": "Point", "coordinates": [ 121.238759433611108, 31.00911561638889 ] } },
{ "type": "Feature", "properties": { "Name": "天主教上海教区松江阔街天主堂", "Ctype": "教堂", "Ntype": "110206", "Address": "阔街５３弄", "Telephone": null }, "geometry": { "type": "Point", "coordinates": [ 121.230198840277779, 31.005311947777777 ] } },
{ "type": "Feature", "properties": { "Name": "松江区基督教小昆山耶稣堂（东北门）", "Ctype": "教堂", "Ntype": "110206", "Address": "鹤溪街１２９号", "Telephone": null }, "geometry": { "type": "Point", "coordinates": [ 121.132888183611115, 31.041201714444444 ] } },
{ "type": "Feature", "properties": { "Name": "天主教上海教区松江阔街天主堂（北门）", "Ctype": "教堂", "Ntype": "110206", "Address": "阔街５３弄", "Telephone": null }, "geometry": { "type": "Point", "coordinates": [ 121.230091556944444, 31.005517074444445 ] } },
{ "type": "Feature", "properties": { "Name": "天行雕塑园", "Ctype": "城市广场", "Ntype": "110105", "Address": null, "Telephone": null }, "geometry": { "type": "Point", "coordinates": [ 121.241103, 31.06405 ] } },
{ "type": "Feature", "properties": { "Name": "天主教上海教区松江邱家湾天主堂（东门）", "Ctype": "教堂", "Ntype": "110206", "Address": "方塔北路１０号", "Telephone": null }, "geometry": { "type": "Point", "coordinates": [ 121.24807997, 31.009482053333333 ] } },
{ "type": "Feature", "properties": { "Name": "三十三观音堂（西门）", "Ctype": "寺庙道观", "Ntype": "110205", "Address": null, "Telephone": null }, "geometry": { "type": "Point", "coordinates": [ 121.215824568888891, 31.004526396944446 ] } },
{ "type": "Feature", "properties": { "Name": "天主堂（东南门）", "Ctype": "教堂", "Ntype": "110206", "Address": null, "Telephone": null }, "geometry": { "type": "Point", "coordinates": [ 121.204536404166674, 31.078437771388892 ] } },
{ "type": "Feature", "properties": { "Name": "十鹿九回头", "Ctype": "风景名胜", "Ntype": "110200", "Address": null, "Telephone": null }, "geometry": { "type": "Point", "coordinates": [ 121.242754991388892, 31.057038303055556 ] } },
{ "type": "Feature", "properties": { "Name": "松江区基督教小昆山耶稣堂", "Ctype": "教堂", "Ntype": "110206", "Address": "鹤溪街１２９号", "Telephone": null }, "geometry": { "type": "Point", "coordinates": [ 121.132706434444444, 31.040953233611113 ] } },
{ "type": "Feature", "properties": { "Name": "松江清真寺", "Ctype": "回教寺", "Ntype": "110207", "Address": "缸甏巷４３", "Telephone": null }, "geometry": { "type": "Point", "coordinates": [ 121.227199166666665, 31.005809444444445 ] } },
{ "type": "Feature", "properties": { "Name": "兰桥休闲商业广场", "Ctype": "城市广场", "Ntype": "110105", "Address": "江学路", "Telephone": null }, "geometry": { "type": "Point", "coordinates": [ 121.211607, 31.031718 ] } },
{ "type": "Feature", "properties": { "Name": "昆秀湖", "Ctype": "风景名胜", "Ntype": "110200", "Address": null, "Telephone": null }, "geometry": { "type": "Point", "coordinates": [ 121.171884494444456, 31.040421278333334 ] } },
{ "type": "Feature", "properties": { "Name": "赤壁赋", "Ctype": "风景名胜", "Ntype": "110200", "Address": null, "Telephone": null }, "geometry": { "type": "Point", "coordinates": [ 121.23198323555556, 31.00158555777778 ] } },
{ "type": "Feature", "properties": { "Name": "永恩堂", "Ctype": "教堂", "Ntype": "110206", "Address": "仓丰路１２８", "Telephone": null }, "geometry": { "type": "Point", "coordinates": [ 121.212032063888898, 31.011005316944445 ] } },
{ "type": "Feature", "properties": { "Name": "镜月湖", "Ctype": "风景名胜", "Ntype": "110200", "Address": "人民北路２９９９东华大学松江校区", "Telephone": null }, "geometry": { "type": "Point", "coordinates": [ 121.216660698888887, 31.055396050277778 ] } },
{ "type": "Feature", "properties": { "Name": "松江邱家湾耶稣圣心堂（东门）", "Ctype": "教堂", "Ntype": "110206", "Address": null, "Telephone": null }, "geometry": { "type": "Point", "coordinates": [ 121.248109, 31.009435 ] } },
{ "type": "Feature", "properties": { "Name": "天马佘山塔园（东南１门）", "Ctype": "风景名胜", "Ntype": "110200", "Address": null, "Telephone": null }, "geometry": { "type": "Point", "coordinates": [ 121.156459960833345, 31.082560221388889 ] } },
{ "type": "Feature", "properties": { "Name": "中国天主教佘山修院（西南门）", "Ctype": "教堂", "Ntype": "110206", "Address": "佘山镇环山路３２６", "Telephone": null }, "geometry": { "type": "Point", "coordinates": [ 121.191027592222213, 31.091463136666668 ] } },
{ "type": "Feature", "properties": { "Name": "进教之佑（东南门）", "Ctype": "风景名胜", "Ntype": "110200", "Address": null, "Telephone": null }, "geometry": { "type": "Point", "coordinates": [ 121.195740724722228, 31.092018367222224 ] } },
{ "type": "Feature", "properties": { "Name": "福寿园（枫泾村路）", "Ctype": "风景名胜", "Ntype": "110200", "Address": "青浦镇", "Telephone": null }, "geometry": { "type": "Point", "coordinates": [ 121.131349166666666, 31.112138333333334 ] } },
{ "type": "Feature", "properties": { "Name": "国家森林公园西佘山园（东南门）", "Ctype": "风景名胜", "Ntype": "110200", "Address": null, "Telephone": null }, "geometry": { "type": "Point", "coordinates": [ 121.185275200833345, 31.093616670277779 ] } },
{ "type": "Feature", "properties": { "Name": "松郡九峰", "Ctype": "旅游景点", "Ntype": "110000", "Address": null, "Telephone": "021-57653324" }, "geometry": { "type": "Point", "coordinates": [ 121.211193, 31.108934 ] } },
{ "type": "Feature", "properties": { "Name": "夏阳湖", "Ctype": "公园广场", "Ntype": "110100", "Address": null, "Telephone": null }, "geometry": { "type": "Point", "coordinates": [ 121.134491, 31.146927 ] } },
{ "type": "Feature", "properties": { "Name": "海洋奇幻馆（入口）", "Ctype": "水族馆", "Ntype": "110104", "Address": null, "Telephone": null }, "geometry": { "type": "Point", "coordinates": [ 121.21271, 31.095678 ] } },
{ "type": "Feature", "properties": { "Name": "青浦仁恒生活广场", "Ctype": "城市广场", "Ntype": "110105", "Address": "华青南路１７７弄", "Telephone": null }, "geometry": { "type": "Point", "coordinates": [ 121.134325685833332, 31.140497178333334 ] } },
{ "type": "Feature", "properties": { "Name": "丹麦城", "Ctype": "风景名胜", "Ntype": "110200", "Address": null, "Telephone": null }, "geometry": { "type": "Point", "coordinates": [ 121.189989149444443, 31.098288303055558 ] } },
{ "type": "Feature", "properties": { "Name": "灵芝苑", "Ctype": "风景名胜", "Ntype": "110200", "Address": null, "Telephone": null }, "geometry": { "type": "Point", "coordinates": [ 121.199982367499999, 31.091590169166665 ] } },
{ "type": "Feature", "properties": { "Name": "上海月湖雕塑公园－月圆园", "Ctype": "风景名胜", "Ntype": "110200", "Address": "林荫新路１１５８号", "Telephone": "021-57798090" }, "geometry": { "type": "Point", "coordinates": [ 121.207956388888888, 31.097695277777778 ] } },
{ "type": "Feature", "properties": { "Name": "月湖生态园", "Ctype": "风景名胜", "Ntype": "110200", "Address": null, "Telephone": null }, "geometry": { "type": "Point", "coordinates": [ 121.211060926666676, 31.101624891388887 ] } },
{ "type": "Feature", "properties": { "Name": "崧泽古文化遗址", "Ctype": "风景名胜", "Ntype": "110200", "Address": null, "Telephone": null }, "geometry": { "type": "Point", "coordinates": [ 121.167731944444455, 31.138908333333337 ] } },
{ "type": "Feature", "properties": { "Name": "国家森林公园西佘山园", "Ctype": "风景名胜", "Ntype": "110200", "Address": null, "Telephone": null }, "geometry": { "type": "Point", "coordinates": [ 121.185250378888881, 31.093684066388889 ] } },
{ "type": "Feature", "properties": { "Name": "采风文化广场", "Ctype": "城市广场", "Ntype": "110105", "Address": null, "Telephone": null }, "geometry": { "type": "Point", "coordinates": [ 121.208189874166663, 31.096530974166669 ] } },
{ "type": "Feature", "properties": { "Name": "天主堂（敦昌别墅西南）", "Ctype": "教堂", "Ntype": "110206", "Address": null, "Telephone": null }, "geometry": { "type": "Point", "coordinates": [ 121.242623426666668, 31.148808051111111 ] } },
{ "type": "Feature", "properties": { "Name": "佘山天马塔园", "Ctype": "风景名胜", "Ntype": "110200", "Address": "沈砖公路３６４５", "Telephone": null }, "geometry": { "type": "Point", "coordinates": [ 121.155533311666659, 31.082879231666666 ] } },
{ "type": "Feature", "properties": { "Name": "中国天主教佘山修院", "Ctype": "教堂", "Ntype": "110206", "Address": "佘山镇环山路３２６", "Telephone": null }, "geometry": { "type": "Point", "coordinates": [ 121.191033528611115, 31.091777343888889 ] } },
{ "type": "Feature", "properties": { "Name": "亲子园（西北门）", "Ctype": "风景名胜", "Ntype": "110200", "Address": null, "Telephone": null }, "geometry": { "type": "Point", "coordinates": [ 121.20274351416667, 31.090314193611114 ] } },
{ "type": "Feature", "properties": { "Name": "希音山房", "Ctype": "教堂", "Ntype": "110206", "Address": null, "Telephone": null }, "geometry": { "type": "Point", "coordinates": [ 121.190004868055553, 31.091839078055557 ] } },
{ "type": "Feature", "properties": { "Name": "佘山天地休闲广场", "Ctype": "城市广场", "Ntype": "110105", "Address": "外青松公路８９５０号附近", "Telephone": null }, "geometry": { "type": "Point", "coordinates": [ 121.185639105833332, 31.100504557222223 ] } },
{ "type": "Feature", "properties": { "Name": "封神榜艺术宫", "Ctype": "风景名胜", "Ntype": "110200", "Address": null, "Telephone": null }, "geometry": { "type": "Point", "coordinates": [ 121.201004774444442, 31.091379394444445 ] } },
{ "type": "Feature", "properties": { "Name": "上海天文台", "Ctype": "风景名胜", "Ntype": "110200", "Address": "西佘山", "Telephone": "021-64386191" }, "geometry": { "type": "Point", "coordinates": [ 121.191393333333338, 31.09378361111111 ] } },
{ "type": "Feature", "properties": { "Name": "天主堂（东门）", "Ctype": "教堂", "Ntype": "110206", "Address": null, "Telephone": null }, "geometry": { "type": "Point", "coordinates": [ 121.242658691388883, 31.14881184888889 ] } },
{ "type": "Feature", "properties": { "Name": "佘山天马塔园（东南２门）", "Ctype": "风景名胜", "Ntype": "110200", "Address": "沈砖公路３６４５", "Telephone": null }, "geometry": { "type": "Point", "coordinates": [ 121.154727918888881, 31.082314181944444 ] } },
{ "type": "Feature", "properties": { "Name": "施相公庙", "Ctype": "寺庙道观", "Ntype": "110205", "Address": null, "Telephone": null }, "geometry": { "type": "Point", "coordinates": [ 121.199304, 31.092794 ] } },
{ "type": "Feature", "properties": { "Name": "曼荼园", "Ctype": "旅游景点", "Ntype": "110000", "Address": null, "Telephone": null }, "geometry": { "type": "Point", "coordinates": [ 121.196577006111113, 31.088261204444446 ] } },
{ "type": "Feature", "properties": { "Name": "曼荼园（西北门）", "Ctype": "旅游景点", "Ntype": "110000", "Address": null, "Telephone": null }, "geometry": { "type": "Point", "coordinates": [ 121.195819153333332, 31.088505024444444 ] } },
{ "type": "Feature", "properties": { "Name": "佘山索道", "Ctype": "风景名胜", "Ntype": "110200", "Address": null, "Telephone": null }, "geometry": { "type": "Point", "coordinates": [ 121.1968325, 31.0946 ] } },
{ "type": "Feature", "properties": { "Name": "上海教区佘山天主堂", "Ctype": "教堂", "Ntype": "110206", "Address": "环山路", "Telephone": "021-57651651" }, "geometry": { "type": "Point", "coordinates": [ 121.195647786388889, 31.092026638333333 ] } },
{ "type": "Feature", "properties": { "Name": "崧泽广场", "Ctype": "城市广场", "Ntype": "110105", "Address": "公园东路", "Telephone": null }, "geometry": { "type": "Point", "coordinates": [ 121.134725840555561, 31.151525324166666 ] } },
{ "type": "Feature", "properties": { "Name": "秀道者古塔", "Ctype": "风景名胜", "Ntype": "110200", "Address": null, "Telephone": null }, "geometry": { "type": "Point", "coordinates": [ 121.196335720555552, 31.0953312175 ] } },
{ "type": "Feature", "properties": { "Name": "欧罗巴世界乐园", "Ctype": "风景名胜", "Ntype": "110200", "Address": "佘山镇", "Telephone": "021-57651582" }, "geometry": { "type": "Point", "coordinates": [ 121.198065321111116, 31.08974826388889 ] } },
{ "type": "Feature", "properties": { "Name": "青浦区崧泽广场管理办公室", "Ctype": "公园广场", "Ntype": "110100", "Address": null, "Telephone": null }, "geometry": { "type": "Point", "coordinates": [ 121.1361032975, 31.152190016388889 ] } },
{ "type": "Feature", "properties": { "Name": "进教之佑", "Ctype": "风景名胜", "Ntype": "110200", "Address": "环山路３号", "Telephone": null }, "geometry": { "type": "Point", "coordinates": [ 121.195591675555562, 31.092055719722222 ] } },
{ "type": "Feature", "properties": { "Name": "皇家花园", "Ctype": "风景名胜", "Ntype": "110200", "Address": null, "Telephone": null }, "geometry": { "type": "Point", "coordinates": [ 121.193986545277781, 31.085489095 ] } },
{ "type": "Feature", "properties": { "Name": "亲子园", "Ctype": "风景名胜", "Ntype": "110200", "Address": null, "Telephone": null }, "geometry": { "type": "Point", "coordinates": [ 121.202784360555555, 31.090294084722224 ] } },
{ "type": "Feature", "properties": { "Name": "希音山房（西南门）", "Ctype": "教堂", "Ntype": "110206", "Address": null, "Telephone": null }, "geometry": { "type": "Point", "coordinates": [ 121.189864420277786, 31.0917057 ] } },
{ "type": "Feature", "properties": { "Name": "福泉山遗址（东南门）", "Ctype": "风景名胜", "Ntype": "110200", "Address": "重固乡钱家经村", "Telephone": null }, "geometry": { "type": "Point", "coordinates": [ 121.17729481, 31.200299370277776 ] } },
{ "type": "Feature", "properties": { "Name": "福泉山广场", "Ctype": "城市广场", "Ntype": "110105", "Address": "福泉山路６５８", "Telephone": null }, "geometry": { "type": "Point", "coordinates": [ 121.177403523611105, 31.200313823611111 ] } },
{ "type": "Feature", "properties": { "Name": "香花普光寺", "Ctype": "寺庙道观", "Ntype": "110205", "Address": null, "Telephone": null }, "geometry": { "type": "Point", "coordinates": [ 121.132582754166663, 31.187575173333332 ] } },
{ "type": "Feature", "properties": { "Name": "申源广场", "Ctype": "城市广场", "Ntype": "110105", "Address": null, "Telephone": null }, "geometry": { "type": "Point", "coordinates": [ 121.185994249722214, 31.191493011944445 ] } },
{ "type": "Feature", "properties": { "Name": "法会庵", "Ctype": "寺庙道观", "Ntype": "110205", "Address": "通波塘东街２５８", "Telephone": null }, "geometry": { "type": "Point", "coordinates": [ 121.17958439277777, 31.203267312777776 ] } },
{ "type": "Feature", "properties": { "Name": "福泉山遗址", "Ctype": "风景名胜", "Ntype": "110200", "Address": "重固乡钱家经村", "Telephone": "021-59785515|59785535" }, "geometry": { "type": "Point", "coordinates": [ 121.177277843333329, 31.200354669722223 ] } },
{ "type": "Feature", "properties": { "Name": "新木桥村文化广场", "Ctype": "城市广场", "Ntype": "110105", "Address": null, "Telephone": null }, "geometry": { "type": "Point", "coordinates": [ 121.235863443333329, 31.202093458055558 ] } },
{ "type": "Feature", "properties": { "Name": "观音古寺", "Ctype": "寺庙道观", "Ntype": "110205", "Address": "华新镇凤溪社区三星街１７５号", "Telephone": null }, "geometry": { "type": "Point", "coordinates": [ 121.228265749444446, 31.197469362222222 ] } },
{ "type": "Feature", "properties": { "Name": "观音古寺（东北门）", "Ctype": "寺庙道观", "Ntype": "110205", "Address": "华新镇凤溪社区三星街１７５号", "Telephone": null }, "geometry": { "type": "Point", "coordinates": [ 121.228286486666676, 31.197498268611113 ] } },
{ "type": "Feature", "properties": { "Name": "青龙古寺", "Ctype": "寺庙道观", "Ntype": "110205", "Address": "青龙村４７４", "Telephone": "021-59716710" }, "geometry": { "type": "Point", "coordinates": [ 121.17450086805556, 31.238811035277777 ] } },
{ "type": "Feature", "properties": { "Name": "施相公庙", "Ctype": "寺庙道观", "Ntype": "110205", "Address": "白鹤镇", "Telephone": null }, "geometry": { "type": "Point", "coordinates": [ 121.14567328555556, 31.240306532222224 ] } },
{ "type": "Feature", "properties": { "Name": "吉云禅寺塔（青龙塔）", "Ctype": "寺庙道观", "Ntype": "110205", "Address": "白鹤乡青龙村", "Telephone": null }, "geometry": { "type": "Point", "coordinates": [ 121.174322783055558, 31.238363561944446 ] } },
{ "type": "Feature", "properties": { "Name": "法会庵（南门）", "Ctype": "寺庙道观", "Ntype": "110205", "Address": "通波塘东街２５８", "Telephone": null }, "geometry": { "type": "Point", "coordinates": [ 121.179583764166665, 31.203243433611114 ] } },
{ "type": "Feature", "properties": { "Name": "颂恩堂（北门）", "Ctype": "教堂", "Ntype": "110206", "Address": null, "Telephone": null }, "geometry": { "type": "Point", "coordinates": [ 121.246500651111106, 31.299352756111112 ] } },
{ "type": "Feature", "properties": { "Name": "同济大学嘉定校区嘉园广场", "Ctype": "公园广场", "Ntype": "110100", "Address": null, "Telephone": null }, "geometry": { "type": "Point", "coordinates": [ 121.212716, 31.282938 ] } },
{ "type": "Feature", "properties": { "Name": "同济大学嘉定校区满天星广场", "Ctype": "公园广场", "Ntype": "110100", "Address": null, "Telephone": null }, "geometry": { "type": "Point", "coordinates": [ 121.218134, 31.28733 ] } },
{ "type": "Feature", "properties": { "Name": "永安塔", "Ctype": "风景名胜", "Ntype": "110200", "Address": "安亭镇安亭老街", "Telephone": null }, "geometry": { "type": "Point", "coordinates": [ 121.152491861944455, 31.298561469166668 ] } },
{ "type": "Feature", "properties": { "Name": "颂恩堂（陆家巷路）", "Ctype": "教堂", "Ntype": "110206", "Address": "陆家巷路６０５", "Telephone": null }, "geometry": { "type": "Point", "coordinates": [ 121.246547580277777, 31.29908365888889 ] } },
{ "type": "Feature", "properties": { "Name": "菩提禅寺", "Ctype": "寺庙道观", "Ntype": "110205", "Address": "永安街４２２号", "Telephone": "021-59561065|59576502" }, "geometry": { "type": "Point", "coordinates": [ 121.151206781388879, 31.298524722777778 ] } },
{ "type": "Feature", "properties": { "Name": "５６８生活休闲广场", "Ctype": "城市广场", "Ntype": "110105", "Address": null, "Telephone": null }, "geometry": { "type": "Point", "coordinates": [ 121.160970052222225, 31.306314019166667 ] } },
{ "type": "Feature", "properties": { "Name": "鑫荟广场", "Ctype": "城市广场", "Ntype": "110105", "Address": "于田南路６９弄", "Telephone": null }, "geometry": { "type": "Point", "coordinates": [ 121.181191216388882, 31.280693660277777 ] } },
{ "type": "Feature", "properties": { "Name": "国际五金城生活休闲广场", "Ctype": "城市广场", "Ntype": "110105", "Address": null, "Telephone": null }, "geometry": { "type": "Point", "coordinates": [ 121.233592665, 31.311303168333332 ] } },
{ "type": "Feature", "properties": { "Name": "安亭市民广场", "Ctype": "城市广场", "Ntype": "110105", "Address": "墨玉路３２８号", "Telephone": null }, "geometry": { "type": "Point", "coordinates": [ 121.163491779444442, 31.298662600833332 ] } },
{ "type": "Feature", "properties": { "Name": "安亭耶稣堂", "Ctype": "教堂", "Ntype": "110206", "Address": "蓬青路１１６", "Telephone": null }, "geometry": { "type": "Point", "coordinates": [ 121.139177788611107, 31.304476725277777 ] } },
{ "type": "Feature", "properties": { "Name": "福田庙", "Ctype": "寺庙道观", "Ntype": "110205", "Address": null, "Telephone": null }, "geometry": { "type": "Point", "coordinates": [ 121.212851363611122, 31.297811643611109 ] } },
{ "type": "Feature", "properties": { "Name": "春盛苑小区休闲广场", "Ctype": "城市广场", "Ntype": "110105", "Address": null, "Telephone": null }, "geometry": { "type": "Point", "coordinates": [ 121.208222555, 31.270880849444445 ] } },
{ "type": "Feature", "properties": { "Name": "安亭耶稣堂（南门）", "Ctype": "教堂", "Ntype": "110206", "Address": "蓬青路１１６", "Telephone": null }, "geometry": { "type": "Point", "coordinates": [ 121.13918023, 31.304214952222221 ] } },
{ "type": "Feature", "properties": { "Name": "明二黄先生墓", "Ctype": "风景名胜", "Ntype": "110200", "Address": null, "Telephone": null }, "geometry": { "type": "Point", "coordinates": [ 121.215082505, 31.324449759722221 ] } },
{ "type": "Feature", "properties": { "Name": "千年古银杏", "Ctype": "风景名胜", "Ntype": "110200", "Address": "安辰路附近", "Telephone": null }, "geometry": { "type": "Point", "coordinates": [ 121.245516, 31.315725 ] } },
{ "type": "Feature", "properties": { "Name": "明二黄先生墓（东南门）", "Ctype": "风景名胜", "Ntype": "110200", "Address": null, "Telephone": null }, "geometry": { "type": "Point", "coordinates": [ 121.215088788888892, 31.324440333611111 ] } },
{ "type": "Feature", "properties": { "Name": "吴兴寺（东南１门）", "Ctype": "寺庙道观", "Ntype": "110205", "Address": null, "Telephone": null }, "geometry": { "type": "Point", "coordinates": [ 121.17719520833333, 31.36349472972222 ] } },
{ "type": "Feature", "properties": { "Name": "天主堂（西北门）", "Ctype": "教堂", "Ntype": "110206", "Address": null, "Telephone": null }, "geometry": { "type": "Point", "coordinates": [ 121.246766400833323, 31.38186206 ] } },
{ "type": "Feature", "properties": { "Name": "秋霞圃（东南门）", "Ctype": "风景名胜", "Ntype": "110200", "Address": "东大街３１４号", "Telephone": null }, "geometry": { "type": "Point", "coordinates": [ 121.254108055555548, 31.386039166666666 ] } },
{ "type": "Feature", "properties": { "Name": "南苑公园南园", "Ctype": "旅游景点", "Ntype": "110000", "Address": null, "Telephone": null }, "geometry": { "type": "Point", "coordinates": [ 121.251837, 31.370542 ] } },
{ "type": "Feature", "properties": { "Name": "北水湾体育公园", "Ctype": "公园广场", "Ntype": "110100", "Address": null, "Telephone": null }, "geometry": { "type": "Point", "coordinates": [ 121.24226, 31.402874 ] } },
{ "type": "Feature", "properties": { "Name": "双拥绿地", "Ctype": "城市广场", "Ntype": "110105", "Address": null, "Telephone": null }, "geometry": { "type": "Point", "coordinates": [ 121.242427, 31.389742 ] } },
{ "type": "Feature", "properties": { "Name": "五一广场", "Ctype": "城市广场", "Ntype": "110105", "Address": null, "Telephone": null }, "geometry": { "type": "Point", "coordinates": [ 121.253007, 31.393125 ] } },
{ "type": "Feature", "properties": { "Name": "老伍", "Ctype": "旅游景点", "Ntype": "110000", "Address": "南下塘街１５", "Telephone": null }, "geometry": { "type": "Point", "coordinates": [ 121.251405609722227, 31.3840980825 ] } },
{ "type": "Feature", "properties": { "Name": "兰郡生活广场", "Ctype": "城市广场", "Ntype": "110105", "Address": null, "Telephone": null }, "geometry": { "type": "Point", "coordinates": [ 121.173397146944453, 31.354269788888885 ] } },
{ "type": "Feature", "properties": { "Name": "花神庙", "Ctype": "寺庙道观", "Ntype": "110205", "Address": null, "Telephone": null }, "geometry": { "type": "Point", "coordinates": [ 121.202221316388901, 31.34577945 ] } },
{ "type": "Feature", "properties": { "Name": "护国教寺", "Ctype": "寺庙道观", "Ntype": "110205", "Address": "清河路２１５", "Telephone": null }, "geometry": { "type": "Point", "coordinates": [ 121.238594645, 31.379258770833335 ] } },
{ "type": "Feature", "properties": { "Name": "吴兴寺", "Ctype": "寺庙道观", "Ntype": "110205", "Address": "沪宜公路５４２８", "Telephone": null }, "geometry": { "type": "Point", "coordinates": [ 121.17691111111111, 31.363688333333336 ] } },
{ "type": "Feature", "properties": { "Name": "嘉定孔庙", "Ctype": "风景名胜", "Ntype": "110200", "Address": "南大街１８３号", "Telephone": "021-59530379" }, "geometry": { "type": "Point", "coordinates": [ 121.252646666666664, 31.38149138888889 ] } },
{ "type": "Feature", "properties": { "Name": "善牧堂", "Ctype": "教堂", "Ntype": "110206", "Address": "清河路４３２", "Telephone": null }, "geometry": { "type": "Point", "coordinates": [ 121.235354535555558, 31.377289945555553 ] } },
{ "type": "Feature", "properties": { "Name": "上海大学嘉定校区文荟广场", "Ctype": "公园广场", "Ntype": "110100", "Address": null, "Telephone": null }, "geometry": { "type": "Point", "coordinates": [ 121.248958, 31.377281 ] } },
{ "type": "Feature", "properties": { "Name": "嘉定志愿者广场", "Ctype": "城市广场", "Ntype": "110105", "Address": null, "Telephone": null }, "geometry": { "type": "Point", "coordinates": [ 121.250914926944446, 31.398529395277777 ] } },
{ "type": "Feature", "properties": { "Name": "腊梅广场", "Ctype": "城市广场", "Ntype": "110105", "Address": null, "Telephone": null }, "geometry": { "type": "Point", "coordinates": [ 121.168934236388893, 31.361529795277779 ] } },
{ "type": "Feature", "properties": { "Name": "秋霞圃", "Ctype": "风景名胜", "Ntype": "110200", "Address": "东大街３１４号", "Telephone": "021-59531949" }, "geometry": { "type": "Point", "coordinates": [ 121.253287777777786, 31.386851666666665 ] } },
{ "type": "Feature", "properties": { "Name": "思贤堂", "Ctype": "风景名胜", "Ntype": "110200", "Address": "嘉定人民街１５９", "Telephone": null }, "geometry": { "type": "Point", "coordinates": [ 121.244726019999987, 31.380822211388889 ] } },
{ "type": "Feature", "properties": { "Name": "桃花源", "Ctype": "风景名胜", "Ntype": "110200", "Address": "南汇区惠南镇", "Telephone": null }, "geometry": { "type": "Point", "coordinates": [ 121.134016113333331, 31.357368706666666 ] } },
{ "type": "Feature", "properties": { "Name": "梅园广场", "Ctype": "城市广场", "Ntype": "110105", "Address": "嘉定梅园路２２６号", "Telephone": null }, "geometry": { "type": "Point", "coordinates": [ 121.242126464722219, 31.383394911111111 ] } },
{ "type": "Feature", "properties": { "Name": "天主堂", "Ctype": "教堂", "Ntype": "110206", "Address": "中下塘街９９", "Telephone": null }, "geometry": { "type": "Point", "coordinates": [ 121.246770833333329, 31.381691666666665 ] } },
{ "type": "Feature", "properties": { "Name": "法华塔", "Ctype": "风景名胜", "Ntype": "110200", "Address": "南大街３４９", "Telephone": null }, "geometry": { "type": "Point", "coordinates": [ 121.250977801111119, 31.38413039138889 ] } },
{ "type": "Feature", "properties": { "Name": "聚善桥", "Ctype": "风景名胜", "Ntype": "110200", "Address": null, "Telephone": null }, "geometry": { "type": "Point", "coordinates": [ 121.237024468333331, 31.376254611666667 ] } },
{ "type": "Feature", "properties": { "Name": "天主堂（西南门）", "Ctype": "教堂", "Ntype": "110206", "Address": "中下塘街９９", "Telephone": null }, "geometry": { "type": "Point", "coordinates": [ 121.246552222222221, 31.381588611111109 ] } },
{ "type": "Feature", "properties": { "Name": "善牧堂（东南门）", "Ctype": "教堂", "Ntype": "110206", "Address": "清河路４３２", "Telephone": null }, "geometry": { "type": "Point", "coordinates": [ 121.235311706388899, 31.377203318333333 ] } },
{ "type": "Feature", "properties": { "Name": "秋霞圃（北门）", "Ctype": "风景名胜", "Ntype": "110200", "Address": "东大街３１４号", "Telephone": null }, "geometry": { "type": "Point", "coordinates": [ 121.253186577777782, 31.387845594722222 ] } },
{ "type": "Feature", "properties": { "Name": "吴兴寺（东南２门）", "Ctype": "寺庙道观", "Ntype": "110205", "Address": "沪宜公路５４２８", "Telephone": null }, "geometry": { "type": "Point", "coordinates": [ 121.177009444444437, 31.363441666666667 ] } },
{ "type": "Feature", "properties": { "Name": "护国教寺（东北门）", "Ctype": "寺庙道观", "Ntype": "110205", "Address": "清河路２１５", "Telephone": null }, "geometry": { "type": "Point", "coordinates": [ 121.239212222222221, 31.379195 ] } },
{ "type": "Feature", "properties": { "Name": "善牧堂", "Ctype": "教堂", "Ntype": "110206", "Address": "西大街２０２", "Telephone": null }, "geometry": { "type": "Point", "coordinates": [ 121.236936125555559, 31.376391423055555 ] } },
{ "type": "Feature", "properties": { "Name": "吴兴寺（东南３门）", "Ctype": "寺庙道观", "Ntype": "110205", "Address": null, "Telephone": null }, "geometry": { "type": "Point", "coordinates": [ 121.176896089166661, 31.363429375833334 ] } },
{ "type": "Feature", "properties": { "Name": "陈爷庙（南门）", "Ctype": "寺庙道观", "Ntype": "110205", "Address": null, "Telephone": null }, "geometry": { "type": "Point", "coordinates": [ 121.167213541666669, 31.403837619444445 ] } },
{ "type": "Feature", "properties": { "Name": "嘉定孔庙（西南门）", "Ctype": "风景名胜", "Ntype": "110200", "Address": "南大街１８３号", "Telephone": null }, "geometry": { "type": "Point", "coordinates": [ 121.252867222222221, 31.380693888888892 ] } },
{ "type": "Feature", "properties": { "Name": "护国教寺（西北门）", "Ctype": "寺庙道观", "Ntype": "110205", "Address": "清河路２１５", "Telephone": null }, "geometry": { "type": "Point", "coordinates": [ 121.239028075555552, 31.379659427222222 ] } },
{ "type": "Feature", "properties": { "Name": "嘉定志愿者广场（西北门）", "Ctype": "城市广场", "Ntype": "110105", "Address": null, "Telephone": null }, "geometry": { "type": "Point", "coordinates": [ 121.250784062222223, 31.398682332777778 ] } },
{ "type": "Feature", "properties": { "Name": "花神庙（东南门）", "Ctype": "寺庙道观", "Ntype": "110205", "Address": null, "Telephone": null }, "geometry": { "type": "Point", "coordinates": [ 121.202428685, 31.345541532777776 ] } },
{ "type": "Feature", "properties": { "Name": "法华塔（西南门）", "Ctype": "风景名胜", "Ntype": "110200", "Address": "南大街３４９", "Telephone": null }, "geometry": { "type": "Point", "coordinates": [ 121.250667893333329, 31.384146618611112 ] } },
{ "type": "Feature", "properties": { "Name": "白亭映翠", "Ctype": "风景名胜", "Ntype": "110200", "Address": null, "Telephone": null }, "geometry": { "type": "Point", "coordinates": [ 121.251568739166672, 31.375969238333333 ] } },
{ "type": "Feature", "properties": { "Name": "陈爷庙", "Ctype": "寺庙道观", "Ntype": "110205", "Address": null, "Telephone": null }, "geometry": { "type": "Point", "coordinates": [ 121.167042643333332, 31.404105902777779 ] } },
{ "type": "Feature", "properties": { "Name": "外冈游击队纪念馆", "Ctype": "纪念馆", "Ntype": "110204", "Address": "恒谐路９９９", "Telephone": null }, "geometry": { "type": "Point", "coordinates": [ 121.177529839444432, 31.334087727777778 ] } },
{ "type": "Feature", "properties": { "Name": "博乐广场", "Ctype": "城市广场", "Ntype": "110105", "Address": "嘉定镇", "Telephone": null }, "geometry": { "type": "Point", "coordinates": [ 121.252385555555549, 31.384041666666668 ] } },
{ "type": "Feature", "properties": { "Name": "嘉定镇街道双拥广场", "Ctype": "城市广场", "Ntype": "110105", "Address": "清河路２５", "Telephone": null }, "geometry": { "type": "Point", "coordinates": [ 121.249547526111115, 31.384677191944444 ] } },
{ "type": "Feature", "properties": { "Name": "陶庵留碧", "Ctype": "风景名胜", "Ntype": "110200", "Address": null, "Telephone": null }, "geometry": { "type": "Point", "coordinates": [ 121.248653971388876, 31.375513509166666 ] } },
{ "type": "Feature", "properties": { "Name": "京城禅寺", "Ctype": "寺庙道观", "Ntype": "110205", "Address": null, "Telephone": null }, "geometry": { "type": "Point", "coordinates": [ 121.168374, 31.424277 ] } },
{ "type": "Feature", "properties": { "Name": "锡安堂", "Ctype": "教堂", "Ntype": "110206", "Address": "嘉唐公路１３９０", "Telephone": null }, "geometry": { "type": "Point", "coordinates": [ 121.21285319, 31.428193359444446 ] } },
{ "type": "Feature", "properties": { "Name": "娄塘天主堂", "Ctype": "教堂", "Ntype": "110206", "Address": "人民街１４２", "Telephone": null }, "geometry": { "type": "Point", "coordinates": [ 121.215432400277777, 31.430096571111111 ] } },
{ "type": "Feature", "properties": { "Name": "印家住宅", "Ctype": "风景名胜", "Ntype": "110200", "Address": "南新路２８２", "Telephone": null }, "geometry": { "type": "Point", "coordinates": [ 121.217220323333322, 31.430005967777777 ] } },
{ "type": "Feature", "properties": { "Name": "景华苑（东北门）", "Ctype": "城市广场", "Ntype": "110105", "Address": null, "Telephone": null }, "geometry": { "type": "Point", "coordinates": [ 121.214697536944442, 31.425640191111111 ] } },
{ "type": "Feature", "properties": { "Name": "锡安堂（西南门）", "Ctype": "教堂", "Ntype": "110206", "Address": "嘉唐公路１３９０", "Telephone": null }, "geometry": { "type": "Point", "coordinates": [ 121.212647298055558, 31.42796522361111 ] } },
{ "type": "Feature", "properties": { "Name": "娄塘天主堂（西南门）", "Ctype": "教堂", "Ntype": "110206", "Address": "人民街１４２", "Telephone": null }, "geometry": { "type": "Point", "coordinates": [ 121.21528537333333, 31.429951985555554 ] } },
{ "type": "Feature", "properties": { "Name": "景华苑", "Ctype": "城市广场", "Ntype": "110105", "Address": null, "Telephone": null }, "geometry": { "type": "Point", "coordinates": [ 121.214703504722223, 31.425281575555555 ] } },
{ "type": "Feature", "properties": { "Name": "明珠湖", "Ctype": "风景名胜", "Ntype": "110200", "Address": "三星镇育德烈士村５队三华公路", "Telephone": null }, "geometry": { "type": "Point", "coordinates": [ 121.250295138888887, 31.72634874138889 ] } },
{ "type": "Feature", "properties": { "Name": "崇明荷花博览园", "Ctype": "风景名胜", "Ntype": "110200", "Address": null, "Telephone": "021-39633585" }, "geometry": { "type": "Point", "coordinates": [ 121.240185, 31.729994 ] } },
{ "type": "Feature", "properties": { "Name": "西沙国家湿地公园（西大门）", "Ctype": "风景名胜", "Ntype": "110200", "Address": null, "Telephone": null }, "geometry": { "type": "Point", "coordinates": [ 121.239354, 31.727405 ] } },
{ "type": "Feature", "properties": { "Name": "西沙国家湿地公园", "Ctype": "风景名胜", "Ntype": "110200", "Address": "堡湖路５８８号", "Telephone": "021-39633635" }, "geometry": { "type": "Point", "coordinates": [ 121.235192, 31.725356 ] } },
{ "type": "Feature", "properties": { "Name": "临恩堂（东南门）", "Ctype": "教堂", "Ntype": "110206", "Address": "临桂路２５１０", "Telephone": null }, "geometry": { "type": "Point", "coordinates": [ 121.335175277777779, 30.720652777777779 ] } },
{ "type": "Feature", "properties": { "Name": "金山城市沙滩（西北４门）", "Ctype": "海滩", "Ntype": "110208", "Address": "沪杭公路７７４１", "Telephone": null }, "geometry": { "type": "Point", "coordinates": [ 121.353616229444455, 30.715268892500003 ] } },
{ "type": "Feature", "properties": { "Name": "金山城市沙滩（北１门）", "Ctype": "海滩", "Ntype": "110208", "Address": null, "Telephone": null }, "geometry": { "type": "Point", "coordinates": [ 121.344522087777776, 30.705168228888891 ] } },
{ "type": "Feature", "properties": { "Name": "临恩堂", "Ctype": "教堂", "Ntype": "110206", "Address": "临桂路２５１０", "Telephone": null }, "geometry": { "type": "Point", "coordinates": [ 121.33515972222223, 30.720758333333333 ] } },
{ "type": "Feature", "properties": { "Name": "金山城市沙滩（南门）", "Ctype": "海滩", "Ntype": "110208", "Address": null, "Telephone": null }, "geometry": { "type": "Point", "coordinates": [ 121.344796, 30.704924 ] } },
{ "type": "Feature", "properties": { "Name": "金山卫站北广场", "Ctype": "城市广场", "Ntype": "110105", "Address": null, "Telephone": null }, "geometry": { "type": "Point", "coordinates": [ 121.36209, 30.728714 ] } },
{ "type": "Feature", "properties": { "Name": "金山嘴渔村景区", "Ctype": "风景名胜", "Ntype": "110200", "Address": null, "Telephone": "021-67292112" }, "geometry": { "type": "Point", "coordinates": [ 121.3761, 30.732704 ] } },
{ "type": "Feature", "properties": { "Name": "思致广场", "Ctype": "城市广场", "Ntype": "110105", "Address": null, "Telephone": null }, "geometry": { "type": "Point", "coordinates": [ 121.335075, 30.745833055555554 ] } },
{ "type": "Feature", "properties": { "Name": "金山卫城日军登陆地点", "Ctype": "风景名胜", "Ntype": "110200", "Address": null, "Telephone": "021-37262031" }, "geometry": { "type": "Point", "coordinates": [ 121.32277967666667, 30.718939073333335 ] } },
{ "type": "Feature", "properties": { "Name": "山龙绿地广场", "Ctype": "公园广场", "Ntype": "110100", "Address": null, "Telephone": null }, "geometry": { "type": "Point", "coordinates": [ 121.336951944444451, 30.730405 ] } },
{ "type": "Feature", "properties": { "Name": "绿地生活广场", "Ctype": "城市广场", "Ntype": "110105", "Address": null, "Telephone": null }, "geometry": { "type": "Point", "coordinates": [ 121.314079816666663, 30.742256136111113 ] } },
{ "type": "Feature", "properties": { "Name": "山阳广场", "Ctype": "公园广场", "Ntype": "110100", "Address": null, "Telephone": null }, "geometry": { "type": "Point", "coordinates": [ 121.351876388888897, 30.728194166666665 ] } },
{ "type": "Feature", "properties": { "Name": "万寿寺（易家中心２号楼北）", "Ctype": "寺庙道观", "Ntype": "110205", "Address": "张杨北路５５３７号", "Telephone": "021-57262454" }, "geometry": { "type": "Point", "coordinates": [ 121.328874316388891, 30.732545390555558 ] } },
{ "type": "Feature", "properties": { "Name": "古城明珠", "Ctype": "风景名胜", "Ntype": "110200", "Address": null, "Telephone": null }, "geometry": { "type": "Point", "coordinates": [ 121.316939784999988, 30.725506660277777 ] } },
{ "type": "Feature", "properties": { "Name": "金山广场", "Ctype": "城市广场", "Ntype": "110105", "Address": null, "Telephone": null }, "geometry": { "type": "Point", "coordinates": [ 121.342226944444448, 30.739837222222224 ] } },
{ "type": "Feature", "properties": { "Name": "金山卫站东南广场", "Ctype": "城市广场", "Ntype": "110105", "Address": null, "Telephone": null },