{
"type": "FeatureCollection",
"crs": { "type": "name", "properties": { "name": "urn:ogc:def:crs:OGC:1.3:CRS84" } },
"features": [
{ "type": "Feature", "properties": { "Name": "上海黑池体育舞蹈专修学院", "Ctype": "高等院校", "Ntype": "141201", "Address": "莲龚路８", "Telephone": null }, "geometry": { "type": "Point", "coordinates": [ 120.970603841111114, 31.051145561944445 ] } },
{ "type": "Feature", "properties": { "Name": "莲盛成人学校", "Ctype": "成人教育", "Ntype": "141205", "Address": null, "Telephone": null }, "geometry": { "type": "Point", "coordinates": [ 120.989398057777777, 31.05029676638889 ] } },
{ "type": "Feature", "properties": { "Name": "上海市退休职工大学金山分校枫泾教学点", "Ctype": "成人教育", "Ntype": "141205", "Address": "枫丽路１６３", "Telephone": null }, "geometry": { "type": "Point", "coordinates": [ 121.01595277777777, 30.886406944444445 ] } },
{ "type": "Feature", "properties": { "Name": "枫泾镇成人中等文化技术学校", "Ctype": "成人教育", "Ntype": "141205", "Address": "枫丽路１６３", "Telephone": null }, "geometry": { "type": "Point", "coordinates": [ 121.01595277777777, 30.886406944444445 ] } },
{ "type": "Feature", "properties": { "Name": "枫泾镇社区（老年）学校", "Ctype": "成人教育", "Ntype": "141205", "Address": "枫丽路１６３", "Telephone": null }, "geometry": { "type": "Point", "coordinates": [ 121.01595277777777, 30.886406944444445 ] } },
{ "type": "Feature", "properties": { "Name": "新浜镇成人中等文化技术学校", "Ctype": "职业技术学校", "Ntype": "141206", "Address": "新绿街６３５", "Telephone": "021-57891220" }, "geometry": { "type": "Point", "coordinates": [ 121.066186794722228, 30.931215820277778 ] } },
{ "type": "Feature", "properties": { "Name": "上海未来技术学校", "Ctype": "职业技术学校", "Ntype": "141206", "Address": "小昆山镇平原街４０８号", "Telephone": null }, "geometry": { "type": "Point", "coordinates": [ 121.129303385555559, 31.031576877222221 ] } },
{ "type": "Feature", "properties": { "Name": "练塘镇老年学校", "Ctype": "成人教育", "Ntype": "141205", "Address": "朱枫公路３５３３弄８号", "Telephone": null }, "geometry": { "type": "Point", "coordinates": [ 121.047422663888881, 31.005975491944447 ] } },
{ "type": "Feature", "properties": { "Name": "青浦区练塘成人中等文化技术学校（西北门）", "Ctype": "成人教育", "Ntype": "141205", "Address": "朱枫公路３５３３弄８号", "Telephone": null }, "geometry": { "type": "Point", "coordinates": [ 121.047345998888886, 31.00634247861111 ] } },
{ "type": "Feature", "properties": { "Name": "青浦区练塘成人中等文化技术学校", "Ctype": "成人教育", "Ntype": "141205", "Address": "朱枫公路３５３３弄８号", "Telephone": null }, "geometry": { "type": "Point", "coordinates": [ 121.047422663888881, 31.005975491944447 ] } },
{ "type": "Feature", "properties": { "Name": "青浦区沈巷成人中等文化技术学校", "Ctype": "成人教育", "Ntype": "141205", "Address": null, "Telephone": null }, "geometry": { "type": "Point", "coordinates": [ 121.054664442222219, 31.074670681388888 ] } },
{ "type": "Feature", "properties": { "Name": "盈浦成人学校（西门）", "Ctype": "成人教育", "Ntype": "141205", "Address": "庆华一路８４弄１", "Telephone": null }, "geometry": { "type": "Point", "coordinates": [ 121.115436976111113, 31.151014111944445 ] } },
{ "type": "Feature", "properties": { "Name": "上海开放大学青浦分校（东北门）", "Ctype": "高等院校", "Ntype": "141201", "Address": "章浜路１１８", "Telephone": null }, "geometry": { "type": "Point", "coordinates": [ 121.118613189166666, 31.1441656075 ] } },
{ "type": "Feature", "properties": { "Name": "青浦区农业技术学校（东北门）", "Ctype": "职业技术学校", "Ntype": "141206", "Address": "青昆路６０", "Telephone": null }, "geometry": { "type": "Point", "coordinates": [ 121.111606445277786, 31.135424262222223 ] } },
{ "type": "Feature", "properties": { "Name": "上海青浦区博时科技进修学校（东南门）", "Ctype": "成人教育", "Ntype": "141205", "Address": "城中北路５７５、５９９号", "Telephone": null }, "geometry": { "type": "Point", "coordinates": [ 121.112230228888876, 31.156749229722223 ] } },
{ "type": "Feature", "properties": { "Name": "华东师范大学", "Ctype": "高等院校", "Ntype": "141201", "Address": "康业路１８８", "Telephone": null }, "geometry": { "type": "Point", "coordinates": [ 121.058775770277776, 31.084839952222222 ] } },
{ "type": "Feature", "properties": { "Name": "上海市青浦区少年业余体育学校", "Ctype": "职业技术学校", "Ntype": "141206", "Address": "海盈路５０５５", "Telephone": null }, "geometry": { "type": "Point", "coordinates": [ 121.098008626388889, 31.139185655277778 ] } },
{ "type": "Feature", "properties": { "Name": "上海开放大学青浦分校教学支持服务中心", "Ctype": "成人教育", "Ntype": "141205", "Address": null, "Telephone": null }, "geometry": { "type": "Point", "coordinates": [ 121.118461100277784, 31.14429904527778 ] } },
{ "type": "Feature", "properties": { "Name": "上海政法学院继教学院教学点", "Ctype": "成人教育", "Ntype": "141205", "Address": "浦仓路１００", "Telephone": null }, "geometry": { "type": "Point", "coordinates": [ 121.121604886388894, 31.144310013055556 ] } },
{ "type": "Feature", "properties": { "Name": "青浦区初等职业技术学校", "Ctype": "职业技术学校", "Ntype": "141206", "Address": "祥凝浜路７６３", "Telephone": null }, "geometry": { "type": "Point", "coordinates": [ 121.054048055555555, 31.105590277777779 ] } },
{ "type": "Feature", "properties": { "Name": "上海开放大学青浦分校报名处", "Ctype": "高等院校", "Ntype": "141201", "Address": null, "Telephone": null }, "geometry": { "type": "Point", "coordinates": [ 121.118461100277784, 31.144299316388889 ] } },
{ "type": "Feature", "properties": { "Name": "上海开放大学女子学院青浦区学习中心", "Ctype": "高等院校", "Ntype": "141201", "Address": "章浜路１１８", "Telephone": null }, "geometry": { "type": "Point", "coordinates": [ 121.118000088888877, 31.143907106944447 ] } },
{ "type": "Feature", "properties": { "Name": "上海青浦区博时科技进修学校", "Ctype": "成人教育", "Ntype": "141205", "Address": "城中北路５７５、５９９号青浦工合楼", "Telephone": "021-59205528" }, "geometry": { "type": "Point", "coordinates": [ 121.112199437222216, 31.156747972777779 ] } },
{ "type": "Feature", "properties": { "Name": "青浦区农业技术学校", "Ctype": "职业技术学校", "Ntype": "141206", "Address": "青昆路６０", "Telephone": null }, "geometry": { "type": "Point", "coordinates": [ 121.111142849444434, 31.13540635861111 ] } },
{ "type": "Feature", "properties": { "Name": "朱家角成人学校", "Ctype": "成人教育", "Ntype": "141205", "Address": "漕平支路１０２", "Telephone": null }, "geometry": { "type": "Point", "coordinates": [ 121.050357777777776, 31.107911666666666 ] } },
{ "type": "Feature", "properties": { "Name": "朱家角老年学校", "Ctype": "成人教育", "Ntype": "141205", "Address": "漕平支路１０２", "Telephone": null }, "geometry": { "type": "Point", "coordinates": [ 121.050357777777776, 31.107911666666666 ] } },
{ "type": "Feature", "properties": { "Name": "青浦区财经进修学校（东门）", "Ctype": "成人教育", "Ntype": "141205", "Address": "五厍浜路２０１", "Telephone": null }, "geometry": { "type": "Point", "coordinates": [ 121.108643391944454, 31.145737304722221 ] } },
{ "type": "Feature", "properties": { "Name": "青浦区教师进修学院（西北门）", "Ctype": "成人教育", "Ntype": "141205", "Address": "公园路３０１", "Telephone": null }, "geometry": { "type": "Point", "coordinates": [ 121.120436058611119, 31.148654784166666 ] } },
{ "type": "Feature", "properties": { "Name": "上海市青浦区少年业余体育学校（东南门）", "Ctype": "职业技术学校", "Ntype": "141206", "Address": "海盈路５０５５", "Telephone": null }, "geometry": { "type": "Point", "coordinates": [ 121.098364257777789, 31.139001736111112 ] } },
{ "type": "Feature", "properties": { "Name": "上海开放大学青浦分校", "Ctype": "高等院校", "Ntype": "141201", "Address": "章浜路１１８", "Telephone": null }, "geometry": { "type": "Point", "coordinates": [ 121.118000088888877, 31.143907106944447 ] } },
{ "type": "Feature", "properties": { "Name": "盈浦成人学校", "Ctype": "成人教育", "Ntype": "141205", "Address": "庆华一路８４弄１", "Telephone": null }, "geometry": { "type": "Point", "coordinates": [ 121.115465332499994, 31.151053561666668 ] } },
{ "type": "Feature", "properties": { "Name": "上海市农业广播电视学校青浦分校", "Ctype": "职业技术学校", "Ntype": "141206", "Address": "章浜路１１８", "Telephone": null }, "geometry": { "type": "Point", "coordinates": [ 121.118000088888877, 31.143907106944447 ] } },
{ "type": "Feature", "properties": { "Name": "上海市青浦区职业学校", "Ctype": "职业技术学校", "Ntype": "141206", "Address": "章浜路１１８", "Telephone": null }, "geometry": { "type": "Point", "coordinates": [ 121.118000088888877, 31.143907106944447 ] } },
{ "type": "Feature", "properties": { "Name": "上海经济管理干部学院教学点", "Ctype": "成人教育", "Ntype": "141205", "Address": "城中北路５７５、５９９号青浦工合楼", "Telephone": null }, "geometry": { "type": "Point", "coordinates": [ 121.111908908333334, 31.156705186666667 ] } },
{ "type": "Feature", "properties": { "Name": "朱家角老年学校（东南门）", "Ctype": "成人教育", "Ntype": "141205", "Address": "漕平支路１０２", "Telephone": null }, "geometry": { "type": "Point", "coordinates": [ 121.050371666666663, 31.107875 ] } },
{ "type": "Feature", "properties": { "Name": "上海青浦区东剑进修学校（南门）", "Ctype": "成人教育", "Ntype": "141205", "Address": "城中东路４８", "Telephone": null }, "geometry": { "type": "Point", "coordinates": [ 121.124549425, 31.146795518611111 ] } },
{ "type": "Feature", "properties": { "Name": "夏阳成人中等文化技术学校（东北门）", "Ctype": "成人教育", "Ntype": "141205", "Address": "青昆路１００号", "Telephone": null }, "geometry": { "type": "Point", "coordinates": [ 121.111685926666667, 31.13507921 ] } },
{ "type": "Feature", "properties": { "Name": "青浦区初等职业技术学校（西北门）", "Ctype": "职业技术学校", "Ntype": "141206", "Address": "祥凝浜路７６３", "Telephone": null }, "geometry": { "type": "Point", "coordinates": [ 121.053931111111112, 31.105741944444446 ] } },
{ "type": "Feature", "properties": { "Name": "青浦区财经进修学校", "Ctype": "成人教育", "Ntype": "141205", "Address": "五厍浜路２０１", "Telephone": "021-59724680|59729824" }, "geometry": { "type": "Point", "coordinates": [ 121.10813259555556, 31.145828721666664 ] } },
{ "type": "Feature", "properties": { "Name": "上海科技管理干部学院教学点", "Ctype": "成人教育", "Ntype": "141205", "Address": "城中北路５７５、５９９号青浦工合楼", "Telephone": null }, "geometry": { "type": "Point", "coordinates": [ 121.111908908333334, 31.156705186666667 ] } },
{ "type": "Feature", "properties": { "Name": "上海青浦区新力量进修学校", "Ctype": "成人教育", "Ntype": "141205", "Address": "公园路３０１", "Telephone": null }, "geometry": { "type": "Point", "coordinates": [ 121.120512723611114, 31.148199821111113 ] } },
{ "type": "Feature", "properties": { "Name": "青浦区教师进修学院", "Ctype": "成人教育", "Ntype": "141205", "Address": "公园路３０１", "Telephone": "021-69711551" }, "geometry": { "type": "Point", "coordinates": [ 121.120512723611114, 31.148199821111113 ] } },
{ "type": "Feature", "properties": { "Name": "夏阳成人中等文化技术学校", "Ctype": "成人教育", "Ntype": "141205", "Address": "青昆路１００号", "Telephone": null }, "geometry": { "type": "Point", "coordinates": [ 121.111195203888897, 31.135020073888889 ] } },
{ "type": "Feature", "properties": { "Name": "上海市青浦新时代进修学校（浦仓路）", "Ctype": "成人教育", "Ntype": "141205", "Address": "浦仓路１００", "Telephone": null }, "geometry": { "type": "Point", "coordinates": [ 121.121604886388894, 31.144310013055556 ] } },
{ "type": "Feature", "properties": { "Name": "上海青浦区东剑进修学校", "Ctype": "成人教育", "Ntype": "141205", "Address": "城中东路４８", "Telephone": null }, "geometry": { "type": "Point", "coordinates": [ 121.124535861666658, 31.147159016944446 ] } },
{ "type": "Feature", "properties": { "Name": "上海开放大学残疾人教育学院青浦区学习中心", "Ctype": "成人教育", "Ntype": "141205", "Address": "章浜路１１８", "Telephone": null }, "geometry": { "type": "Point", "coordinates": [ 121.118000088888877, 31.143907106944447 ] } },
{ "type": "Feature", "properties": { "Name": "上海青浦天明科技专修学校", "Ctype": "职业技术学校", "Ntype": "141206", "Address": "青松路３５", "Telephone": null }, "geometry": { "type": "Point", "coordinates": [ 121.116667209166678, 31.147523600277779 ] } },
{ "type": "Feature", "properties": { "Name": "上海青浦区博艺进修学校", "Ctype": "成人教育", "Ntype": "141205", "Address": null, "Telephone": null }, "geometry": { "type": "Point", "coordinates": [ 121.121104141111104, 31.165251986944444 ] } },
{ "type": "Feature", "properties": { "Name": "香花桥成人中等文化技术学校", "Ctype": "成人教育", "Ntype": "141205", "Address": "新胜路５８０", "Telephone": null }, "geometry": { "type": "Point", "coordinates": [ 121.101735912500004, 31.207015868333333 ] } },
{ "type": "Feature", "properties": { "Name": "赵屯镇老年学校", "Ctype": "成人教育", "Ntype": "141205", "Address": null, "Telephone": null }, "geometry": { "type": "Point", "coordinates": [ 121.079339463888886, 31.257649196944442 ] } },
{ "type": "Feature", "properties": { "Name": "赵屯镇老年学校（东北门）", "Ctype": "成人教育", "Ntype": "141205", "Address": null, "Telephone": null }, "geometry": { "type": "Point", "coordinates": [ 121.07960829, 31.25778971361111 ] } },
{ "type": "Feature", "properties": { "Name": "赵屯成人中等文化技术学校", "Ctype": "成人教育", "Ntype": "141205", "Address": null, "Telephone": null }, "geometry": { "type": "Point", "coordinates": [ 121.079339463888886, 31.257649196944442 ] } },
{ "type": "Feature", "properties": { "Name": "上海市金山区吕巷镇老年学校", "Ctype": "成人教育", "Ntype": "141205", "Address": "金张公路２５５０", "Telephone": null }, "geometry": { "type": "Point", "coordinates": [ 121.235816941666656, 30.826053329444445 ] } },
{ "type": "Feature", "properties": { "Name": "上海市金山区吕巷镇老年学校（西南门）", "Ctype": "成人教育", "Ntype": "141205", "Address": "金张公路２５５０", "Telephone": null }, "geometry": { "type": "Point", "coordinates": [ 121.235775466944432, 30.82581328 ] } },
{ "type": "Feature", "properties": { "Name": "上海市金山区吕巷镇成人学校", "Ctype": "成人教育", "Ntype": "141205", "Address": "金张公路２５５０", "Telephone": null }, "geometry": { "type": "Point", "coordinates": [ 121.235816941666656, 30.826053329444445 ] } },
{ "type": "Feature", "properties": { "Name": "金山区朱泾镇老年学校（东南门）", "Ctype": "成人教育", "Ntype": "141205", "Address": "西林街２弄１５", "Telephone": null }, "geometry": { "type": "Point", "coordinates": [ 121.162934722222218, 30.894726388888888 ] } },
{ "type": "Feature", "properties": { "Name": "金山区老年大学（万安街）", "Ctype": "成人教育", "Ntype": "141205", "Address": "万安街９５０", "Telephone": null }, "geometry": { "type": "Point", "coordinates": [ 121.159589166666663, 30.897150555555555 ] } },
{ "type": "Feature", "properties": { "Name": "朱泾镇成人（社区）学校朱泾社区学校教学点", "Ctype": "成人教育", "Ntype": "141205", "Address": "商园街１７", "Telephone": null }, "geometry": { "type": "Point", "coordinates": [ 121.168733611111108, 30.8904575 ] } },
{ "type": "Feature", "properties": { "Name": "上海市金山区行政学院", "Ctype": "高等院校", "Ntype": "141201", "Address": "健康路２３６", "Telephone": null }, "geometry": { "type": "Point", "coordinates": [ 121.158777222222227, 30.895018333333336 ] } },
{ "type": "Feature", "properties": { "Name": "上海交通大学金山校区", "Ctype": "高等院校", "Ntype": "141201", "Address": "亭枫公路１９１５", "Telephone": null }, "geometry": { "type": "Point", "coordinates": [ 121.244998825833335, 30.894199424166665 ] } },
{ "type": "Feature", "properties": { "Name": "上海农林职业技术学院金山分院", "Ctype": "高等院校", "Ntype": "141201", "Address": "万安街３９５", "Telephone": null }, "geometry": { "type": "Point", "coordinates": [ 121.171820833333328, 30.896521944444448 ] } },
{ "type": "Feature", "properties": { "Name": "上海开放大学老年教育学院金山学习苑", "Ctype": "成人教育", "Ntype": "141205", "Address": "万安街９５０", "Telephone": null }, "geometry": { "type": "Point", "coordinates": [ 121.159589166666663, 30.897149444444445 ] } },
{ "type": "Feature", "properties": { "Name": "金山区女职工周末学校", "Ctype": "成人教育", "Ntype": "141205", "Address": "万安街９５０", "Telephone": null }, "geometry": { "type": "Point", "coordinates": [ 121.159589166666663, 30.897150555555555 ] } },
{ "type": "Feature", "properties": { "Name": "上海市金山区成人教育学校", "Ctype": "成人教育", "Ntype": "141205", "Address": "万安街９５０", "Telephone": "021-57320156" }, "geometry": { "type": "Point", "coordinates": [ 121.159588611111104, 30.897150833333335 ] } },
{ "type": "Feature", "properties": { "Name": "金山区社区学院", "Ctype": "成人教育", "Ntype": "141205", "Address": "万安街９５０", "Telephone": null }, "geometry": { "type": "Point", "coordinates": [ 121.15958805555556, 30.897149722222224 ] } },
{ "type": "Feature", "properties": { "Name": "上海市农业广播电视学校金山区分校", "Ctype": "成人教育", "Ntype": "141205", "Address": "南圩路２５５", "Telephone": null }, "geometry": { "type": "Point", "coordinates": [ 121.16275119777778, 30.904832211666665 ] } },
{ "type": "Feature", "properties": { "Name": "金山区老年大学朱泾分校", "Ctype": "成人教育", "Ntype": "141205", "Address": "西林街２弄１５", "Telephone": null }, "geometry": { "type": "Point", "coordinates": [ 121.162854166666676, 30.894734444444442 ] } },
{ "type": "Feature", "properties": { "Name": "金山区朱泾镇老年学校", "Ctype": "成人教育", "Ntype": "141205", "Address": "西林街２弄１５", "Telephone": null }, "geometry": { "type": "Point", "coordinates": [ 121.162853888888876, 30.894736388888891 ] } },
{ "type": "Feature", "properties": { "Name": "上海交通大学医学院附属卫校金山分校", "Ctype": "高等院校", "Ntype": "141201", "Address": "东风南路２２５", "Telephone": null }, "geometry": { "type": "Point", "coordinates": [ 121.165368923611112, 30.889832628055554 ] } },
{ "type": "Feature", "properties": { "Name": "上海开放大学金山分校（南校区）", "Ctype": "成人教育", "Ntype": "141205", "Address": "文商路１１９", "Telephone": null }, "geometry": { "type": "Point", "coordinates": [ 121.160095, 30.896535 ] } },
{ "type": "Feature", "properties": { "Name": "上海开放大学金山分校", "Ctype": "成人教育", "Ntype": "141205", "Address": "万安街９５０", "Telephone": null }, "geometry": { "type": "Point", "coordinates": [ 121.159589166666663, 30.897150555555555 ] } },
{ "type": "Feature", "properties": { "Name": "上海市金山区社区学院（南校区）", "Ctype": "高等院校", "Ntype": "141201", "Address": "文商路１１９", "Telephone": null }, "geometry": { "type": "Point", "coordinates": [ 121.160095, 30.896535 ] } },
{ "type": "Feature", "properties": { "Name": "上海医药高等专科学校继续教育学院金山教学点", "Ctype": "成人教育", "Ntype": "141205", "Address": "东风南路２２５", "Telephone": null }, "geometry": { "type": "Point", "coordinates": [ 121.16537028, 30.889831814166666 ] } },
{ "type": "Feature", "properties": { "Name": "上海金成进修学院朱泾教学点", "Ctype": "成人教育", "Ntype": "141205", "Address": "公园路３２８", "Telephone": null }, "geometry": { "type": "Point", "coordinates": [ 121.16189914277777, 30.89658176 ] } },
{ "type": "Feature", "properties": { "Name": "上海交通大学网络教育学院金山食品工业学校教学点", "Ctype": "成人教育", "Ntype": "141205", "Address": "万安街３９５", "Telephone": null }, "geometry": { "type": "Point", "coordinates": [ 121.171820833333328, 30.896521944444448 ] } },
{ "type": "Feature", "properties": { "Name": "上海健康医学院附属卫生学校金山分校教学楼", "Ctype": "高等院校", "Ntype": "141201", "Address": null, "Telephone": null }, "geometry": { "type": "Point", "coordinates": [ 121.165354230277785, 30.889975004722224 ] } },
{ "type": "Feature", "properties": { "Name": "上海健康医学院附属卫生学校金山分校行政楼", "Ctype": "高等院校", "Ntype": "141201", "Address": null, "Telephone": null }, "geometry": { "type": "Point", "coordinates": [ 121.16490932166667, 30.889797795277776 ] } },
{ "type": "Feature", "properties": { "Name": "上海健康医学院附属卫生学校金山分校（东门）", "Ctype": "职业技术学校", "Ntype": "141206", "Address": null, "Telephone": null }, "geometry": { "type": "Point", "coordinates": [ 121.165991944444443, 30.889955 ] } },
{ "type": "Feature", "properties": { "Name": "金山区社区学院（西门）", "Ctype": "成人教育", "Ntype": "141205", "Address": null, "Telephone": null }, "geometry": { "type": "Point", "coordinates": [ 121.158766944444437, 30.897376944444446 ] } },
{ "type": "Feature", "properties": { "Name": "金山区社区学院（南门）", "Ctype": "成人教育", "Ntype": "141205", "Address": "万安街９５０", "Telephone": null }, "geometry": { "type": "Point", "coordinates": [ 121.159595277777782, 30.897067222222223 ] } },
{ "type": "Feature", "properties": { "Name": "金山区朱泾镇成人（社区）学校（东门）", "Ctype": "成人教育", "Ntype": "141205", "Address": "文商路１１９", "Telephone": null }, "geometry": { "type": "Point", "coordinates": [ 121.160295883333333, 30.896643275555554 ] } },
{ "type": "Feature", "properties": { "Name": "上海健康医学院附属卫生学校金山分校", "Ctype": "职业技术学校", "Ntype": "141206", "Address": "东风南路２２５", "Telephone": null }, "geometry": { "type": "Point", "coordinates": [ 121.165393055555555, 30.889928333333334 ] } },
{ "type": "Feature", "properties": { "Name": "金山农民画艺术进修学校", "Ctype": "成人教育", "Ntype": "141205", "Address": "健康路３００", "Telephone": null }, "geometry": { "type": "Point", "coordinates": [ 121.158792222222218, 30.8962475 ] } },
{ "type": "Feature", "properties": { "Name": "上海市退休职工大学朱泾教学点", "Ctype": "成人教育", "Ntype": "141205", "Address": "西林街２弄１５", "Telephone": null }, "geometry": { "type": "Point", "coordinates": [ 121.162856944444442, 30.894730833333334 ] } },
{ "type": "Feature", "properties": { "Name": "上海交通大学医学院附属卫校金山分校（东门）", "Ctype": "高等院校", "Ntype": "141201", "Address": "东风南路２２５", "Telephone": null }, "geometry": { "type": "Point", "coordinates": [ 121.165991944444443, 30.889955 ] } },
{ "type": "Feature", "properties": { "Name": "金山区科技进修学校", "Ctype": "成人教育", "Ntype": "141205", "Address": "临源街６５５", "Telephone": null }, "geometry": { "type": "Point", "coordinates": [ 121.165793888888885, 30.89964777777778 ] } },
{ "type": "Feature", "properties": { "Name": "上海交通大学金山校区（北门）", "Ctype": "高等院校", "Ntype": "141201", "Address": "亭枫公路１９１５上海交通大学金山校区", "Telephone": null }, "geometry": { "type": "Point", "coordinates": [ 121.245086534166674, 30.894537217777778 ] } },
{ "type": "Feature", "properties": { "Name": "朱泾镇第二老年大学", "Ctype": "成人教育", "Ntype": "141205", "Address": "贸易路５５", "Telephone": null }, "geometry": { "type": "Point", "coordinates": [ 121.209559794166665, 30.891573030833335 ] } },
{ "type": "Feature", "properties": { "Name": "金山区朱泾镇成人（社区）学校", "Ctype": "成人教育", "Ntype": "141205", "Address": "文商路１１９", "Telephone": null }, "geometry": { "type": "Point", "coordinates": [ 121.160095, 30.896535 ] } },
{ "type": "Feature", "properties": { "Name": "上海开放大学女子学院金山区学习中心", "Ctype": "成人教育", "Ntype": "141205", "Address": "万安街９５０", "Telephone": null }, "geometry": { "type": "Point", "coordinates": [ 121.15959, 30.897149444444445 ] } },
{ "type": "Feature", "properties": { "Name": "上海市电视中等专业学校金山分校", "Ctype": "职业技术学校", "Ntype": "141206", "Address": "万安街９５０", "Telephone": "021-67311870" }, "geometry": { "type": "Point", "coordinates": [ 121.15958805555556, 30.897148055555554 ] } },
{ "type": "Feature", "properties": { "Name": "上海开放大学残疾人教育学院金山区学习中心", "Ctype": "成人教育", "Ntype": "141205", "Address": "万安街９５０", "Telephone": null }, "geometry": { "type": "Point", "coordinates": [ 121.159589166666663, 30.897150555555555 ] } },
{ "type": "Feature", "properties": { "Name": "金山区科技进修学校（北门）", "Ctype": "成人教育", "Ntype": "141205", "Address": "临源街６５５", "Telephone": null }, "geometry": { "type": "Point", "coordinates": [ 121.165785833333345, 30.89975888888889 ] } },
{ "type": "Feature", "properties": { "Name": "朱泾镇第二老年大学（东南门）", "Ctype": "成人教育", "Ntype": "141205", "Address": "贸易路５５", "Telephone": null }, "geometry": { "type": "Point", "coordinates": [ 121.20962577638889, 30.891569888888888 ] } },
{ "type": "Feature", "properties": { "Name": "松江区石湖荡成人学校（北门）", "Ctype": "成人教育", "Ntype": "141205", "Address": "育新路６９９号", "Telephone": null }, "geometry": { "type": "Point", "coordinates": [ 121.180927287499998, 30.968267604166666 ] } },
{ "type": "Feature", "properties": { "Name": "上海市松江行知进修学校（三号公路）", "Ctype": "成人教育", "Ntype": "141205", "Address": "长石路２５０号", "Telephone": null }, "geometry": { "type": "Point", "coordinates": [ 121.201291503888882, 30.968331434444444 ] } },
{ "type": "Feature", "properties": { "Name": "松江区石湖荡成人学校", "Ctype": "成人教育", "Ntype": "141205", "Address": "育新路６９９号", "Telephone": null }, "geometry": { "type": "Point", "coordinates": [ 121.180855833333339, 30.967938888888888 ] } },
{ "type": "Feature", "properties": { "Name": "石湖荡成人中等文化技术学校", "Ctype": "成人教育", "Ntype": "141205", "Address": null, "Telephone": null }, "geometry": { "type": "Point", "coordinates": [ 121.181231282500008, 30.971097276388889 ] } },
{ "type": "Feature", "properties": { "Name": "上海有色金属工业技校九凌分校", "Ctype": "职业技术学校", "Ntype": "141206", "Address": "长石路２５０号", "Telephone": null }, "geometry": { "type": "Point", "coordinates": [ 121.201289876388898, 30.968332790833333 ] } },
{ "type": "Feature", "properties": { "Name": "上海广电信息技术学校松江九凌校区", "Ctype": "职业技术学校", "Ntype": "141206", "Address": "长石路２５０号", "Telephone": null }, "geometry": { "type": "Point", "coordinates": [ 121.201293131388894, 30.968326823055556 ] } },
{ "type": "Feature", "properties": { "Name": "上海市交通安全教育学校松江分部（南门）", "Ctype": "职业技术学校", "Ntype": "141206", "Address": "乐都路４７８", "Telephone": null }, "geometry": { "type": "Point", "coordinates": [ 121.218283420277785, 31.013472222222223 ] } },
{ "type": "Feature", "properties": { "Name": "上海对外经贸大学松江校区（北门）", "Ctype": "高等院校", "Ntype": "141201", "Address": "文汇路２１５号", "Telephone": null }, "geometry": { "type": "Point", "coordinates": [ 121.215431, 31.049236 ] } },
{ "type": "Feature", "properties": { "Name": "上海视觉艺术学院（东２门）", "Ctype": "高等院校", "Ntype": "141201", "Address": null, "Telephone": null }, "geometry": { "type": "Point", "coordinates": [ 121.210900537777775, 31.04474967222222 ] } },
{ "type": "Feature", "properties": { "Name": "东华大学机械工程学院", "Ctype": "高等院校", "Ntype": "141201", "Address": "人民北路２９９９东华大学松江校区学院楼４", "Telephone": null }, "geometry": { "type": "Point", "coordinates": [ 121.211621738055555, 31.058541629722225 ] } },
{ "type": "Feature", "properties": { "Name": "上海工程技术大学松江校区（西２门）", "Ctype": "高等院校", "Ntype": "141201", "Address": null, "Telephone": null }, "geometry": { "type": "Point", "coordinates": [ 121.201036, 31.051477 ] } },
{ "type": "Feature", "properties": { "Name": "上海市松江老年大学福利院分校（南门）", "Ctype": "成人教育", "Ntype": "141205", "Address": "其昌路６００号", "Telephone": null }, "geometry": { "type": "Point", "coordinates": [ 121.222178, 31.024201 ] } },
{ "type": "Feature", "properties": { "Name": "上海立信会计金融学院（５号门）", "Ctype": "高等院校", "Ntype": "141201", "Address": null, "Telephone": null }, "geometry": { "type": "Point", "coordinates": [ 121.197755, 31.049285 ] } },
{ "type": "Feature", "properties": { "Name": "上海视觉艺术学院（南门）", "Ctype": "高等院校", "Ntype": "141201", "Address": "文汇路６９９", "Telephone": null }, "geometry": { "type": "Point", "coordinates": [ 121.206701, 31.04347 ] } },
{ "type": "Feature", "properties": { "Name": "上海立信会计金融学院（南门）", "Ctype": "高等院校", "Ntype": "141201", "Address": "文翔路２８００", "Telephone": null }, "geometry": { "type": "Point", "coordinates": [ 121.198815, 31.043596 ] } },
{ "type": "Feature", "properties": { "Name": "华东政法大学松江校区（东门）", "Ctype": "高等院校", "Ntype": "141201", "Address": "龙源路５５５", "Telephone": null }, "geometry": { "type": "Point", "coordinates": [ 121.200793, 31.055626 ] } },
{ "type": "Feature", "properties": { "Name": "上海对外经贸学院松江校区（南门）", "Ctype": "高等院校", "Ntype": "141201", "Address": "文翔路１９００号", "Telephone": null }, "geometry": { "type": "Point", "coordinates": [ 121.21676, 31.043774 ] } },
{ "type": "Feature", "properties": { "Name": "上海外国语大学西外外国语学校（东南门）", "Ctype": "高等院校", "Ntype": "141201", "Address": "谷阳北路", "Telephone": null }, "geometry": { "type": "Point", "coordinates": [ 121.235101, 31.044855 ] } },
{ "type": "Feature", "properties": { "Name": "上海对外经贸大学松江校区（东２门）", "Ctype": "高等院校", "Ntype": "141201", "Address": null, "Telephone": null }, "geometry": { "type": "Point", "coordinates": [ 121.221331, 31.044581 ] } },
{ "type": "Feature", "properties": { "Name": "上海立信会计金融学院（３号门）", "Ctype": "高等院校", "Ntype": "141201", "Address": null, "Telephone": null }, "geometry": { "type": "Point", "coordinates": [ 121.2008, 31.04768 ] } },
{ "type": "Feature", "properties": { "Name": "华东政法大学松江校区（北１门）", "Ctype": "高等院校", "Ntype": "141201", "Address": "广富林路３４０９", "Telephone": null }, "geometry": { "type": "Point", "coordinates": [ 121.189965, 31.054339 ] } },
{ "type": "Feature", "properties": { "Name": "上海对外经贸大学松江校区１", "Ctype": "高等院校", "Ntype": "141201", "Address": null, "Telephone": null }, "geometry": { "type": "Point", "coordinates": [ 121.217842446111106, 31.047835859722223 ] } },
{ "type": "Feature", "properties": { "Name": "上海对外经贸大学松江校区图文信息大楼", "Ctype": "高等院校", "Ntype": "141201", "Address": null, "Telephone": null }, "geometry": { "type": "Point", "coordinates": [ 121.216910211944437, 31.046545750555556 ] } },
{ "type": "Feature", "properties": { "Name": "东华大学松江校区学院楼５", "Ctype": "高等院校", "Ntype": "141201", "Address": "人民北路２９９９东华大学松江校区", "Telephone": null }, "geometry": { "type": "Point", "coordinates": [ 121.215929276388891, 31.05806373 ] } },
{ "type": "Feature", "properties": { "Name": "上海立信会计金融学院国际财经学院", "Ctype": "高等院校", "Ntype": "141201", "Address": null, "Telephone": null }, "geometry": { "type": "Point", "coordinates": [ 121.200668, 31.048613 ] } },
{ "type": "Feature", "properties": { "Name": "东华大学松江校区（南门）", "Ctype": "高等院校", "Ntype": "141201", "Address": null, "Telephone": null }, "geometry": { "type": "Point", "coordinates": [ 121.215341, 31.050282 ] } },
{ "type": "Feature", "properties": { "Name": "华东政法大学松江校区明法楼西楼", "Ctype": "高等院校", "Ntype": "141201", "Address": "广富林路３１７５华东政法大学松江校区", "Telephone": null }, "geometry": { "type": "Point", "coordinates": [ 121.195616861944458, 31.056146375833332 ] } },
{ "type": "Feature", "properties": { "Name": "松江区小昆山成人中等文化技术学校", "Ctype": "成人教育", "Ntype": "141205", "Address": "小昆山镇文翔路以北中德路以东", "Telephone": null }, "geometry": { "type": "Point", "coordinates": [ 121.13201551638889, 31.02912407777778 ] } },
{ "type": "Feature", "properties": { "Name": "永丰街道老年学校", "Ctype": "成人教育", "Ntype": "141205", "Address": "松汇西路１５１８号", "Telephone": null }, "geometry": { "type": "Point", "coordinates": [ 121.208336317222219, 31.003321668888891 ] } },
{ "type": "Feature", "properties": { "Name": "上海对外贸易大学松江校区金融管理学院", "Ctype": "高等院校", "Ntype": "141201", "Address": "上海对外经贸大学松江校区博萃楼３、４层", "Telephone": null }, "geometry": { "type": "Point", "coordinates": [ 121.21876462611111, 31.048692685833334 ] } },
{ "type": "Feature", "properties": { "Name": "上海对外经贸大学松江校区商务信息学院", "Ctype": "高等院校", "Ntype": "141201", "Address": "上海对外经贸大学松江校区博识楼４层", "Telephone": null }, "geometry": { "type": "Point", "coordinates": [ 121.218437857222227, 31.047833031944446 ] } },
{ "type": "Feature", "properties": { "Name": "上海对外经贸大学国际商务外语学院", "Ctype": "高等院校", "Ntype": "141201", "Address": null, "Telephone": null }, "geometry": { "type": "Point", "coordinates": [ 121.218857001111104, 31.048087848888887 ] } },
{ "type": "Feature", "properties": { "Name": "上海对外经贸大学松江校区国际商务外语学院", "Ctype": "高等院校", "Ntype": "141201", "Address": "上海对外经贸大学松江校区博雅楼２、３、４层", "Telephone": null }, "geometry": { "type": "Point", "coordinates": [ 121.219022113888883, 31.048279825555554 ] } },
{ "type": "Feature", "properties": { "Name": "上海对外贸易大学松江校区国际商务外语学院", "Ctype": "高等院校", "Ntype": "141201", "Address": "上海对外经贸大学松江校区博萃楼２层", "Telephone": null }, "geometry": { "type": "Point", "coordinates": [ 121.21876462611111, 31.048692685833334 ] } },
{ "type": "Feature", "properties": { "Name": "上海对外经贸大学松江校区会计学院", "Ctype": "高等院校", "Ntype": "141201", "Address": "上海对外经贸大学松江校区博识楼３层", "Telephone": null }, "geometry": { "type": "Point", "coordinates": [ 121.218441627499999, 31.047831775 ] } },
{ "type": "Feature", "properties": { "Name": "上海对外贸易大学松江校区工商管理学院", "Ctype": "高等院校", "Ntype": "141201", "Address": "上海对外经贸大学松江校区博萃楼３层", "Telephone": null }, "geometry": { "type": "Point", "coordinates": [ 121.21876462611111, 31.048692685833334 ] } },
{ "type": "Feature", "properties": { "Name": "上海对外经贸大学松江校区国际经贸学院", "Ctype": "高等院校", "Ntype": "141201", "Address": "上海对外经贸大学松江校区博识楼２、３、４层", "Telephone": null }, "geometry": { "type": "Point", "coordinates": [ 121.218441627499999, 31.047829261388891 ] } },
{ "type": "Feature", "properties": { "Name": "上海对外经贸大学松江校区（东１门）", "Ctype": "高等院校", "Ntype": "141201", "Address": "人民北路２３３３", "Telephone": null }, "geometry": { "type": "Point", "coordinates": [ 121.221099, 31.047603 ] } },
{ "type": "Feature", "properties": { "Name": "上海英集进修学校", "Ctype": "成人教育", "Ntype": "141205", "Address": "南青路２４８号通跃商务楼４层Ａ０６", "Telephone": null }, "geometry": { "type": "Point", "coordinates": [ 121.23458875861111, 31.0343573675 ] } },
{ "type": "Feature", "properties": { "Name": "上海华仕外语专修学校", "Ctype": "成人教育", "Ntype": "141205", "Address": "乐都路３３９号松江信息大楼１８层", "Telephone": null }, "geometry": { "type": "Point", "coordinates": [ 121.22832573777778, 31.013176269444443 ] } },
{ "type": "Feature", "properties": { "Name": "安博上海英豪学院", "Ctype": "高等院校", "Ntype": "141201", "Address": "人民北路６４号嘉和写字楼６层", "Telephone": null }, "geometry": { "type": "Point", "coordinates": [ 121.228256564722216, 31.01076171888889 ] } },
{ "type": "Feature", "properties": { "Name": "上海工程技术大学宏志堂", "Ctype": "高等院校", "Ntype": "141201", "Address": null, "Telephone": null }, "geometry": { "type": "Point", "coordinates": [ 121.2045, 31.057047 ] } },
{ "type": "Feature", "properties": { "Name": "上海外国语大学松江校区国际关系与公共事务学院", "Ctype": "高等院校", "Ntype": "141201", "Address": null, "Telephone": null }, "geometry": { "type": "Point", "coordinates": [ 121.226836, 31.045002 ] } },
{ "type": "Feature", "properties": { "Name": "上海对外贸易大学松江校区法学院", "Ctype": "高等院校", "Ntype": "141201", "Address": null, "Telephone": null }, "geometry": { "type": "Point", "coordinates": [ 121.21778, 31.048389 ] } },
{ "type": "Feature", "properties": { "Name": "上海对外经贸大学松江校区行政办公大楼", "Ctype": "高等院校", "Ntype": "141201", "Address": null, "Telephone": null }, "geometry": { "type": "Point", "coordinates": [ 121.21504, 31.048 ] } },
{ "type": "Feature", "properties": { "Name": "上海外国语大学松江校区法语系", "Ctype": "高等院校", "Ntype": "141201", "Address": null, "Telephone": null }, "geometry": { "type": "Point", "coordinates": [ 121.223438, 31.045017 ] } },
{ "type": "Feature", "properties": { "Name": "上海对外贸易大学松江校区体育教学部", "Ctype": "高等院校", "Ntype": "141201", "Address": null, "Telephone": null }, "geometry": { "type": "Point", "coordinates": [ 121.22075, 31.047439 ] } },
{ "type": "Feature", "properties": { "Name": "上海外国语大学松江校区研究生部", "Ctype": "高等院校", "Ntype": "141201", "Address": null, "Telephone": null }, "geometry": { "type": "Point", "coordinates": [ 121.226844, 31.045054 ] } },
{ "type": "Feature", "properties": { "Name": "上海开放大学松江分校校区", "Ctype": "高等院校", "Ntype": "141201", "Address": "西林北路４２０", "Telephone": null }, "geometry": { "type": "Point", "coordinates": [ 121.222874620277778, 31.012156846666667 ] } },
{ "type": "Feature", "properties": { "Name": "上海市农业广播电视学校松江分校（西南门）", "Ctype": "成人教育", "Ntype": "141205", "Address": "西林北路４２０", "Telephone": null }, "geometry": { "type": "Point", "coordinates": [ 121.221698888888881, 31.012631388888888 ] } },
{ "type": "Feature", "properties": { "Name": "东华大学纺织学院", "Ctype": "高等院校", "Ntype": "141201", "Address": null, "Telephone": null }, "geometry": { "type": "Point", "coordinates": [ 121.21931699138888, 31.050984153611111 ] } },
{ "type": "Feature", "properties": { "Name": "上海外国语大学松江校区德语系", "Ctype": "高等院校", "Ntype": "141201", "Address": null, "Telephone": null }, "geometry": { "type": "Point", "coordinates": [ 121.223586, 31.045003 ] } },
{ "type": "Feature", "properties": { "Name": "上海外国语大学西外外国语学校", "Ctype": "高等院校", "Ntype": "141201", "Address": "文翔路１１００", "Telephone": null }, "geometry": { "type": "Point", "coordinates": [ 121.23416422527778, 31.044026692777777 ] } },
{ "type": "Feature", "properties": { "Name": "上海外国语大学松江校区七教楼", "Ctype": "高等院校", "Ntype": "141201", "Address": "文翔路１５５０号上海外国语大学松江校区", "Telephone": null }, "geometry": { "type": "Point", "coordinates": [ 121.226511230555559, 31.048773871666668 ] } },
{ "type": "Feature", "properties": { "Name": "上海视觉艺术学院６号楼", "Ctype": "高等院校", "Ntype": "141201", "Address": "文汇路６９９", "Telephone": null }, "geometry": { "type": "Point", "coordinates": [ 121.20912431166667, 31.048636443888888 ] } },
{ "type": "Feature", "properties": { "Name": "上海外国语大学松江校区国际工商管理学院", "Ctype": "高等院校", "Ntype": "141201", "Address": "文翔路１５５０号上海外国语大学松江校区", "Telephone": null }, "geometry": { "type": "Point", "coordinates": [ 121.223491482222229, 31.047229817777779 ] } },
{ "type": "Feature", "properties": { "Name": "华东政法大学松江校区明法楼东楼", "Ctype": "高等院校", "Ntype": "141201", "Address": "广富林路３１７５华东政法大学松江校区", "Telephone": null }, "geometry": { "type": "Point", "coordinates": [ 121.196388075, 31.056310763888888 ] } },
{ "type": "Feature", "properties": { "Name": "华东政法大学松江校区明德楼", "Ctype": "高等院校", "Ntype": "141201", "Address": "广富林路３１７５华东政法大学松江校区", "Telephone": null }, "geometry": { "type": "Point", "coordinates": [ 121.199031033055562, 31.054839409722224 ] } },
{ "type": "Feature", "properties": { "Name": "东华大学松江校区学院楼３", "Ctype": "高等院校", "Ntype": "141201", "Address": "人民北路２９９９东华大学松江校区", "Telephone": null }, "geometry": { "type": "Point", "coordinates": [ 121.211439501666675, 31.057516077500001 ] } },
{ "type": "Feature", "properties": { "Name": "华东政法大学松江校区尚杰楼", "Ctype": "高等院校", "Ntype": "141201", "Address": "广富林路３１７５华东政法大学松江校区", "Telephone": null }, "geometry": { "type": "Point", "coordinates": [ 121.198449706944444, 31.057256130555555 ] } },
{ "type": "Feature", "properties": { "Name": "东华大学计算机人文外语学院", "Ctype": "高等院校", "Ntype": "141201", "Address": "人民北路２９９９东华大学松江校区学院楼１", "Telephone": null }, "geometry": { "type": "Point", "coordinates": [ 121.21142944722223, 31.055949471666665 ] } },
{ "type": "Feature", "properties": { "Name": "上海外国语大学松江校区一教楼", "Ctype": "高等院校", "Ntype": "141201", "Address": "文翔路１５５０号上海外国语大学松江校区", "Telephone": null }, "geometry": { "type": "Point", "coordinates": [ 121.223258734722222, 31.048039550833334 ] } },
{ "type": "Feature", "properties": { "Name": "上海立信会计金融学院", "Ctype": "高等院校", "Ntype": "141201", "Address": null, "Telephone": null }, "geometry": { "type": "Point", "coordinates": [ 121.198757, 31.048275 ] } },
{ "type": "Feature", "properties": { "Name": "上海视觉艺术学院", "Ctype": "高等院校", "Ntype": "141201", "Address": null, "Telephone": null }, "geometry": { "type": "Point", "coordinates": [ 121.20669, 31.044147 ] } },
{ "type": "Feature", "properties": { "Name": "上海视觉艺术学院", "Ctype": "高等院校", "Ntype": "141201", "Address": "文汇路６９９号", "Telephone": "021-67823034|67823033" }, "geometry": { "type": "Point", "coordinates": [ 121.206768055555557, 31.04685527777778 ] } },
{ "type": "Feature", "properties": { "Name": "上海外国语大学体育教学部", "Ctype": "高等院校", "Ntype": "141201", "Address": null, "Telephone": null }, "geometry": { "type": "Point", "coordinates": [ 121.22392631972221, 31.048767779722219 ] } },
{ "type": "Feature", "properties": { "Name": "上海外国语大学松江校区体育教学部", "Ctype": "高等院校", "Ntype": "141201", "Address": "文翔路１５５０号上海外国语大学松江校区", "Telephone": null }, "geometry": { "type": "Point", "coordinates": [ 121.223494195, 31.047229817777779 ] } },
{ "type": "Feature", "properties": { "Name": "华东政法大学松江校区明志楼", "Ctype": "高等院校", "Ntype": "141201", "Address": "广富林路３１７５华东政法大学松江校区", "Telephone": null }, "geometry": { "type": "Point", "coordinates": [ 121.19167209194444, 31.054279242499998 ] } },
{ "type": "Feature", "properties": { "Name": "松江区行政学院", "Ctype": "高等院校", "Ntype": "141201", "Address": "南青路６９９", "Telephone": null }, "geometry": { "type": "Point", "coordinates": [ 121.225300277777777, 31.033709166666668 ] } },
{ "type": "Feature", "properties": { "Name": "上海外国语大学松江校区学生处", "Ctype": "高等院校", "Ntype": "141201", "Address": "文翔路１５５０号上海外国语大学松江校区", "Telephone": null }, "geometry": { "type": "Point", "coordinates": [ 121.224091254444431, 31.048901095833333 ] } },
{ "type": "Feature", "properties": { "Name": "华东政法大学松江校区", "Ctype": "高等院校", "Ntype": "141201", "Address": "龙源路５５５号", "Telephone": "021-67790220|67790286" }, "geometry": { "type": "Point", "coordinates": [ 121.196127, 31.054761 ] } },
{ "type": "Feature", "properties": { "Name": "松江区社会主义学院", "Ctype": "高等院校", "Ntype": "141201", "Address": "南青路６９９", "Telephone": null }, "geometry": { "type": "Point", "coordinates": [ 121.225300277777777, 31.033709166666668 ] } },
{ "type": "Feature", "properties": { "Name": "上海外国语大学松江校区社科部", "Ctype": "高等院校", "Ntype": "141201", "Address": "文翔路１５５０号上海外国语大学松江校区", "Telephone": null }, "geometry": { "type": "Point", "coordinates": [ 121.223454, 31.047348 ] } },
{ "type": "Feature", "properties": { "Name": "上海立信会计金融学院北碚楼", "Ctype": "高等院校", "Ntype": "141201", "Address": "文翔路２８００", "Telephone": null }, "geometry": { "type": "Point", "coordinates": [ 121.197276746944439, 31.044505750833334 ] } },
{ "type": "Feature", "properties": { "Name": "上海视觉艺术学院德稻大师楼", "Ctype": "高等院校", "Ntype": "141201", "Address": "文汇路６９９", "Telephone": null }, "geometry": { "type": "Point", "coordinates": [ 121.207847493611112, 31.048893229166666 ] } },
{ "type": "Feature", "properties": { "Name": "东华大学松江校区工程训练中心Ａ", "Ctype": "高等院校", "Ntype": "141201", "Address": "人民北路２９９９", "Telephone": null }, "geometry": { "type": "Point", "coordinates": [ 121.211606813611112, 31.059226430555558 ] } },
{ "type": "Feature", "properties": { "Name": "上海工程技术大学松江校区教学楼Ｆ", "Ctype": "高等院校", "Ntype": "141201", "Address": null, "Telephone": null }, "geometry": { "type": "Point", "coordinates": [ 121.206358086388889, 31.055645639166666 ] } },
{ "type": "Feature", "properties": { "Name": "华东政法大学松江校区集英楼", "Ctype": "高等院校", "Ntype": "141201", "Address": "广富林路３１７５华东政法大学松江校区", "Telephone": null }, "geometry": { "type": "Point", "coordinates": [ 121.196048448333329, 31.053364529166668 ] } },
{ "type": "Feature", "properties": { "Name": "华东政法大学松江校区明珠楼", "Ctype": "高等院校", "Ntype": "141201", "Address": "广富林路３１７５", "Telephone": null }, "geometry": { "type": "Point", "coordinates": [ 121.196721462777774, 31.055072157222224 ] } },
{ "type": "Feature", "properties": { "Name": "上海工程技术大学松江校区教学楼Ｄ", "Ctype": "高等院校", "Ntype": "141201", "Address": null, "Telephone": null }, "geometry": { "type": "Point", "coordinates": [ 121.207690298333333, 31.055097672777777 ] } },
{ "type": "Feature", "properties": { "Name": "上海工程技术大学航空飞行实验实训基地", "Ctype": "高等院校", "Ntype": "141201", "Address": "龙腾路３３３号", "Telephone": null }, "geometry": { "type": "Point", "coordinates": [ 121.203867777777774, 31.0579 ] } },
{ "type": "Feature", "properties": { "Name": "立信继续教育学院", "Ctype": "成人教育", "Ntype": "141205", "Address": "松江大学城文汇路９８５号文汇新天地１１８号２０１室", "Telephone": null }, "geometry": { "type": "Point", "coordinates": [ 121.200788031666661, 31.048721245555555 ] } },
{ "type": "Feature", "properties": { "Name": "松江区成人教师进修学校", "Ctype": "成人教育", "Ntype": "141205", "Address": "西林北路４２０", "Telephone": null }, "geometry": { "type": "Point", "coordinates": [ 121.222406529722221, 31.012515899444441 ] } },
{ "type": "Feature", "properties": { "Name": "上海市农业广播电视学校", "Ctype": "成人教育", "Ntype": "141205", "Address": "中山二路６５８上农培训大厦", "Telephone": null }, "geometry": { "type": "Point", "coordinates": [ 121.22096333333333, 31.009084722222223 ] } },
{ "type": "Feature", "properties": { "Name": "上海外国语大学继教院松江分部", "Ctype": "成人教育", "Ntype": "141205", "Address": "文汇路２４２弄２０１室", "Telephone": "021-67799526|67799528" }, "geometry": { "type": "Point", "coordinates": [ 121.217365, 31.04968 ] } },
{ "type": "Feature", "properties": { "Name": "上海电视大学农广校教学点", "Ctype": "成人教育", "Ntype": "141205", "Address": "中山二路６５８上农培训大厦", "Telephone": null }, "geometry": { "type": "Point", "coordinates": [ 121.220974444444437, 31.009086111111113 ] } },
{ "type": "Feature", "properties": { "Name": "求实业余进修学校", "Ctype": "成人教育", "Ntype": "141205", "Address": null, "Telephone": "021-57661219" }, "geometry": { "type": "Point", "coordinates": [ 121.147065972222222, 31.07029541027778 ] } },
{ "type": "Feature", "properties": { "Name": "松江区教师进修学院", "Ctype": "成人教育", "Ntype": "141205", "Address": "方塔北路３１８", "Telephone": "021-57833449" }, "geometry": { "type": "Point", "coordinates": [ 121.248689284166659, 31.010082098611111 ] } },
{ "type": "Feature", "properties": { "Name": "松江区鸿骥进修学校", "Ctype": "成人教育", "Ntype": "141205", "Address": "乐都路４１９号２号楼", "Telephone": "021-67720990" }, "geometry": { "type": "Point", "coordinates": [ 121.220036917222217, 31.013183286944443 ] } },
{ "type": "Feature", "properties": { "Name": "上海松江区新城进修学校", "Ctype": "成人教育", "Ntype": "141205", "Address": "西林北路４２０", "Telephone": null }, "geometry": { "type": "Point", "coordinates": [ 121.222406529722221, 31.012515899444441 ] } },
{ "type": "Feature", "properties": { "Name": "上海市电视中等专业学校松江分校（西林北路）", "Ctype": "职业技术学校", "Ntype": "141206", "Address": "西林北路４２０", "Telephone": null }, "geometry": { "type": "Point", "coordinates": [ 121.222874620277778, 31.012156846666667 ] } },
{ "type": "Feature", "properties": { "Name": "上海市松江行知进修学校（玉树路）", "Ctype": "成人教育", "Ntype": "141205", "Address": "玉树路２４３８弄云城工业园区", "Telephone": null }, "geometry": { "type": "Point", "coordinates": [ 121.209873046944452, 31.00752143 ] } },
{ "type": "Feature", "properties": { "Name": "上海市交通安全教育学校松江分部", "Ctype": "职业技术学校", "Ntype": "141206", "Address": "乐都路４７８", "Telephone": null }, "geometry": { "type": "Point", "coordinates": [ 121.21802653, 31.013914116666665 ] } },
{ "type": "Feature", "properties": { "Name": "海音艺校（龙城路）", "Ctype": "职业技术学校", "Ntype": "141206", "Address": null, "Telephone": null }, "geometry": { "type": "Point", "coordinates": [ 121.212622, 31.047329 ] } },
{ "type": "Feature", "properties": { "Name": "上海外国语大学松江校区英语学院", "Ctype": "高等院校", "Ntype": "141201", "Address": "文翔路１５５０号上海外国语大学松江校区", "Telephone": null }, "geometry": { "type": "Point", "coordinates": [ 121.226918945277788, 31.047087402222221 ] } },
{ "type": "Feature", "properties": { "Name": "长宁科技进修学院松江分部", "Ctype": "成人教育", "Ntype": "141205", "Address": "中山东路２３７", "Telephone": null }, "geometry": { "type": "Point", "coordinates": [ 121.245045844166668, 31.006711425833334 ] } },
{ "type": "Feature", "properties": { "Name": "上海未来技术学校就业管理中心", "Ctype": "高等院校", "Ntype": "141201", "Address": "文诚路３５８弄６号－６１０", "Telephone": null }, "geometry": { "type": "Point", "coordinates": [ 121.218400336388896, 31.0337312825 ] } },
{ "type": "Feature", "properties": { "Name": "上海外国语大学松江校区五教楼", "Ctype": "高等院校", "Ntype": "141201", "Address": "文翔路１５５０号上海外国语大学松江校区", "Telephone": null }, "geometry": { "type": "Point", "coordinates": [ 121.226918945277788, 31.047087402222221 ] } },
{ "type": "Feature", "properties": { "Name": "华东政法大学松江校区汇贤楼", "Ctype": "高等院校", "Ntype": "141201", "Address": "广富林路３１７５华东政法大学松江校区", "Telephone": null }, "geometry": { "type": "Point", "coordinates": [ 121.197254503055561, 31.053495008611112 ] } },
{ "type": "Feature", "properties": { "Name": "上海外国语大学松江校区四教楼", "Ctype": "高等院校", "Ntype": "141201", "Address": "文翔路１５５０号上海外国语大学松江校区", "Telephone": null }, "geometry": { "type": "Point", "coordinates": [ 121.226384277222223, 31.045089518333334 ] } },
{ "type": "Feature", "properties": { "Name": "上海市高校毕业生就业指导中心松江大学园区受理部", "Ctype": "高等院校", "Ntype": "141201", "Address": "文翔路１５５０号上海外国语大学松江校区", "Telephone": null }, "geometry": { "type": "Point", "coordinates": [ 121.224091254444431, 31.048901095833333 ] } },
{ "type": "Feature", "properties": { "Name": "上海外国语大学松江校区学生工作办公室", "Ctype": "高等院校", "Ntype": "141201", "Address": "文翔路１５５０号上海外国语大学松江校区", "Telephone": null }, "geometry": { "type": "Point", "coordinates": [ 121.224091254444431, 31.048901095833333 ] } },
{ "type": "Feature", "properties": { "Name": "东华大学材料科学与工程学院大学生科技创新中心", "Ctype": "高等院校", "Ntype": "141201", "Address": "人民北路２９９９东华大学松江校区", "Telephone": null }, "geometry": { "type": "Point", "coordinates": [ 121.216129014722227, 31.05821994361111 ] } },
{ "type": "Feature", "properties": { "Name": "华东政法大学法学综合实验教学中心", "Ctype": "高等院校", "Ntype": "141201", "Address": "广富林路３１７５华东政法大学松江校区", "Telephone": null }, "geometry": { "type": "Point", "coordinates": [ 121.198449706944444, 31.057256130555555 ] } },
{ "type": "Feature", "properties": { "Name": "上海视觉艺术学院设计设计楼", "Ctype": "高等院校", "Ntype": "141201", "Address": "文汇路６９９", "Telephone": null }, "geometry": { "type": "Point", "coordinates": [ 121.208312716944448, 31.04595974388889 ] } },
{ "type": "Feature", "properties": { "Name": "东华大学松江校区环境学院", "Ctype": "高等院校", "Ntype": "141201", "Address": "人民北路２９９９东华大学松江校区", "Telephone": null }, "geometry": { "type": "Point", "coordinates": [ 121.210827438055546, 31.058750259166668 ] } },
{ "type": "Feature", "properties": { "Name": "上海市松江区老干部大学", "Ctype": "成人教育", "Ntype": "141205", "Address": "荣乐中路６８", "Telephone": null }, "geometry": { "type": "Point", "coordinates": [ 121.233937, 31.01764 ] } },
{ "type": "Feature", "properties": { "Name": "上海外国语大学松江校区日本文化经济学院", "Ctype": "高等院校", "Ntype": "141201", "Address": "文翔路１５５０号上海外国语大学松江校区", "Telephone": null }, "geometry": { "type": "Point", "coordinates": [ 121.225303005555546, 31.049458007777776 ] } },
{ "type": "Feature", "properties": { "Name": "东华大学松江校区纺织学院", "Ctype": "高等院校", "Ntype": "141201", "Address": "人民北路２９９９东华大学松江校区学院楼３", "Telephone": null }, "geometry": { "type": "Point", "coordinates": [ 121.211439501666675, 31.057516077500001 ] } },
{ "type": "Feature", "properties": { "Name": "上海视觉艺术学院实训活动中心", "Ctype": "高等院校", "Ntype": "141201", "Address": "文汇路６９９", "Telephone": null }, "geometry": { "type": "Point", "coordinates": [ 121.209125568611114, 31.048633930277777 ] } },
{ "type": "Feature", "properties": { "Name": "上海市松江区老年大学", "Ctype": "成人教育", "Ntype": "141205", "Address": "荣乐中路６８", "Telephone": null }, "geometry": { "type": "Point", "coordinates": [ 121.23401657, 31.017374703333335 ] } },
{ "type": "Feature", "properties": { "Name": "上海农林职业技术学院继续教育中心", "Ctype": "成人教育", "Ntype": "141205", "Address": "中山二路６３０－６３６", "Telephone": null }, "geometry": { "type": "Point", "coordinates": [ 121.22143062138889, 31.009878496388886 ] } },
{ "type": "Feature", "properties": { "Name": "东华大学松江校区学院楼４", "Ctype": "高等院校", "Ntype": "141201", "Address": "人民北路２９９９东华大学松江校区", "Telephone": null }, "geometry": { "type": "Point", "coordinates": [ 121.211621738055555, 31.058541629722225 ] } },
{ "type": "Feature", "properties": { "Name": "上海工程技术大学松江校区", "Ctype": "高等院校", "Ntype": "141201", "Address": null, "Telephone": null }, "geometry": { "type": "Point", "coordinates": [ 121.204992, 31.056058 ] } },
{ "type": "Feature", "properties": { "Name": "上海工程技术大学松江校区", "Ctype": "高等院校", "Ntype": "141201", "Address": "广富林路２７９３号", "Telephone": "021-67791212" }, "geometry": { "type": "Point", "coordinates": [ 121.20516, 31.0584 ] } },
{ "type": "Feature", "properties": { "Name": "上海立信会计金融学院学验楼", "Ctype": "高等院校", "Ntype": "141201", "Address": "文翔路２８００", "Telephone": null }, "geometry": { "type": "Point", "coordinates": [ 121.198559841666665, 31.045945909166665 ] } },
{ "type": "Feature", "properties": { "Name": "上海外国语大学松江校区新闻传播学院", "Ctype": "高等院校", "Ntype": "141201", "Address": "文翔路１５５０号上海外国语大学松江校区", "Telephone": null }, "geometry": { "type": "Point", "coordinates": [ 121.223258734722222, 31.048039550833334 ] } },
{ "type": "Feature", "properties": { "Name": "上海立信会计金融学院行政楼", "Ctype": "高等院校", "Ntype": "141201", "Address": null, "Telephone": null }, "geometry": { "type": "Point", "coordinates": [ 121.198598904166673, 31.047657063888888 ] } },
{ "type": "Feature", "properties": { "Name": "东华大学材料科学与工程学院", "Ctype": "高等院校", "Ntype": "141201", "Address": "人民北路２９９９东华大学松江校区学院楼５", "Telephone": null }, "geometry": { "type": "Point", "coordinates": [ 121.215929276388891, 31.05806373 ] } },
{ "type": "Feature", "properties": { "Name": "上海视觉艺术学院图文信息中心", "Ctype": "高等院校", "Ntype": "141201", "Address": null, "Telephone": null }, "geometry": { "type": "Point", "coordinates": [ 121.206697423333338, 31.047806953333335 ] } },
{ "type": "Feature", "properties": { "Name": "上海工程技术大学松江校区艺术楼", "Ctype": "高等院校", "Ntype": "141201", "Address": null, "Telephone": null }, "geometry": { "type": "Point", "coordinates": [ 121.20442386500001, 31.053921304166668 ] } },
{ "type": "Feature", "properties": { "Name": "上海外国语大学松江校区学生工作部", "Ctype": "高等院校", "Ntype": "141201", "Address": "文翔路１５５０号上海外国语大学松江校区", "Telephone": null }, "geometry": { "type": "Point", "coordinates": [ 121.224091254444431, 31.048901095833333 ] } },
{ "type": "Feature", "properties": { "Name": "东华大学松江校区工程训练中心Ｂ", "Ctype": "高等院校", "Ntype": "141201", "Address": "人民北路２９９９", "Telephone": null }, "geometry": { "type": "Point", "coordinates": [ 121.210357550555557, 31.059168617777779 ] } },
{ "type": "Feature", "properties": { "Name": "上海工程技术大学预就业工程训练中心", "Ctype": "高等院校", "Ntype": "141201", "Address": null, "Telephone": null }, "geometry": { "type": "Point", "coordinates": [ 121.204749444444445, 31.0581 ] } },
{ "type": "Feature", "properties": { "Name": "上海工程技术大学松江校区教学楼Ａ", "Ctype": "高等院校", "Ntype": "141201", "Address": "龙腾路３３３", "Telephone": null }, "geometry": { "type": "Point", "coordinates": [ 121.207769477222215, 31.054268182222224 ] } },
{ "type": "Feature", "properties": { "Name": "上海对外经贸大学松江校区", "Ctype": "高等院校", "Ntype": "141201", "Address": "人民北路２３３３", "Telephone": null }, "geometry": { "type": "Point", "coordinates": [ 121.216618888888888, 31.048224166666667 ] } },
{ "type": "Feature", "properties": { "Name": "上海视觉艺术学院时尚楼", "Ctype": "高等院校", "Ntype": "141201", "Address": "文汇路６９９", "Telephone": null }, "geometry": { "type": "Point", "coordinates": [ 121.204420030277788, 31.046209852499999 ] } },
{ "type": "Feature", "properties": { "Name": "上海外国语大学松江校区西方语系", "Ctype": "高等院校", "Ntype": "141201", "Address": "文翔路１５５０号上海外国语大学松江校区", "Telephone": null }, "geometry": { "type": "Point", "coordinates": [ 121.223723974444439, 31.045500718055553 ] } },
{ "type": "Feature", "properties": { "Name": "上海对外经贸大学松江校区", "Ctype": "高等院校", "Ntype": "141201", "Address": "文翔路１９００号", "Telephone": "021-67703010|67703238" }, "geometry": { "type": "Point", "coordinates": [ 121.217278796666662, 31.045975867777781 ] } },
{ "type": "Feature", "properties": { "Name": "东华大学松江校区化学化工与生物工程学院", "Ctype": "高等院校", "Ntype": "141201", "Address": "人民北路２９９９东华大学松江校区", "Telephone": null }, "geometry": { "type": "Point", "coordinates": [ 121.210816126944437, 31.05767694861111 ] } },
{ "type": "Feature", "properties": { "Name": "上海外国语大学松江校区法学院", "Ctype": "高等院校", "Ntype": "141201", "Address": "文翔路１５５０号上海外国语大学松江校区", "Telephone": null }, "geometry": { "type": "Point", "coordinates": [ 121.226376953055549, 31.045085991666667 ] } },
{ "type": "Feature", "properties": { "Name": "上海对外经贸大学松江校区博识楼", "Ctype": "高等院校", "Ntype": "141201", "Address": null, "Telephone": null }, "geometry": { "type": "Point", "coordinates": [ 121.218442884166663, 31.047828004722223 ] } },
{ "type": "Feature", "properties": { "Name": "上海工程技术大学松江校区行政楼", "Ctype": "高等院校", "Ntype": "141201", "Address": "龙腾路３３３", "Telephone": null }, "geometry": { "type": "Point", "coordinates": [ 121.208104166666658, 31.057895833333333 ] } },
{ "type": "Feature", "properties": { "Name": "上海立信会计金融学院长乐楼", "Ctype": "高等院校", "Ntype": "141201", "Address": "文翔路２８００", "Telephone": null }, "geometry": { "type": "Point", "coordinates": [ 121.199596082777788, 31.044332139722222 ] } },
{ "type": "Feature", "properties": { "Name": "上海对外经贸大学物流与电子商务系", "Ctype": "高等院校", "Ntype": "141201", "Address": null, "Telephone": null }, "geometry": { "type": "Point", "coordinates": [ 121.21784370305555, 31.047835859722223 ] } },
{ "type": "Feature", "properties": { "Name": "上海对外经贸大学松江校区辅导员办公室（文汇路）", "Ctype": "高等院校", "Ntype": "141201", "Address": "上海对外经贸大学松江校区博萃楼１层", "Telephone": null }, "geometry": { "type": "Point", "coordinates": [ 121.218765882777774, 31.048693942499998 ] } },
{ "type": "Feature", "properties": { "Name": "上海对外经贸大学松江校区辅导员办公室（文达路）", "Ctype": "高等院校", "Ntype": "141201", "Address": "上海对外经贸大学松江校区博识楼１层", "Telephone": null }, "geometry": { "type": "Point", "coordinates": [ 121.218440370833335, 31.047830518333335 ] } },
{ "type": "Feature", "properties": { "Name": "东华大学松江校区信息学院", "Ctype": "高等院校", "Ntype": "141201", "Address": "人民北路２９９９东华大学松江校区学院楼２", "Telephone": null }, "geometry": { "type": "Point", "coordinates": [ 121.211445785555554, 31.056902757222222 ] } },
{ "type": "Feature", "properties": { "Name": "上海市松江老年大学福利院分校", "Ctype": "成人教育", "Ntype": "141205", "Address": "其昌路６００号", "Telephone": "021-57712145" }, "geometry": { "type": "Point", "coordinates": [ 121.222218323333337, 31.024542256111111 ] } },
{ "type": "Feature", "properties": { "Name": "上海蓝鲸学校", "Ctype": "成人教育", "Ntype": "141205", "Address": "乐都路１４３弄８号", "Telephone": "021-57813558" }, "geometry": { "type": "Point", "coordinates": [ 121.237857, 31.013155 ] } },
{ "type": "Feature", "properties": { "Name": "上海电机学院成人教育学院松江教学点", "Ctype": "成人教育", "Ntype": "141205", "Address": "人民北路９２５", "Telephone": null }, "geometry": { "type": "Point", "coordinates": [ 121.222118020000011, 31.02288518472222 ] } },
{ "type": "Feature", "properties": { "Name": "松江区老年大学（西部校区）", "Ctype": "成人教育", "Ntype": "141205", "Address": "西林北路４２０", "Telephone": null }, "geometry": { "type": "Point", "coordinates": [ 121.222406529722221, 31.012515899444441 ] } },
{ "type": "Feature", "properties": { "Name": "上海对外经贸大学松江校区湖滨楼", "Ctype": "高等院校", "Ntype": "141201", "Address": "文翔路１９００号", "Telephone": "021-67703238" }, "geometry": { "type": "Point", "coordinates": [ 121.21423746138889, 31.047924778611112 ] } },
{ "type": "Feature", "properties": { "Name": "上海市农业学校", "Ctype": "职业技术学校", "Ntype": "141206", "Address": "中山二路６５８", "Telephone": null }, "geometry": { "type": "Point", "coordinates": [ 121.220342229166661, 31.009793033888887 ] } },
{ "type": "Feature", "properties": { "Name": "上海海事职业技术学院松江校区", "Ctype": "职业技术学校", "Ntype": "141206", "Address": "西林北路４２０", "Telephone": "021-58312059" }, "geometry": { "type": "Point", "coordinates": [ 121.222874620277778, 31.012156846666667 ] } },
{ "type": "Feature", "properties": { "Name": "上海外国语大学松江校区毕业生就业指导中心", "Ctype": "高等院校", "Ntype": "141201", "Address": "文翔路１５５０号上海外国语大学松江校区", "Telephone": null }, "geometry": { "type": "Point", "coordinates": [ 121.224091254444431, 31.048901095833333 ] } },
{ "type": "Feature", "properties": { "Name": "上海外国语大学体育教育学二级学科硕士点", "Ctype": "高等院校", "Ntype": "141201", "Address": null, "Telephone": null }, "geometry": { "type": "Point", "coordinates": [ 121.22392631972221, 31.048767779722219 ] } },
{ "type": "Feature", "properties": { "Name": "上海对外经贸大学松江校区法学院民商经济法学系", "Ctype": "高等院校", "Ntype": "141201", "Address": null, "Telephone": null }, "geometry": { "type": "Point", "coordinates": [ 121.217696342777785, 31.048551923611107 ] } },
{ "type": "Feature", "properties": { "Name": "东华大学松江校区生物工程系", "Ctype": "高等院校", "Ntype": "141201", "Address": null, "Telephone": null }, "geometry": { "type": "Point", "coordinates": [ 121.210699244166676, 31.058327973055555 ] } },
{ "type": "Feature", "properties": { "Name": "东华大学松江校区Ｂ区", "Ctype": "高等院校", "Ntype": "141201", "Address": "人民北路２９９９东华大学松江校区", "Telephone": null }, "geometry": { "type": "Point", "coordinates": [ 121.215826218611113, 31.058032309722222 ] } },
{ "type": "Feature", "properties": { "Name": "上海工程技术大学松江校区教学楼Ｅ", "Ctype": "高等院校", "Ntype": "141201", "Address": null, "Telephone": null }, "geometry": { "type": "Point", "coordinates": [ 121.2063606, 31.055178108055557 ] } },
{ "type": "Feature", "properties": { "Name": "上海对外经贸大学松江校区法学院国际关系学系", "Ctype": "高等院校", "Ntype": "141201", "Address": null, "Telephone": null }, "geometry": { "type": "Point", "coordinates": [ 121.217700113055557, 31.048548153333336 ] } },
{ "type": "Feature", "properties": { "Name": "上海农林职业技术学院（东门）", "Ctype": "职业技术学校", "Ntype": "141206", "Address": "中山二路６５８", "Telephone": null }, "geometry": { "type": "Point", "coordinates": [ 121.221009592222217, 31.009712598333333 ] } },
{ "type": "Feature", "properties": { "Name": "上海工程技术大学松江校区（东门）", "Ctype": "高等院校", "Ntype": "141201", "Address": "龙腾路３３３", "Telephone": null }, "geometry": { "type": "Point", "coordinates": [ 121.209264, 31.056948 ] } },
{ "type": "Feature", "properties": { "Name": "上海外国语大学松江校区（南门）", "Ctype": "高等院校", "Ntype": "141201", "Address": "文翔路１５５０", "Telephone": null }, "geometry": { "type": "Point", "coordinates": [ 121.225409, 31.042767 ] } },
{ "type": "Feature", "properties": { "Name": "上海对外经贸学院松江校区（北２门）", "Ctype": "高等院校", "Ntype": "141201", "Address": "文汇路１６９", "Telephone": null }, "geometry": { "type": "Point", "coordinates": [ 121.21749348972223, 31.049150390555553 ] } },
{ "type": "Feature", "properties": { "Name": "上海外国语大学松江校区（西门）", "Ctype": "高等院校", "Ntype": "141201", "Address": "人民北路２５００", "Telephone": null }, "geometry": { "type": "Point", "coordinates": [ 121.221776111111097, 31.049376666666664 ] } },
{ "type": "Feature", "properties": { "Name": "上海立信会计金融学院（４号门）", "Ctype": "高等院校", "Ntype": "141201", "Address": "文汇路９９９", "Telephone": null }, "geometry": { "type": "Point", "coordinates": [ 121.199366, 31.049262 ] } },
{ "type": "Feature", "properties": { "Name": "上海对外经贸大学松江校区（西门）", "Ctype": "高等院校", "Ntype": "141201", "Address": null, "Telephone": null }, "geometry": { "type": "Point", "coordinates": [ 121.213421795555561, 31.047609635 ] } },
{ "type": "Feature", "properties": { "Name": "华东政法大学松江校区（西北２门）", "Ctype": "高等院校", "Ntype": "141201", "Address": "广富林路３１７５", "Telephone": null }, "geometry": { "type": "Point", "coordinates": [ 121.195548, 31.057157 ] } },
{ "type": "Feature", "properties": { "Name": "东华大学松江校区（北门）", "Ctype": "高等院校", "Ntype": "141201", "Address": "广富林路２３９９", "Telephone": null }, "geometry": { "type": "Point", "coordinates": [ 121.212249, 31.059707 ] } },
{ "type": "Feature", "properties": { "Name": "上海视觉艺术学院（西２门）", "Ctype": "高等院校", "Ntype": "141201", "Address": "松江大学城文汇路２２００号", "Telephone": null }, "geometry": { "type": "Point", "coordinates": [ 121.201219, 31.046809 ] } },
{ "type": "Feature", "properties": { "Name": "松江区行政学院（北门）", "Ctype": "高等院校", "Ntype": "141201", "Address": "南青路６９９", "Telephone": null }, "geometry": { "type": "Point", "coordinates": [ 121.225223105833336, 31.034154528055556 ] } },
{ "type": "Feature", "properties": { "Name": "上海外国语大学松江校区二教楼", "Ctype": "高等院校", "Ntype": "141201", "Address": "文翔路１５５０号上海外国语大学松江校区", "Telephone": null }, "geometry": { "type": "Point", "coordinates": [ 121.223491482222229, 31.047229817777779 ] } },
{ "type": "Feature", "properties": { "Name": "东华大学松江校区行政楼", "Ctype": "高等院校", "Ntype": "141201", "Address": "人民北路２９９９东华大学松江校区", "Telephone": null }, "geometry": { "type": "Point", "coordinates": [ 121.213299425, 31.057688802222224 ] } },
{ "type": "Feature", "properties": { "Name": "东华大学松江校区图文信息大楼", "Ctype": "高等院校", "Ntype": "141201", "Address": "人民北路２９９９东华大学松江校区", "Telephone": null }, "geometry": { "type": "Point", "coordinates": [ 121.21424138888888, 31.056661136666666 ] } },
{ "type": "Feature", "properties": { "Name": "华东政法大学法学研究与教学实验实训大楼", "Ctype": "高等院校", "Ntype": "141201", "Address": "龙源路５５５号", "Telephone": null }, "geometry": { "type": "Point", "coordinates": [ 121.200163574166666, 31.05765760638889 ] } },
{ "type": "Feature", "properties": { "Name": "松江大学城", "Ctype": "高等院校", "Ntype": "141201", "Address": "文汇路１１２８松江文化创意园", "Telephone": null }, "geometry": { "type": "Point", "coordinates": [ 121.19694091805556, 31.049606391111112 ] } },
{ "type": "Feature", "properties": { "Name": "上海立信会计金融学院云间楼", "Ctype": "高等院校", "Ntype": "141201", "Address": "文翔路２８００", "Telephone": null }, "geometry": { "type": "Point", "coordinates": [ 121.197223036111112, 31.045466308611111 ] } },
{ "type": "Feature", "properties": { "Name": "上海市松江区成人教育集团", "Ctype": "成人教育", "Ntype": "141205", "Address": "西林北路４２０", "Telephone": null }, "geometry": { "type": "Point", "coordinates": [ 121.222874620277778, 31.012156846666667 ] } },
{ "type": "Feature", "properties": { "Name": "东华大学先进低维材料中心", "Ctype": "高等院校", "Ntype": "141201", "Address": null, "Telephone": null }, "geometry": { "type": "Point", "coordinates": [ 121.210322203055554, 31.056707324166666 ] } },
{ "type": "Feature", "properties": { "Name": "上海对外经贸大学松江校区法学院公共管理学系", "Ctype": "高等院校", "Ntype": "141201", "Address": null, "Telephone": null }, "geometry": { "type": "Point", "coordinates": [ 121.217700113055557, 31.048548153333336 ] } },
{ "type": "Feature", "properties": { "Name": "上海视觉艺术学院（北２门）", "Ctype": "高等院校", "Ntype": "141201", "Address": "文汇路６９９", "Telephone": null }, "geometry": { "type": "Point", "coordinates": [ 121.206716, 31.049259 ] } },
{ "type": "Feature", "properties": { "Name": "上海工程技术大学松江校区（北门）", "Ctype": "高等院校", "Ntype": "141201", "Address": "广富林路２７９３号", "Telephone": null }, "geometry": { "type": "Point", "coordinates": [ 121.203368, 31.059765 ] } },
{ "type": "Feature", "properties": { "Name": "上海市松江区老年大学（南门）", "Ctype": "成人教育", "Ntype": "141205", "Address": "荣乐中路６８", "Telephone": null }, "geometry": { "type": "Point", "coordinates": [ 121.23391853916668, 31.017148478611112 ] } },
{ "type": "Feature", "properties": { "Name": "上海农林职业技术学院大学生创业中心", "Ctype": "高等院校", "Ntype": "141201", "Address": "中山二路６３８－６４８", "Telephone": null }, "geometry": { "type": "Point", "coordinates": [ 121.221401638333333, 31.009958224722222 ] } },
{ "type": "Feature", "properties": { "Name": "上海工程技术大学松江校区（西１门）", "Ctype": "高等院校", "Ntype": "141201", "Address": null, "Telephone": null }, "geometry": { "type": "Point", "coordinates": [ 121.201094, 31.055455 ] } },
{ "type": "Feature", "properties": { "Name": "上海视觉艺术学院（北１门）", "Ctype": "高等院校", "Ntype": "141201", "Address": null, "Telephone": null }, "geometry": { "type": "Point", "coordinates": [ 121.2037425, 31.049282222222221 ] } },
{ "type": "Feature", "properties": { "Name": "上海视觉艺术学院（东１门）", "Ctype": "高等院校", "Ntype": "141201", "Address": "文汇路", "Telephone": null }, "geometry": { "type": "Point", "coordinates": [ 121.210916248333334, 31.046798934722222 ] } },
{ "type": "Feature", "properties": { "Name": "九峰文化进修学校（西北门）", "Ctype": "成人教育", "Ntype": "141205", "Address": "袜子弄６号", "Telephone": null }, "geometry": { "type": "Point", "coordinates": [ 121.241441, 31.008975 ] } },
{ "type": "Feature", "properties": { "Name": "上海外国语大学西外外国语学校（南门）", "Ctype": "高等院校", "Ntype": "141201", "Address": "文翔路１１００", "Telephone": null }, "geometry": { "type": "Point", "coordinates": [ 121.233901638333336, 31.042645128055554 ] } },
{ "type": "Feature", "properties": { "Name": "松江区佘山成人中等文化技术学校（东南门）", "Ctype": "成人教育", "Ntype": "141205", "Address": "天宅路１２", "Telephone": null }, "geometry": { "type": "Point", "coordinates": [ 121.147782389444444, 31.074260253888887 ] } },
{ "type": "Feature", "properties": { "Name": "上海对外经贸大学松江校区国际法学系", "Ctype": "高等院校", "Ntype": "141201", "Address": null, "Telephone": null }, "geometry": { "type": "Point", "coordinates": [ 121.217696342777785, 31.048553180555558 ] } },
{ "type": "Feature", "properties": { "Name": "东华大学松江校区Ｃ区", "Ctype": "高等院校", "Ntype": "141201", "Address": "人民北路２９９９东华大学松江校区", "Telephone": null }, "geometry": { "type": "Point", "coordinates": [ 121.215928019722227, 31.05806373 ] } },
{ "type": "Feature", "properties": { "Name": "东华大学辅导员办公室", "Ctype": "高等院校", "Ntype": "141201", "Address": null, "Telephone": null }, "geometry": { "type": "Point", "coordinates": [ 121.21931699138888, 31.050985410277779 ] } },
{ "type": "Feature", "properties": { "Name": "上海对外经贸大学松江校区图文信息大楼（南门）", "Ctype": "高等院校", "Ntype": "141201", "Address": null, "Telephone": null }, "geometry": { "type": "Point", "coordinates": [ 121.216911468611116, 31.046495478333334 ] } },
{ "type": "Feature", "properties": { "Name": "松江区永丰成人学校（东南门）", "Ctype": "成人教育", "Ntype": "141205", "Address": "松汇西路１５１８号", "Telephone": null }, "geometry": { "type": "Point", "coordinates": [ 121.2083802625, 31.00294867611111 ] } },
{ "type": "Feature", "properties": { "Name": "东华大学松江校区（东２门）", "Ctype": "高等院校", "Ntype": "141201", "Address": "人民北路２９９９", "Telephone": null }, "geometry": { "type": "Point", "coordinates": [ 121.221256, 31.056306 ] } },
{ "type": "Feature", "properties": { "Name": "上海开放大学松江分校（北门）", "Ctype": "高等院校", "Ntype": "141201", "Address": "中山二路６２１", "Telephone": null }, "geometry": { "type": "Point", "coordinates": [ 121.221841596388884, 31.009714483611113 ] } },
{ "type": "Feature", "properties": { "Name": "上海视觉艺术学院（西门）", "Ctype": "高等院校", "Ntype": "141201", "Address": null, "Telephone": null }, "geometry": { "type": "Point", "coordinates": [ 121.201228841111117, 31.044758571944442 ] } },
{ "type": "Feature", "properties": { "Name": "上海工程技术大学松江校区艺术设计学院摄影系实验室（３）拍摄间", "Ctype": "高等院校", "Ntype": "141201", "Address": null, "Telephone": null }, "geometry": { "type": "Point", "coordinates": [ 121.204651963888878, 31.054089084166666 ] } },
{ "type": "Feature", "properties": { "Name": "上海对外经贸大学国际经济贸易系", "Ctype": "高等院校", "Ntype": "141201", "Address": null, "Telephone": null }, "geometry": { "type": "Point", "coordinates": [ 121.217842446111106, 31.047833346111112 ] } },
{ "type": "Feature", "properties": { "Name": "上海对外经贸大学经济学系", "Ctype": "高等院校", "Ntype": "141201", "Address": null, "Telephone": null }, "geometry": { "type": "Point", "coordinates": [ 121.21784370305555, 31.047835859722223 ] } },
{ "type": "Feature", "properties": { "Name": "东华大学松江校区Ａ区", "Ctype": "高等院校", "Ntype": "141201", "Address": null, "Telephone": null }, "geometry": { "type": "Point", "coordinates": [ 121.215963210277778, 31.05824848 ] } },
{ "type": "Feature", "properties": { "Name": "东华大学松江校区第二教学楼", "Ctype": "高等院校", "Ntype": "141201", "Address": "人民北路２９９９东华大学松江校区", "Telephone": null }, "geometry": { "type": "Point", "coordinates": [ 121.219052434166656, 31.055267341111112 ] } },
{ "type": "Feature", "properties": { "Name": "上海外国语大学松江校区三教楼", "Ctype": "高等院校", "Ntype": "141201", "Address": "文翔路１５５０号上海外国语大学松江校区", "Telephone": null }, "geometry": { "type": "Point", "coordinates": [ 121.223622504444435, 31.045206163333333 ] } },
{ "type": "Feature", "properties": { "Name": "上外松江校区行政办公楼", "Ctype": "高等院校", "Ntype": "141201", "Address": "文翔路１５５０号上海外国语大学松江校区", "Telephone": null }, "geometry": { "type": "Point", "coordinates": [ 121.226669108055546, 31.043561198055556 ] } },
{ "type": "Feature", "properties": { "Name": "上海外国语大学松江校区俄语系", "Ctype": "高等院校", "Ntype": "141201", "Address": "文翔路１５５０号上海外国语大学松江校区", "Telephone": null }, "geometry": { "type": "Point", "coordinates": [ 121.227012261388879, 31.048129611666667 ] } },
{ "type": "Feature", "properties": { "Name": "天马高尔夫学院", "Ctype": "高等院校", "Ntype": "141201", "Address": "赵昆公路３９５８号", "Telephone": null }, "geometry": { "type": "Point", "coordinates": [ 121.141320349166662, 31.060774734722223 ] } },
{ "type": "Feature", "properties": { "Name": "东华大学松江校区", "Ctype": "高等院校", "Ntype": "141201", "Address": "人民北路２９９９", "Telephone": "021-67792100" }, "geometry": { "type": "Point", "coordinates": [ 121.215653333333336, 31.056831388888888 ] } },
{ "type": "Feature", "properties": { "Name": "上海外国语大学松江校区国际金融贸易学院", "Ctype": "高等院校", "Ntype": "141201", "Address": "文翔路１５５０号上海外国语大学松江校区", "Telephone": null }, "geometry": { "type": "Point", "coordinates": [ 121.223491482222229, 31.047229817777779 ] } },
{ "type": "Feature", "properties": { "Name": "上海工程技术大学大学生创新创业教育实践基地", "Ctype": "高等院校", "Ntype": "141201", "Address": null, "Telephone": null }, "geometry": { "type": "Point", "coordinates": [ 121.20437722222222, 31.0584925 ] } },
{ "type": "Feature", "properties": { "Name": "上海立信会计金融学院吉祥楼", "Ctype": "高等院校", "Ntype": "141201", "Address": "文翔路２８００", "Telephone": null }, "geometry": { "type": "Point", "coordinates": [ 121.197306857777775, 31.044171549444446 ] } },
{ "type": "Feature", "properties": { "Name": "上海开放大学松江分校", "Ctype": "高等院校", "Ntype": "141201", "Address": "中山二路６２１", "Telephone": "021-57824799|57712022" }, "geometry": { "type": "Point", "coordinates": [ 121.221735, 31.009211 ] } },
{ "type": "Feature", "properties": { "Name": "华东政法大学松江校区缘法厅", "Ctype": "高等院校", "Ntype": "141201", "Address": "广富林路３１７５华东政法大学松江校区", "Telephone": null }, "geometry": { "type": "Point", "coordinates": [ 121.19898111972222, 31.056534288333335 ] } },
{ "type": "Feature", "properties": { "Name": "上海工程技术大学松江校区现代工业工程训练中心", "Ctype": "高等院校", "Ntype": "141201", "Address": null, "Telephone": null }, "geometry": { "type": "Point", "coordinates": [ 121.205909166666657, 31.057738611111109 ] } },
{ "type": "Feature", "properties": { "Name": "上海外国语大学松江校区东方语学院", "Ctype": "高等院校", "Ntype": "141201", "Address": "文翔路１５５０号上海外国语大学松江校区", "Telephone": "021-67701068" }, "geometry": { "type": "Point", "coordinates": [ 121.226511230555559, 31.048773871666668 ] } },
{ "type": "Feature", "properties": { "Name": "上海外国语大学松江校区国际经济贸易管理学院", "Ctype": "高等院校", "Ntype": "141201", "Address": "文翔路１５５０号上海外国语大学松江校区", "Telephone": null }, "geometry": { "type": "Point", "coordinates": [ 121.223494195, 31.047229817777779 ] } },
{ "type": "Feature", "properties": { "Name": "华东政法大学松江校区明镜楼", "Ctype": "高等院校", "Ntype": "141201", "Address": "广富林路３１７５华东政法大学松江校区", "Telephone": null }, "geometry": { "type": "Point", "coordinates": [ 121.198987630277784, 31.056144476944443 ] } },
{ "type": "Feature", "properties": { "Name": "上海外国语大学松江校区", "Ctype": "高等院校", "Ntype": "141201", "Address": null, "Telephone": null }, "geometry": { "type": "Point", "coordinates": [ 121.225666, 31.046388 ] } },
{ "type": "Feature", "properties": { "Name": "上海外国语大学松江校区", "Ctype": "高等院校", "Ntype": "141201", "Address": "文翔路１５５０", "Telephone": null }, "geometry": { "type": "Point", "coordinates": [ 121.225600555555559, 31.046095833333336 ] } },
{ "type": "Feature", "properties": { "Name": "上海市松江区诚信进修学校", "Ctype": "成人教育", "Ntype": "141205", "Address": "松乐路１５２号", "Telephone": "021-37717629" }, "geometry": { "type": "Point", "coordinates": [ 121.237877222222224, 31.010821944444444 ] } },
{ "type": "Feature", "properties": { "Name": "上海市松江区科技教育进修学校", "Ctype": "成人教育", "Ntype": "141205", "Address": "仓丰路８－１０", "Telephone": null }, "geometry": { "type": "Point", "coordinates": [ 121.214401716666671, 31.010477934444445 ] } },
{ "type": "Feature", "properties": { "Name": "九峰文化进修学校", "Ctype": "成人教育", "Ntype": "141205", "Address": "袜子弄６号", "Telephone": null }, "geometry": { "type": "Point", "coordinates": [ 121.241498951944436, 31.008955059722222 ] } },
{ "type": "Feature", "properties": { "Name": "松江区方松街道老年学校", "Ctype": "成人教育", "Ntype": "141205", "Address": "南期昌路４５８弄９５", "Telephone": null }, "geometry": { "type": "Point", "coordinates": [ 121.226718478611119, 31.026254340277777 ] } },
{ "type": "Feature", "properties": { "Name": "东权艺校", "Ctype": "职业技术学校", "Ntype": "141206", "Address": null, "Telephone": null }, "geometry": { "type": "Point", "coordinates": [ 121.217661, 31.017414 ] } },
{ "type": "Feature", "properties": { "Name": "东华大学松江校区学院楼２", "Ctype": "高等院校", "Ntype": "141201", "Address": "人民北路２９９９东华大学松江校区", "Telephone": null }, "geometry": { "type": "Point", "coordinates": [ 121.211445785555554, 31.056902757222222 ] } },
{ "type": "Feature", "properties": { "Name": "上海外国语大学松江校区八教楼", "Ctype": "高等院校", "Ntype": "141201", "Address": "文翔路１５５０号上海外国语大学松江校区", "Telephone": null }, "geometry": { "type": "Point", "coordinates": [ 121.22530273444444, 31.049455295277777 ] } },
{ "type": "Feature", "properties": { "Name": "华东政法大学松江校区励勤楼", "Ctype": "高等院校", "Ntype": "141201", "Address": "广富林路３１７５华东政法大学松江校区", "Telephone": null }, "geometry": { "type": "Point", "coordinates": [ 121.19808431, 31.057908257499999 ] } },
{ "type": "Feature", "properties": { "Name": "上海立信会计金融学院徐汇楼", "Ctype": "高等院校", "Ntype": "141201", "Address": "文翔路２８００", "Telephone": null }, "geometry": { "type": "Point", "coordinates": [ 121.197215983055557, 31.044974229722222 ] } },
{ "type": "Feature", "properties": { "Name": "上海立信会计金融学院", "Ctype": "高等院校", "Ntype": "141201", "Address": "文翔路２８００号", "Telephone": "021-67705105|64480687" }, "geometry": { "type": "Point", "coordinates": [ 121.198331445555553, 31.046420471666668 ] } },
{ "type": "Feature", "properties": { "Name": "上海市化学工程与工艺本科教育高地化学工程与工艺训练中心", "Ctype": "高等院校", "Ntype": "141201", "Address": "龙腾路３３３", "Telephone": null }, "geometry": { "type": "Point", "coordinates": [ 121.206965122499994, 31.059003819166666 ] } },
{ "type": "Feature", "properties": { "Name": "上海市松江区社区学院", "Ctype": "高等院校", "Ntype": "141201", "Address": "中山二路６２１", "Telephone": null }, "geometry": { "type": "Point", "coordinates": [ 121.221948055555544, 31.009502777777779 ] } },
{ "type": "Feature", "properties": { "Name": "上海外国语大学松江校区图文信息中心", "Ctype": "高等院校", "Ntype": "141201", "Address": "文翔路１５５０号上海外国语大学松江校区", "Telephone": "021-67701159" }, "geometry": { "type": "Point", "coordinates": [ 121.225337456666665, 31.047126464722222 ] } },
{ "type": "Feature", "properties": { "Name": "松江区社区学院", "Ctype": "高等院校", "Ntype": "141201", "Address": "西林北路４２０", "Telephone": null }, "geometry": { "type": "Point", "coordinates": [ 121.222406529722221, 31.012515899444441 ] } },
{ "type": "Feature", "properties": { "Name": "东华大学松江校区国家眼镜玻搪质检中心", "Ctype": "高等院校", "Ntype": "141201", "Address": "人民北路２９９９东华大学松江校区学院楼５", "Telephone": null }, "geometry": { "type": "Point", "coordinates": [ 121.216496095000011, 31.057435328055558 ] } },
{ "type": "Feature", "properties": { "Name": "上海第二工业大学松江教学点", "Ctype": "高等院校", "Ntype": "141201", "Address": "乐都路６７０", "Telephone": null }, "geometry": { "type": "Point", "coordinates": [ 121.209497425277775, 31.013644980555554 ] } },
{ "type": "Feature", "properties": { "Name": "上海工程技术大学松江校区艺术设计学习工场时尚创意中心", "Ctype": "高等院校", "Ntype": "141201", "Address": null, "Telephone": null }, "geometry": { "type": "Point", "coordinates": [ 121.208308646111107, 31.054514515555557 ] } },
{ "type": "Feature", "properties": { "Name": "上海视觉艺术学院逸飞楼", "Ctype": "高等院校", "Ntype": "141201", "Address": "文汇路６９９", "Telephone": null }, "geometry": { "type": "Point", "coordinates": [ 121.20428436, 31.047030248333332 ] } },
{ "type": "Feature", "properties": { "Name": "上海市农业广播电视学校松江分校", "Ctype": "成人教育", "Ntype": "141205", "Address": "西林北路４２０", "Telephone": null }, "geometry": { "type": "Point", "coordinates": [ 121.222406529722221, 31.012515899444441 ] } },
{ "type": "Feature", "properties": { "Name": "松江区佘山成人中等文化技术学校", "Ctype": "成人教育", "Ntype": "141205", "Address": "天宅路１２", "Telephone": null }, "geometry": { "type": "Point", "coordinates": [ 121.147521972777781, 31.074431152222221 ] } },
{ "type": "Feature", "properties": { "Name": "松江区永丰成人学校", "Ctype": "成人教育", "Ntype": "141205", "Address": "松汇西路１５１８号", "Telephone": null }, "geometry": { "type": "Point", "coordinates": [ 121.208333604722213, 31.003320855 ] } },
{ "type": "Feature", "properties": { "Name": "盈星艺校", "Ctype": "职业技术学校", "Ntype": "141206", "Address": "谷阳北路１４２５弄－３０", "Telephone": "021-57627336" }, "geometry": { "type": "Point", "coordinates": [ 121.234398, 31.032571 ] } },
{ "type": "Feature", "properties": { "Name": "上海农林职业技术学院", "Ctype": "职业技术学校", "Ntype": "141206", "Address": "中山二路６５８", "Telephone": "021-57822666" }, "geometry": { "type": "Point", "coordinates": [ 121.220342229166661, 31.009793033888887 ] } },
{ "type": "Feature", "properties": { "Name": "华东政法大学松江校区崇法楼", "Ctype": "高等院校", "Ntype": "141201", "Address": null, "Telephone": null }, "geometry": { "type": "Point", "coordinates": [ 121.198821071944451, 31.053705783333331 ] } },
{ "type": "Feature", "properties": { "Name": "东华大学松江校区综合实验楼ａ", "Ctype": "高等院校", "Ntype": "141201", "Address": null, "Telephone": null }, "geometry": { "type": "Point", "coordinates": [ 121.217892404166662, 31.057983294444444 ] } },
{ "type": "Feature", "properties": { "Name": "东华大学松江校区综合实验楼ｂ", "Ctype": "高等院校", "Ntype": "141201", "Address": "人民北路２９９９东华大学松江校区", "Telephone": null }, "geometry": { "type": "Point", "coordinates": [ 121.217414818611104, 31.057985808055555 ] } },
{ "type": "Feature", "properties": { "Name": "同济大学医学院康复治疗学系", "Ctype": "高等院校", "Ntype": "141201", "Address": null, "Telephone": null }, "geometry": { "type": "Point", "coordinates": [ 121.242822, 31.065352 ] } },
{ "type": "Feature", "properties": { "Name": "华东政法大学综合教学中心虚拟现场勘查实验教学平台", "Ctype": "高等院校", "Ntype": "141201", "Address": "广富林路３１７５华东政法大学松江校区", "Telephone": null }, "geometry": { "type": "Point", "coordinates": [ 121.198449706944444, 31.057256130555555 ] } },
{ "type": "Feature", "properties": { "Name": "上海立信会计金融学院育才楼", "Ctype": "高等院校", "Ntype": "141201", "Address": "文翔路２８００", "Telephone": null }, "geometry": { "type": "Point", "coordinates": [ 121.199643825833334, 31.045565321111109 ] } },
{ "type": "Feature", "properties": { "Name": "上海外国语大学松江校区六教楼", "Ctype": "高等院校", "Ntype": "141201", "Address": "文翔路１５５０号上海外国语大学松江校区", "Telephone": null }, "geometry": { "type": "Point", "coordinates": [ 121.227010091111126, 31.048123372500001 ] } },
{ "type": "Feature", "properties": { "Name": "东华大学松江校区理学院", "Ctype": "高等院校", "Ntype": "141201", "Address": "人民北路２９９９东华大学松江校区", "Telephone": null }, "geometry": { "type": "Point", "coordinates": [ 121.211086339722229, 31.056707324166666 ] } },
{ "type": "Feature", "properties": { "Name": "上海工程技术大学松江校区图文信息中心", "Ctype": "高等院校", "Ntype": "141201", "Address": null, "Telephone": null }, "geometry": { "type": "Point", "coordinates": [ 121.204676388888899, 31.05736 ] } },
{ "type": "Feature", "properties": { "Name": "上海外国语大学松江校区学生会", "Ctype": "高等院校", "Ntype": "141201", "Address": "文翔路１５５０号上海外国语大学松江校区", "Telephone": null }, "geometry": { "type": "Point", "coordinates": [ 121.224091254444431, 31.048901095833333 ] } },
{ "type": "Feature", "properties": { "Name": "上海对外经贸大学学生综合楼", "Ctype": "高等院校", "Ntype": "141201", "Address": "文汇路３００弄３２", "Telephone": null }, "geometry": { "type": "Point", "coordinates": [ 121.214268017500004, 31.052015203888889 ] } },
{ "type": "Feature", "properties": { "Name": "上海对外经贸大学松江校区博雅楼", "Ctype": "高等院校", "Ntype": "141201", "Address": null, "Telephone": null }, "geometry": { "type": "Point", "coordinates": [ 121.219023370555561, 31.04827856888889 ] } },
{ "type": "Feature", "properties": { "Name": "上海外国语大学松江校区国际文化交流学院", "Ctype": "高等院校", "Ntype": "141201", "Address": "文翔路１５５０号上海外国语大学松江校区", "Telephone": null }, "geometry": { "type": "Point", "coordinates": [ 121.22333, 31.047327 ] } },
{ "type": "Feature", "properties": { "Name": "东华大学松江校区化学实验楼", "Ctype": "高等院校", "Ntype": "141201", "Address": "人民北路２９９９东华大学松江校区", "Telephone": null }, "geometry": { "type": "Point", "coordinates": [ 121.217638529722223, 31.058659455 ] } },
{ "type": "Feature", "properties": { "Name": "东华大学松江校区第一教学楼", "Ctype": "高等院校", "Ntype": "141201", "Address": "人民北路２９９９东华大学松江校区", "Telephone": null }, "geometry": { "type": "Point", "coordinates": [ 121.219552642222226, 31.055918365555556 ] } },
{ "type": "Feature", "properties": { "Name": "东华大学松江校区测试中心", "Ctype": "高等院校", "Ntype": "141201", "Address": "人民北路２９９９东华大学松江校区", "Telephone": null }, "geometry": { "type": "Point", "coordinates": [ 121.215826218611113, 31.058031053055558 ] } },
{ "type": "Feature", "properties": { "Name": "上海外国语大学松江校区国际教育学院", "Ctype": "高等院校", "Ntype": "141201", "Address": "文翔路１５５０号上海外国语大学松江校区", "Telephone": null }, "geometry": { "type": "Point", "coordinates": [ 121.223258734722222, 31.048039550833334 ] } },
{ "type": "Feature", "properties": { "Name": "上海松江区向上进修学校", "Ctype": "成人教育", "Ntype": "141205", "Address": "谷阳北路１６６号上海大江商厦", "Telephone": null }, "geometry": { "type": "Point", "coordinates": [ 121.236569281666661, 31.016525065 ] } },
{ "type": "Feature", "properties": { "Name": "松江区职工业余中学", "Ctype": "成人教育", "Ntype": "141205", "Address": "西林北路４２０", "Telephone": null }, "geometry": { "type": "Point", "coordinates": [ 121.222874620277778, 31.012156846666667 ] } },
{ "type": "Feature", "properties": { "Name": "上海理工大学松江教学站", "Ctype": "成人教育", "Ntype": "141205", "Address": null, "Telephone": "021-67765768" }, "geometry": { "type": "Point", "coordinates": [ 121.237869616666671, 31.010864773333335 ] } },
{ "type": "Feature", "properties": { "Name": "东华大学松江教学点", "Ctype": "成人教育", "Ntype": "141205", "Address": "松乐路１５２号１０２室", "Telephone": null }, "geometry": { "type": "Point", "coordinates": [ 121.237876111111106, 31.010781944444446 ] } },
{ "type": "Feature", "properties": { "Name": "同舟职校", "Ctype": "职业技术学校", "Ntype": "141206", "Address": null, "Telephone": null }, "geometry": { "type": "Point", "coordinates": [ 121.25344880083334, 31.033053725 ] } },
{ "type": "Feature", "properties": { "Name": "上海天佳科技专修学校", "Ctype": "职业技术学校", "Ntype": "141206", "Address": "中山东路２３７", "Telephone": null }, "geometry": { "type": "Point", "coordinates": [ 121.245045844166668, 31.006711425833334 ] } },
{ "type": "Feature", "properties": { "Name": "松江少体校", "Ctype": "职业技术学校", "Ntype": "141206", "Address": null, "Telephone": null }, "geometry": { "type": "Point", "coordinates": [ 121.23309, 31.015116 ] } },
{ "type": "Feature", "properties": { "Name": "松江区农村劳动力职业教育公共实训中心", "Ctype": "职业技术学校", "Ntype": "141206", "Address": "中山二路５９０", "Telephone": null }, "geometry": { "type": "Point", "coordinates": [ 121.223024868888899, 31.010238515833336 ] } },
{ "type": "Feature", "properties": { "Name": "上海市电视中等专业学校松江分校（中山二路）", "Ctype": "职业技术学校", "Ntype": "141206", "Address": "中山二路６２１", "Telephone": null }, "geometry": { "type": "Point", "coordinates": [ 121.221946388888881, 31.0095025 ] } },
{ "type": "Feature", "properties": { "Name": "上海市松江区大语文业余学校", "Ctype": "成人教育", "Ntype": "141205", "Address": "松汇中路４０１弄１３", "Telephone": null }, "geometry": { "type": "Point", "coordinates": [ 121.237761773055553, 31.001653917222225 ] } },
{ "type": "Feature", "properties": { "Name": "立佳继续教育学院", "Ctype": "成人教育", "Ntype": "141205", "Address": null, "Telephone": null }, "geometry": { "type": "Point", "coordinates": [ 121.200632, 31.048693 ] } },
{ "type": "Feature", "properties": { "Name": "上海市青浦区卫生学校（西北门）", "Ctype": "职业技术学校", "Ntype": "141206", "Address": "华科路５５０弄", "Telephone": null }, "geometry": { "type": "Point", "coordinates": [ 121.136560852777777, 31.157537245833332 ] } },
{ "type": "Feature", "properties": { "Name": "上海工商信息学校（西北门）", "Ctype": "职业技术学校", "Ntype": "141206", "Address": "公园东路２０２５号", "Telephone": null }, "geometry": { "type": "Point", "coordinates": [ 121.13102093972222, 31.151984450555553 ] } },
{ "type": "Feature", "properties": { "Name": "上海政法学院（东南２门）", "Ctype": "高等院校", "Ntype": "141201", "Address": "外青松公路７９８９号", "Telephone": null }, "geometry": { "type": "Point", "coordinates": [ 121.172577161111107, 31.109007648055552 ] } },
{ "type": "Feature", "properties": { "Name": "赵巷成人学校", "Ctype": "成人教育", "Ntype": "141205", "Address": "镇中路１１", "Telephone": "021-59754332" }, "geometry": { "type": "Point", "coordinates": [ 121.206846354722217, 31.155006042777778 ] } },
{ "type": "Feature", "properties": { "Name": "赵巷成人学校（西北门）", "Ctype": "成人教育", "Ntype": "141205", "Address": "镇中路１１", "Telephone": null }, "geometry": { "type": "Point", "coordinates": [ 121.206824988888883, 31.155124182222224 ] } },
{ "type": "Feature", "properties": { "Name": "上海市青浦新时代进行学院", "Ctype": "高等院校", "Ntype": "141201", "Address": null, "Telephone": "021-59729920" }, "geometry": { "type": "Point", "coordinates": [ 121.14152, 31.158607 ] } },
{ "type": "Feature", "properties": { "Name": "上海市青浦新时代进修学校（华科路）", "Ctype": "成人教育", "Ntype": "141205", "Address": "华科路７７７－７９３", "Telephone": "021-59729920|59739641" }, "geometry": { "type": "Point", "coordinates": [ 121.141192568055558, 31.15855203638889 ] } },
{ "type": "Feature", "properties": { "Name": "新凯二村社区远程老年大学收视点", "Ctype": "成人教育", "Ntype": "141205", "Address": "新家园路２４－２６", "Telephone": null }, "geometry": { "type": "Point", "coordinates": [ 121.237022569444449, 31.10488362638889 ] } },
{ "type": "Feature", "properties": { "Name": "上海远程老年大学合格学习收视点（新凯家园东）", "Ctype": "成人教育", "Ntype": "141205", "Address": "新家园路１７６弄４７", "Telephone": null }, "geometry": { "type": "Point", "coordinates": [ 121.238010378611122, 31.107199107222222 ] } },
{ "type": "Feature", "properties": { "Name": "青浦区赵巷镇老年学校方夏村分校", "Ctype": "成人教育", "Ntype": "141205", "Address": null, "Telephone": null }, "geometry": { "type": "Point", "coordinates": [ 121.215246356666654, 31.1491411 ] } },
{ "type": "Feature", "properties": { "Name": "上海工商信息学校", "Ctype": "职业技术学校", "Ntype": "141206", "Address": "公园东路２０２５号", "Telephone": "021-59710101" }, "geometry": { "type": "Point", "coordinates": [ 121.131171991944441, 31.151794594444443 ] } },
{ "type": "Feature", "properties": { "Name": "上影演艺学校", "Ctype": "职业技术学校", "Ntype": "141206", "Address": null, "Telephone": null }, "geometry": { "type": "Point", "coordinates": [ 121.206876627500009, 31.155005696666667 ] } },
{ "type": "Feature", "properties": { "Name": "塘桥社区远程老年大学收视点", "Ctype": "成人教育", "Ntype": "141205", "Address": "王家厍路８８５弄７", "Telephone": null }, "geometry": { "type": "Point", "coordinates": [ 121.231726888055547, 31.090377332777777 ] } },
{ "type": "Feature", "properties": { "Name": "赵巷镇老年学校", "Ctype": "成人教育", "Ntype": "141205", "Address": "镇中路１１", "Telephone": null }, "geometry": { "type": "Point", "coordinates": [ 121.206848868333324, 31.155007299444446 ] } },
{ "type": "Feature", "properties": { "Name": "上海政法学院继续教育青浦教学站", "Ctype": "成人教育", "Ntype": "141205", "Address": "华科路７７７－７９３", "Telephone": "021-59729920|59739641" }, "geometry": { "type": "Point", "coordinates": [ 121.141192568055558, 31.15855203638889 ] } },
{ "type": "Feature", "properties": { "Name": "上海市青浦区卫生学校", "Ctype": "职业技术学校", "Ntype": "141206", "Address": "华科路５５０弄", "Telephone": null }, "geometry": { "type": "Point", "coordinates": [ 121.136911349722226, 31.157141384444444 ] } },
{ "type": "Feature", "properties": { "Name": "青浦区赵巷镇老年学校方夏村分校（东门）", "Ctype": "成人教育", "Ntype": "141205", "Address": null, "Telephone": null }, "geometry": { "type": "Point", "coordinates": [ 121.215480750555542, 31.149171891666665 ] } },
{ "type": "Feature", "properties": { "Name": "上海政法学院（东门）", "Ctype": "高等院校", "Ntype": "141201", "Address": "泗陈公路５４８８", "Telephone": null }, "geometry": { "type": "Point", "coordinates": [ 121.175740615, 31.108684806388887 ] } },
{ "type": "Feature", "properties": { "Name": "上海行政学院第二分院", "Ctype": "高等院校", "Ntype": "141201", "Address": "外青松公路７９８９号", "Telephone": null }, "geometry": { "type": "Point", "coordinates": [ 121.17285090861111, 31.108926505555559 ] } },
{ "type": "Feature", "properties": { "Name": "上海海事大学继续教育学院青浦教学站", "Ctype": "成人教育", "Ntype": "141205", "Address": "华科路７７７－７９３", "Telephone": "021-59729920|59739641" }, "geometry": { "type": "Point", "coordinates": [ 121.141192568055558, 31.15855203638889 ] } },
{ "type": "Feature", "properties": { "Name": "上海政法学院", "Ctype": "高等院校", "Ntype": "141201", "Address": "外青松公路７９８９号", "Telephone": "021-39225177|39225065|39225000" }, "geometry": { "type": "Point", "coordinates": [ 121.175525833333324, 31.11161 ] } },
{ "type": "Feature", "properties": { "Name": "青浦区华新成人中等文化技术学校", "Ctype": "成人教育", "Ntype": "141205", "Address": "新府中路１８６８", "Telephone": null }, "geometry": { "type": "Point", "coordinates": [ 121.230406243611114, 31.243200057499998 ] } },
{ "type": "Feature", "properties": { "Name": "青浦区华新成人中等文化技术学校（西北门）", "Ctype": "成人教育", "Ntype": "141205", "Address": "新府中路１８６８", "Telephone": null }, "geometry": { "type": "Point", "coordinates": [ 121.229996, 31.243158 ] } },
{ "type": "Feature", "properties": { "Name": "华新镇老年学校杨家庄村分校", "Ctype": "成人教育", "Ntype": "141205", "Address": "嘉松中路４１８８弄１９０号", "Telephone": null }, "geometry": { "type": "Point", "coordinates": [ 121.217947703611117, 31.188653511111109 ] } },
{ "type": "Feature", "properties": { "Name": "求实电脑进修学校", "Ctype": "成人教育", "Ntype": "141205", "Address": "凤溪镇凤中路１４４号", "Telephone": null }, "geometry": { "type": "Point", "coordinates": [ 121.229773491666663, 31.19810492611111 ] } },
{ "type": "Feature", "properties": { "Name": "重固成人学校", "Ctype": "成人教育", "Ntype": "141205", "Address": "重固镇大街９９９", "Telephone": null }, "geometry": { "type": "Point", "coordinates": [ 121.180029615555554, 31.201400487777779 ] } },
{ "type": "Feature", "properties": { "Name": "青浦区华新镇老年学校嵩山村分校", "Ctype": "成人教育", "Ntype": "141205", "Address": "北青公路３４８８", "Telephone": null }, "geometry": { "type": "Point", "coordinates": [ 121.251958550277777, 31.202292751666665 ] } },
{ "type": "Feature", "properties": { "Name": "朋联商学院", "Ctype": "高等院校", "Ntype": "141201", "Address": null, "Telephone": null }, "geometry": { "type": "Point", "coordinates": [ 121.232779246388887, 31.20224553111111 ] } },
{ "type": "Feature", "properties": { "Name": "中国美术学院雕塑创作中心", "Ctype": "高等院校", "Ntype": "141201", "Address": null, "Telephone": null }, "geometry": { "type": "Point", "coordinates": [ 121.174539581666664, 31.166849534444445 ] } },
{ "type": "Feature", "properties": { "Name": "上海新闻出版职业技术学校（南门）", "Ctype": "职业技术学校", "Ntype": "141206", "Address": null, "Telephone": null }, "geometry": { "type": "Point", "coordinates": [ 121.135687391388899, 31.19171875 ] } },
{ "type": "Feature", "properties": { "Name": "重固成人学校（东北门）", "Ctype": "成人教育", "Ntype": "141205", "Address": "重固镇大街９９９", "Telephone": null }, "geometry": { "type": "Point", "coordinates": [ 121.180087428333337, 31.201404258055554 ] } },
{ "type": "Feature", "properties": { "Name": "上海新闻出版职业技术学校", "Ctype": "职业技术学校", "Ntype": "141206", "Address": "香花桥街道向阳河路８８９号", "Telephone": null }, "geometry": { "type": "Point", "coordinates": [ 121.135539279444444, 31.19197536888889 ] } },
{ "type": "Feature", "properties": { "Name": "安亭成校教学点（东门）", "Ctype": "成人教育", "Ntype": "141205", "Address": "塔山路１２５６", "Telephone": null }, "geometry": { "type": "Point", "coordinates": [ 121.178034444444449, 31.30166361111111 ] } },
{ "type": "Feature", "properties": { "Name": "青浦区白鹤成人中等文化技术学校（西南门）", "Ctype": "成人教育", "Ntype": "141205", "Address": "外青松公路２６９９", "Telephone": null }, "geometry": { "type": "Point", "coordinates": [ 121.14390561499999, 31.2605298125 ] } },
{ "type": "Feature", "properties": { "Name": "安亭镇成人中等文化技术学校（东北门）", "Ctype": "成人教育", "Ntype": "141205", "Address": "于塘路８８５", "Telephone": null }, "geometry": { "type": "Point", "coordinates": [ 121.187896265277786, 31.312180054444447 ] } },
{ "type": "Feature", "properties": { "Name": "同济嘉宝学生公寓（北门）", "Ctype": "高等院校", "Ntype": "141201", "Address": null, "Telephone": null }, "geometry": { "type": "Point", "coordinates": [ 121.217667914444448, 31.286886935833333 ] } },
{ "type": "Feature", "properties": { "Name": "同济大学嘉定校区铁道与城市轨道工程系", "Ctype": "高等院校", "Ntype": "141201", "Address": null, "Telephone": "021-69589712" }, "geometry": { "type": "Point", "coordinates": [ 121.213324, 31.288506 ] } },
{ "type": "Feature", "properties": { "Name": "同济大学嘉定校区体育教学部", "Ctype": "高等院校", "Ntype": "141201", "Address": null, "Telephone": null }, "geometry": { "type": "Point", "coordinates": [ 121.215232, 31.289132 ] } },
{ "type": "Feature", "properties": { "Name": "同济大学嘉定校区指挥部", "Ctype": "高等院校", "Ntype": "141201", "Address": null, "Telephone": null }, "geometry": { "type": "Point", "coordinates": [ 121.220155, 31.281237 ] } },
{ "type": "Feature", "properties": { "Name": "同济大学嘉定校区电气工程系", "Ctype": "高等院校", "Ntype": "141201", "Address": null, "Telephone": "021-69589712" }, "geometry": { "type": "Point", "coordinates": [ 121.212343, 31.287706 ] } },
{ "type": "Feature", "properties": { "Name": "同济大学嘉定校区控制科学与工程系", "Ctype": "高等院校", "Ntype": "141201", "Address": null, "Telephone": "021-69589712" }, "geometry": { "type": "Point", "coordinates": [ 121.21229, 31.28762 ] } },
{ "type": "Feature", "properties": { "Name": "同济大学交通运输学院运输管理工程系", "Ctype": "高等院校", "Ntype": "141201", "Address": null, "Telephone": null }, "geometry": { "type": "Point", "coordinates": [ 121.213295, 31.288417 ] } },
{ "type": "Feature", "properties": { "Name": "上海大众汽车大学联合学院", "Ctype": "高等院校", "Ntype": "141201", "Address": null, "Telephone": null }, "geometry": { "type": "Point", "coordinates": [ 121.16877, 31.29759 ] } },
{ "type": "Feature", "properties": { "Name": "斯凯孚大学中国分校", "Ctype": "高等院校", "Ntype": "141201", "Address": "园汽路１１８９号斯凯孚嘉定园区", "Telephone": null }, "geometry": { "type": "Point", "coordinates": [ 121.202204589722228, 31.328717176666668 ] } },
{ "type": "Feature", "properties": { "Name": "同济大学软件学院", "Ctype": "高等院校", "Ntype": "141201", "Address": null, "Telephone": null }, "geometry": { "type": "Point", "coordinates": [ 121.21367834083334, 31.282080229166663 ] } },
{ "type": "Feature", "properties": { "Name": "同济大学嘉定校区惟新馆", "Ctype": "高等院校", "Ntype": "141201", "Address": null, "Telephone": null }, "geometry": { "type": "Point", "coordinates": [ 121.209672580277768, 31.285505642500002 ] } },
{ "type": "Feature", "properties": { "Name": "同济大学嘉定校区宁远馆", "Ctype": "高等院校", "Ntype": "141201", "Address": null, "Telephone": null }, "geometry": { "type": "Point", "coordinates": [ 121.211124515277774, 31.288972541666666 ] } },
{ "type": "Feature", "properties": { "Name": "同济大学嘉定校区电子与信息工程学院", "Ctype": "高等院校", "Ntype": "141201", "Address": "曹安公路４８００号同济大学嘉定校区", "Telephone": "021-69589712" }, "geometry": { "type": "Point", "coordinates": [ 121.212248835833336, 31.287725728611111 ] } },
{ "type": "Feature", "properties": { "Name": "同济大学中德工程学院", "Ctype": "高等院校", "Ntype": "141201", "Address": null, "Telephone": null }, "geometry": { "type": "Point", "coordinates": [ 121.21367834083334, 31.282080229166663 ] } },
{ "type": "Feature", "properties": { "Name": "同济大学嘉定校区学生事务中心", "Ctype": "高等院校", "Ntype": "141201", "Address": null, "Telephone": null }, "geometry": { "type": "Point", "coordinates": [ 121.216243477500001, 31.285958726111112 ] } },
{ "type": "Feature", "properties": { "Name": "同济大学嘉定校区中德学院", "Ctype": "高等院校", "Ntype": "141201", "Address": null, "Telephone": null }, "geometry": { "type": "Point", "coordinates": [ 121.213638751388885, 31.282959991944445 ] } },
{ "type": "Feature", "properties": { "Name": "嘉定区安亭镇老年学校", "Ctype": "成人教育", "Ntype": "141205", "Address": "于塘路８８５", "Telephone": null }, "geometry": { "type": "Point", "coordinates": [ 121.187877413333339, 31.312257976111113 ] } },
{ "type": "Feature", "properties": { "Name": "安亭镇成人中等文化技术学校", "Ctype": "成人教育", "Ntype": "141205", "Address": "于塘路８８５", "Telephone": null }, "geometry": { "type": "Point", "coordinates": [ 121.187808917499993, 31.312211474444442 ] } },
{ "type": "Feature", "properties": { "Name": "上海老年教育（双单路）", "Ctype": "成人教育", "Ntype": "141205", "Address": null, "Telephone": null }, "geometry": { "type": "Point", "coordinates": [ 121.252670053611112, 31.327217870277778 ] } },
{ "type": "Feature", "properties": { "Name": "上海嘉定创新进修学校", "Ctype": "成人教育", "Ntype": "141205", "Address": "泰富路５５号", "Telephone": null }, "geometry": { "type": "Point", "coordinates": [ 121.221645849166677, 31.315861233055557 ] } },
{ "type": "Feature", "properties": { "Name": "黄渡镇成人中等文化技术学校", "Ctype": "成人教育", "Ntype": "141205", "Address": "新黄路１", "Telephone": null }, "geometry": { "type": "Point", "coordinates": [ 121.21808431, 31.268213433055553 ] } },
{ "type": "Feature", "properties": { "Name": "嘉定新城（马陆镇）老年学校", "Ctype": "成人教育", "Ntype": "141205", "Address": null, "Telephone": null }, "geometry": { "type": "Point", "coordinates": [ 121.252670053611112, 31.327217870277778 ] } },
{ "type": "Feature", "properties": { "Name": "同济大学嘉定校区通达馆", "Ctype": "高等院校", "Ntype": "141201", "Address": null, "Telephone": null }, "geometry": { "type": "Point", "coordinates": [ 121.21282697777778, 31.28845343361111 ] } },
{ "type": "Feature", "properties": { "Name": "同济大学嘉定校区开物馆", "Ctype": "高等院校", "Ntype": "141201", "Address": null, "Telephone": null }, "geometry": { "type": "Point", "coordinates": [ 121.212549730833331, 31.288663368055555 ] } },
{ "type": "Feature", "properties": { "Name": "同济大学嘉定校区", "Ctype": "高等院校", "Ntype": "141201", "Address": "曹安公路４８００号", "Telephone": null }, "geometry": { "type": "Point", "coordinates": [ 121.214730555555562, 31.285653888888891 ] } },
{ "type": "Feature", "properties": { "Name": "同济大学嘉定校区洁净能源汽车工程中心试车场", "Ctype": "高等院校", "Ntype": "141201", "Address": null, "Telephone": null }, "geometry": { "type": "Point", "coordinates": [ 121.21373914944445, 31.290626356388888 ] } },
{ "type": "Feature", "properties": { "Name": "同济大学嘉定校区材料科学与工程学院", "Ctype": "高等院校", "Ntype": "141201", "Address": null, "Telephone": null }, "geometry": { "type": "Point", "coordinates": [ 121.211692059722211, 31.287584963611113 ] } },
{ "type": "Feature", "properties": { "Name": "同济大学嘉定校区洁净能源汽车工程中心办公室", "Ctype": "高等院校", "Ntype": "141201", "Address": "曹安公路４８００号", "Telephone": null }, "geometry": { "type": "Point", "coordinates": [ 121.213824869722217, 31.289789767777776 ] } },
{ "type": "Feature", "properties": { "Name": "上海工商学院", "Ctype": "高等院校", "Ntype": "141201", "Address": "新凤北路５６５", "Telephone": null }, "geometry": { "type": "Point", "coordinates": [ 121.221996666666669, 31.248605555555553 ] } },
{ "type": "Feature", "properties": { "Name": "嘉定创新进修学校安亭教育点", "Ctype": "成人教育", "Ntype": "141205", "Address": "泽普路５８", "Telephone": null }, "geometry": { "type": "Point", "coordinates": [ 121.167457411111116, 31.291967230833333 ] } },
{ "type": "Feature", "properties": { "Name": "上海工商学院（东北门）", "Ctype": "高等院校", "Ntype": "141201", "Address": "新凤北路５６５", "Telephone": null }, "geometry": { "type": "Point", "coordinates": [ 121.222375759444446, 31.248642306944443 ] } },
{ "type": "Feature", "properties": { "Name": "同济大学嘉定校区（西南２门）", "Ctype": "高等院校", "Ntype": "141201", "Address": "曹安公路４８００号", "Telephone": null }, "geometry": { "type": "Point", "coordinates": [ 121.207304066944445, 31.28508367638889 ] } },
{ "type": "Feature", "properties": { "Name": "同济大学嘉定校区智信馆", "Ctype": "高等院校", "Ntype": "141201", "Address": null, "Telephone": null }, "geometry": { "type": "Point", "coordinates": [ 121.212248835833336, 31.287725728611111 ] } },