{
"type": "FeatureCollection",
"crs": { "type": "name", "properties": { "name": "urn:ogc:def:crs:OGC:1.3:CRS84" } },
"features": [
{ "type": "Feature", "properties": { "Name": "上海大观园（东北门）", "Ctype": "国家级景点", "Ntype": "110202", "Address": "金商公路７０１号上海大观园", "Telephone": null }, "geometry": { "type": "Point", "coordinates": [ 120.911080405833331, 31.072969628333333 ] } },
{ "type": "Feature", "properties": { "Name": "金龟岛渔村", "Ctype": "省级景点", "Ntype": "110203", "Address": "金泽镇建国村", "Telephone": "021-59263338" }, "geometry": { "type": "Point", "coordinates": [ 120.910432128888885, 31.047096082777777 ] } },
{ "type": "Feature", "properties": { "Name": "上海大观园", "Ctype": "国家级景点", "Ntype": "110202", "Address": "金商公路７０１号", "Telephone": "021-59262831|59262089" }, "geometry": { "type": "Point", "coordinates": [ 120.909313422222212, 31.073050943888887 ] } },
{ "type": "Feature", "properties": { "Name": "东方绿舟（７号门）", "Ctype": "国家级景点", "Ntype": "110202", "Address": null, "Telephone": null }, "geometry": { "type": "Point", "coordinates": [ 120.998212, 31.096064 ] } },
{ "type": "Feature", "properties": { "Name": "枫泾古镇（西南门）", "Ctype": "国家级景点", "Ntype": "110202", "Address": "亭枫公路８５８８弄－２８号", "Telephone": null }, "geometry": { "type": "Point", "coordinates": [ 121.013052777777773, 30.8848175 ] } },
{ "type": "Feature", "properties": { "Name": "枫泾古镇（东门）", "Ctype": "国家级景点", "Ntype": "110202", "Address": "亭枫公路８５８８弄－２８号", "Telephone": null }, "geometry": { "type": "Point", "coordinates": [ 121.01439, 30.884784166666666 ] } },
{ "type": "Feature", "properties": { "Name": "枫泾古镇（东南门）", "Ctype": "国家级景点", "Ntype": "110202", "Address": "枫丽路９５号", "Telephone": null }, "geometry": { "type": "Point", "coordinates": [ 121.015140361388902, 30.883979505277775 ] } },
{ "type": "Feature", "properties": { "Name": "枫泾古镇（东南门）", "Ctype": "国家级景点", "Ntype": "110202", "Address": "亭枫公路８５８８弄－２８号", "Telephone": null }, "geometry": { "type": "Point", "coordinates": [ 121.014252222222225, 30.884358333333335 ] } },
{ "type": "Feature", "properties": { "Name": "枫泾古镇（西门）", "Ctype": "国家级景点", "Ntype": "110202", "Address": null, "Telephone": null }, "geometry": { "type": "Point", "coordinates": [ 121.013541944444441, 30.884388888888889 ] } },
{ "type": "Feature", "properties": { "Name": "枫泾古镇", "Ctype": "国家级景点", "Ntype": "110202", "Address": "亭枫公路８５８８弄２８号", "Telephone": "021-57355555|67354177" }, "geometry": { "type": "Point", "coordinates": [ 121.013859444444435, 30.884992777777779 ] } },
{ "type": "Feature", "properties": { "Name": "陈云故居", "Ctype": "国家级景点", "Ntype": "110202", "Address": "朱枫公路３５１６", "Telephone": null }, "geometry": { "type": "Point", "coordinates": [ 121.04484305555556, 31.0079 ] } },
{ "type": "Feature", "properties": { "Name": "陈云纪念馆（东南门）", "Ctype": "国家级景点", "Ntype": "110202", "Address": null, "Telephone": null }, "geometry": { "type": "Point", "coordinates": [ 121.044072967222235, 31.006274296944447 ] } },
{ "type": "Feature", "properties": { "Name": "上海太阳岛旅游度假区", "Ctype": "国家级景点", "Ntype": "110202", "Address": "沈巷镇沈太路２５８８号", "Telephone": "021-54893291|69833888" }, "geometry": { "type": "Point", "coordinates": [ 121.065066944444439, 31.0422925 ] } },
{ "type": "Feature", "properties": { "Name": "东方绿舟（南门）", "Ctype": "国家级景点", "Ntype": "110202", "Address": "沪青平公路６８８８号", "Telephone": null }, "geometry": { "type": "Point", "coordinates": [ 121.018222113611117, 31.098991156666667 ] } },
{ "type": "Feature", "properties": { "Name": "珠溪园（东南门）", "Ctype": "国家级景点", "Ntype": "110202", "Address": "祥凝浜路３３２", "Telephone": null }, "geometry": { "type": "Point", "coordinates": [ 121.060825057222232, 31.109331288333333 ] } },
{ "type": "Feature", "properties": { "Name": "东方绿舟（５号门）", "Ctype": "国家级景点", "Ntype": "110202", "Address": null, "Telephone": null }, "geometry": { "type": "Point", "coordinates": [ 121.013534, 31.107625 ] } },
{ "type": "Feature", "properties": { "Name": "东方绿舟（２号门）", "Ctype": "国家级景点", "Ntype": "110202", "Address": null, "Telephone": null }, "geometry": { "type": "Point", "coordinates": [ 121.007422, 31.098349 ] } },
{ "type": "Feature", "properties": { "Name": "东方绿舟（东２号门）", "Ctype": "国家级景点", "Ntype": "110202", "Address": null, "Telephone": null }, "geometry": { "type": "Point", "coordinates": [ 121.013959, 31.105113 ] } },
{ "type": "Feature", "properties": { "Name": "东方绿舟（东１号门）", "Ctype": "国家级景点", "Ntype": "110202", "Address": null, "Telephone": null }, "geometry": { "type": "Point", "coordinates": [ 121.014448, 31.104176 ] } },
{ "type": "Feature", "properties": { "Name": "东方绿舟（６号门）", "Ctype": "国家级景点", "Ntype": "110202", "Address": null, "Telephone": null }, "geometry": { "type": "Point", "coordinates": [ 121.016676, 31.110232 ] } },
{ "type": "Feature", "properties": { "Name": "东方绿舟", "Ctype": "国家级景点", "Ntype": "110202", "Address": "沪青平公路６８８８号", "Telephone": "021-59233000|59233222" }, "geometry": { "type": "Point", "coordinates": [ 121.007126944444451, 31.098711111111111 ] } },
{ "type": "Feature", "properties": { "Name": "上海朱家角古镇旅游区", "Ctype": "国家级景点", "Ntype": "110202", "Address": "朱家角镇", "Telephone": "021-59240077" }, "geometry": { "type": "Point", "coordinates": [ 121.05388, 31.109866944444441 ] } },
{ "type": "Feature", "properties": { "Name": "珠溪园", "Ctype": "国家级景点", "Ntype": "110202", "Address": "祥凝浜路３３２", "Telephone": null }, "geometry": { "type": "Point", "coordinates": [ 121.060945, 31.109627777777778 ] } },
{ "type": "Feature", "properties": { "Name": "上海朱家角古镇旅游区（１号门）", "Ctype": "国家级景点", "Ntype": "110202", "Address": "朱家角镇西井街课植园路路口", "Telephone": null }, "geometry": { "type": "Point", "coordinates": [ 121.053656944444441, 31.11411 ] } },
{ "type": "Feature", "properties": { "Name": "方塔园（东２门）", "Ctype": "国家级景点", "Ntype": "110202", "Address": "方塔南路１", "Telephone": null }, "geometry": { "type": "Point", "coordinates": [ 121.248315158333327, 31.003943956111112 ] } },
{ "type": "Feature", "properties": { "Name": "松江方塔", "Ctype": "国家级景点", "Ntype": "110202", "Address": "中山路２３５号", "Telephone": null }, "geometry": { "type": "Point", "coordinates": [ 121.246040555555552, 31.004434722222221 ] } },
{ "type": "Feature", "properties": { "Name": "方塔园（东１门）", "Ctype": "国家级景点", "Ntype": "110202", "Address": null, "Telephone": null }, "geometry": { "type": "Point", "coordinates": [ 121.248308374722228, 31.00543208111111 ] } },
{ "type": "Feature", "properties": { "Name": "方塔园（北门）", "Ctype": "国家级景点", "Ntype": "110202", "Address": "中山东路２３５号", "Telephone": null }, "geometry": { "type": "Point", "coordinates": [ 121.245737841666667, 31.006923310555557 ] } },
{ "type": "Feature", "properties": { "Name": "方塔园（中山东路）", "Ctype": "国家级景点", "Ntype": "110202", "Address": "中山路２３５", "Telephone": "021-57822157|57832553|57832621" }, "geometry": { "type": "Point", "coordinates": [ 121.2456025, 31.005401111111112 ] } },
{ "type": "Feature", "properties": { "Name": "佘山国家森林公园（西北门）", "Ctype": "国家级景点", "Ntype": "110202", "Address": "佘山塔弄口", "Telephone": null }, "geometry": { "type": "Point", "coordinates": [ 121.185402831944444, 31.094787055 ] } },
{ "type": "Feature", "properties": { "Name": "佘山国家旅游度假区（东北门）", "Ctype": "国家级景点", "Ntype": "110202", "Address": null, "Telephone": null }, "geometry": { "type": "Point", "coordinates": [ 121.199808485277771, 31.089439290277777 ] } },
{ "type": "Feature", "properties": { "Name": "佘山国家森林公园（西佘山教友门）", "Ctype": "国家级景点", "Ntype": "110202", "Address": null, "Telephone": null }, "geometry": { "type": "Point", "coordinates": [ 121.195655, 31.09197 ] } },
{ "type": "Feature", "properties": { "Name": "佘山国家旅游度假区", "Ctype": "国家级景点", "Ntype": "110202", "Address": "佘山镇林荫路１８号", "Telephone": "021-57653324|57653235|57657231" }, "geometry": { "type": "Point", "coordinates": [ 121.199078055555546, 31.08872 ] } },
{ "type": "Feature", "properties": { "Name": "佘山国家森林公园（东门）", "Ctype": "国家级景点", "Ntype": "110202", "Address": "外青松公路９２６０", "Telephone": null }, "geometry": { "type": "Point", "coordinates": [ 121.196360525555548, 31.095010936944448 ] } },
{ "type": "Feature", "properties": { "Name": "佘山国家森林公园（西南门）", "Ctype": "国家级景点", "Ntype": "110202", "Address": "外青松公路９５１１", "Telephone": null }, "geometry": { "type": "Point", "coordinates": [ 121.20044482, 31.089773139722222 ] } },
{ "type": "Feature", "properties": { "Name": "佘山国家森林公园（东北门）", "Ctype": "国家级景点", "Ntype": "110202", "Address": "佘山塔弄口外青松公路９１４２", "Telephone": null }, "geometry": { "type": "Point", "coordinates": [ 121.195389644444447, 31.096717990833334 ] } },
{ "type": "Feature", "properties": { "Name": "佘山国家森林公园", "Ctype": "国家级景点", "Ntype": "110202", "Address": "佘山塔弄口外青松公路９１５８", "Telephone": "021-57653423|57657231" }, "geometry": { "type": "Point", "coordinates": [ 121.19435980916667, 31.095887315555554 ] } },
{ "type": "Feature", "properties": { "Name": "嘉定州桥景区", "Ctype": "国家级景点", "Ntype": "110202", "Address": null, "Telephone": "021-39003155" }, "geometry": { "type": "Point", "coordinates": [ 121.249854, 31.38449 ] } },
{ "type": "Feature", "properties": { "Name": "崇明岛国家地质公园", "Ctype": "国家级景点", "Ntype": "110202", "Address": null, "Telephone": null }, "geometry": { "type": "Point", "coordinates": [ 121.2314, 31.726844 ] } },
{ "type": "Feature", "properties": { "Name": "上海影视乐园－车墩影视基地", "Ctype": "省级景点", "Ntype": "110203", "Address": null, "Telephone": "021-57601627" }, "geometry": { "type": "Point", "coordinates": [ 121.311648, 31.010246 ] } },
{ "type": "Feature", "properties": { "Name": "古猗园（西南门）", "Ctype": "国家级景点", "Ntype": "110202", "Address": null, "Telephone": null }, "geometry": { "type": "Point", "coordinates": [ 121.314369071111102, 31.291986357499997 ] } },
{ "type": "Feature", "properties": { "Name": "古猗园", "Ctype": "国家级景点", "Ntype": "110202", "Address": "南翔镇沪宜公路２１８号", "Telephone": "021-59125659|59124916|59122035|59121535" }, "geometry": { "type": "Point", "coordinates": [ 121.31673, 31.29185 ] } },
{ "type": "Feature", "properties": { "Name": "古猗园（北门）", "Ctype": "国家级景点", "Ntype": "110202", "Address": null, "Telephone": null }, "geometry": { "type": "Point", "coordinates": [ 121.314574, 31.291997 ] } },
{ "type": "Feature", "properties": { "Name": "古猗园（西南１门）", "Ctype": "国家级景点", "Ntype": "110202", "Address": "南翔镇沪宜公路２１８号", "Telephone": null }, "geometry": { "type": "Point", "coordinates": [ 121.316508151388888, 31.290515896944445 ] } },
{ "type": "Feature", "properties": { "Name": "嘉定州桥", "Ctype": "国家级景点", "Ntype": "110202", "Address": "沙霞路６８号", "Telephone": "021-59534227|59918114" }, "geometry": { "type": "Point", "coordinates": [ 121.25534179694445, 31.380699327222221 ] } },
{ "type": "Feature", "properties": { "Name": "光明瑞华果园", "Ctype": "省级景点", "Ntype": "110203", "Address": "北沿公路３１７６号", "Telephone": "021-59658558" }, "geometry": { "type": "Point", "coordinates": [ 121.330500488333328, 31.812094184166668 ] } },
{ "type": "Feature", "properties": { "Name": "光明瑞华果园（西南２门）", "Ctype": "省级景点", "Ntype": "110203", "Address": "北沿公路３１８０光明瑞华果园", "Telephone": null }, "geometry": { "type": "Point", "coordinates": [ 121.329794108055552, 31.811832953611113 ] } },
{ "type": "Feature", "properties": { "Name": "光明瑞华果园（西南１门）", "Ctype": "省级景点", "Ntype": "110203", "Address": "北沿公路３１７６光明瑞华果园", "Telephone": null }, "geometry": { "type": "Point", "coordinates": [ 121.331539984722212, 31.811771375833334 ] } },
{ "type": "Feature", "properties": { "Name": "东方明珠广播电视塔（８号门）", "Ctype": "国家级景点", "Ntype": "110202", "Address": "世纪大道１号", "Telephone": null }, "geometry": { "type": "Point", "coordinates": [ 121.500822777777771, 31.239703888888886 ] } },
{ "type": "Feature", "properties": { "Name": "东方明珠广播电视塔（２号门）", "Ctype": "国家级景点", "Ntype": "110202", "Address": "世纪大道１号", "Telephone": null }, "geometry": { "type": "Point", "coordinates": [ 121.49971, 31.238886944444445 ] } },
{ "type": "Feature", "properties": { "Name": "东方明珠广播电视塔（１号门）", "Ctype": "国家级景点", "Ntype": "110202", "Address": "世纪大道１号", "Telephone": null }, "geometry": { "type": "Point", "coordinates": [ 121.500579722222227, 31.238877222222222 ] } },
{ "type": "Feature", "properties": { "Name": "东方明珠广播电视塔", "Ctype": "国家级景点", "Ntype": "110202", "Address": "世纪大道１号", "Telephone": "021-58791888" }, "geometry": { "type": "Point", "coordinates": [ 121.499809, 31.239666 ] } },
{ "type": "Feature", "properties": { "Name": "豫园（东北２门）", "Ctype": "国家级景点", "Ntype": "110202", "Address": "安仁街２１８", "Telephone": null }, "geometry": { "type": "Point", "coordinates": [ 121.492764141388889, 31.225910031944444 ] } },
{ "type": "Feature", "properties": { "Name": "豫园（东北１门）", "Ctype": "国家级景点", "Ntype": "110202", "Address": "安仁街２１８号", "Telephone": null }, "geometry": { "type": "Point", "coordinates": [ 121.492812, 31.226496 ] } },
{ "type": "Feature", "properties": { "Name": "豫园（西门）", "Ctype": "国家级景点", "Ntype": "110202", "Address": "安仁街１３２号", "Telephone": null }, "geometry": { "type": "Point", "coordinates": [ 121.492499578055558, 31.226455182222221 ] } },
{ "type": "Feature", "properties": { "Name": "东方明珠广播电视塔（７号门）", "Ctype": "国家级景点", "Ntype": "110202", "Address": null, "Telephone": null }, "geometry": { "type": "Point", "coordinates": [ 121.49826, 31.240099 ] } },
{ "type": "Feature", "properties": { "Name": "豫园（北门）", "Ctype": "国家级景点", "Ntype": "110202", "Address": null, "Telephone": null }, "geometry": { "type": "Point", "coordinates": [ 121.492335, 31.22774 ] } },
{ "type": "Feature", "properties": { "Name": "也是园（西南门）", "Ctype": "世界遗产", "Ntype": "110201", "Address": null, "Telephone": null }, "geometry": { "type": "Point", "coordinates": [ 121.492145, 31.217337 ] } },
{ "type": "Feature", "properties": { "Name": "也是园", "Ctype": "世界遗产", "Ntype": "110201", "Address": "河南南路６８１号", "Telephone": null }, "geometry": { "type": "Point", "coordinates": [ 121.492489, 31.217344 ] } },
{ "type": "Feature", "properties": { "Name": "等觉堂", "Ctype": "省级景点", "Ntype": "110203", "Address": null, "Telephone": null }, "geometry": { "type": "Point", "coordinates": [ 121.445106, 31.223513 ] } },
{ "type": "Feature", "properties": { "Name": "徐家汇源景区", "Ctype": "国家级景点", "Ntype": "110202", "Address": null, "Telephone": "021-54259260" }, "geometry": { "type": "Point", "coordinates": [ 121.436675, 31.190694 ] } },
{ "type": "Feature", "properties": { "Name": "豫园", "Ctype": "国家级景点", "Ntype": "110202", "Address": "安仁街２１８号", "Telephone": "021-63260830" }, "geometry": { "type": "Point", "coordinates": [ 121.492187840277779, 31.226861284722222 ] } },
{ "type": "Feature", "properties": { "Name": "外滩观光隧道", "Ctype": "国家级景点", "Ntype": "110202", "Address": "中山东一路３４９", "Telephone": null }, "geometry": { "type": "Point", "coordinates": [ 121.490451, 31.239874 ] } },
{ "type": "Feature", "properties": { "Name": "１９叁ＩＩＩ老场坊（西北门）", "Ctype": "省级景点", "Ntype": "110203", "Address": "溧阳路６１１号", "Telephone": null }, "geometry": { "type": "Point", "coordinates": [ 121.491786083611103, 31.254952025833333 ] } },
{ "type": "Feature", "properties": { "Name": "１９３３老场坊", "Ctype": "省级景点", "Ntype": "110203", "Address": "溧阳路６１１号", "Telephone": "021-65011933" }, "geometry": { "type": "Point", "coordinates": [ 121.492201, 31.254589 ] } },
{ "type": "Feature", "properties": { "Name": "高家庄生态园", "Ctype": "省级景点", "Ntype": "110203", "Address": "港东公路９９９号", "Telephone": "021-59670788" }, "geometry": { "type": "Point", "coordinates": [ 121.426312120277771, 31.680414767777776 ] } },
{ "type": "Feature", "properties": { "Name": "东平国家森林公园（２号门）", "Ctype": "国家级景点", "Ntype": "110202", "Address": null, "Telephone": null }, "geometry": { "type": "Point", "coordinates": [ 121.471206, 31.681611 ] } },
{ "type": "Feature", "properties": { "Name": "高家庄生态园（东南门）", "Ctype": "省级景点", "Ntype": "110203", "Address": null, "Telephone": null }, "geometry": { "type": "Point", "coordinates": [ 121.427102321944446, 31.680124783055557 ] } },
{ "type": "Feature", "properties": { "Name": "东平国家森林公园", "Ctype": "国家级景点", "Ntype": "110202", "Address": "北沿公路２１８８号", "Telephone": "021-59338028|59338333" }, "geometry": { "type": "Point", "coordinates": [ 121.479469943611107, 31.683479003888888 ] } },
{ "type": "Feature", "properties": { "Name": "奉贤海湾旅游区", "Ctype": "国家级景点", "Ntype": "110202", "Address": null, "Telephone": "021-57120473|57120879" }, "geometry": { "type": "Point", "coordinates": [ 121.519106987777775, 30.817653808611112 ] } },
{ "type": "Feature", "properties": { "Name": "都市菜园（南门）", "Ctype": "国家级景点", "Ntype": "110202", "Address": "海兴路８８８弄", "Telephone": null }, "geometry": { "type": "Point", "coordinates": [ 121.589926944444457, 30.863062777777778 ] } },
{ "type": "Feature", "properties": { "Name": "都市菜园（北门）", "Ctype": "国家级景点", "Ntype": "110202", "Address": null, "Telephone": null }, "geometry": { "type": "Point", "coordinates": [ 121.588515833333332, 30.866991944444447 ] } },
{ "type": "Feature", "properties": { "Name": "都市菜园", "Ctype": "国家级景点", "Ntype": "110202", "Address": "海兴路８８８弄", "Telephone": null }, "geometry": { "type": "Point", "coordinates": [ 121.58953, 30.864430833333333 ] } },
{ "type": "Feature", "properties": { "Name": "召稼楼", "Ctype": "省级景点", "Ntype": "110203", "Address": "沈杜公路２０５９", "Telephone": "021-67282828" }, "geometry": { "type": "Point", "coordinates": [ 121.549078333333327, 31.0747625 ] } },
{ "type": "Feature", "properties": { "Name": "召稼楼（东门）", "Ctype": "省级景点", "Ntype": "110203", "Address": "沈杜公路２０５９召稼楼", "Telephone": null }, "geometry": { "type": "Point", "coordinates": [ 121.550473904166665, 31.070460340833336 ] } },
{ "type": "Feature", "properties": { "Name": "世纪公园（１号门）", "Ctype": "国家级景点", "Ntype": "110202", "Address": "锦绣路１００１号", "Telephone": null }, "geometry": { "type": "Point", "coordinates": [ 121.547266, 31.216926 ] } },
{ "type": "Feature", "properties": { "Name": "世纪公园（６号门）", "Ctype": "国家级景点", "Ntype": "110202", "Address": "花木路１１０９", "Telephone": null }, "geometry": { "type": "Point", "coordinates": [ 121.556497, 31.212658 ] } },
{ "type": "Feature", "properties": { "Name": "世纪公园（７号门）", "Ctype": "国家级景点", "Ntype": "110202", "Address": "锦绣路１００１号行政文化中心世纪公园", "Telephone": null }, "geometry": { "type": "Point", "coordinates": [ 121.550464, 31.211846 ] } },
{ "type": "Feature", "properties": { "Name": "世纪公园（８号门）", "Ctype": "国家级景点", "Ntype": "110202", "Address": "花木路４０９号", "Telephone": null }, "geometry": { "type": "Point", "coordinates": [ 121.543731, 31.211988 ] } },
{ "type": "Feature", "properties": { "Name": "世纪公园（５号门）", "Ctype": "国家级景点", "Ntype": "110202", "Address": "花木路１１５９世纪公园", "Telephone": null }, "geometry": { "type": "Point", "coordinates": [ 121.560701180555554, 31.214049791944444 ] } },
{ "type": "Feature", "properties": { "Name": "世纪公园（３号门）", "Ctype": "国家级景点", "Ntype": "110202", "Address": "锦绣路７０１号", "Telephone": null }, "geometry": { "type": "Point", "coordinates": [ 121.557267, 31.220708 ] } },
{ "type": "Feature", "properties": { "Name": "世纪公园（２号门）", "Ctype": "国家级景点", "Ntype": "110202", "Address": "锦绣路９０１号", "Telephone": null }, "geometry": { "type": "Point", "coordinates": [ 121.551647, 31.219215 ] } },
{ "type": "Feature", "properties": { "Name": "老码头", "Ctype": "省级景点", "Ntype": "110203", "Address": "中山南路５０５号", "Telephone": "021-61526616" }, "geometry": { "type": "Point", "coordinates": [ 121.506509, 31.219482 ] } },
{ "type": "Feature", "properties": { "Name": "上海金茂大厦８８层观光厅", "Ctype": "国家级景点", "Ntype": "110202", "Address": "世纪大道８８号金茂大厦", "Telephone": "021-50475101" }, "geometry": { "type": "Point", "coordinates": [ 121.505797777777772, 31.235312777777779 ] } },
{ "type": "Feature", "properties": { "Name": "世纪公园", "Ctype": "国家级景点", "Ntype": "110202", "Address": "锦绣路１００１号", "Telephone": "021-58333983|58337122|38760588|58330221" }, "geometry": { "type": "Point", "coordinates": [ 121.557624, 31.220125 ] } },
{ "type": "Feature", "properties": { "Name": "世纪公园（４号门）", "Ctype": "国家级景点", "Ntype": "110202", "Address": "芳甸路８５８号", "Telephone": null }, "geometry": { "type": "Point", "coordinates": [ 121.56086, 31.216263 ] } },
{ "type": "Feature", "properties": { "Name": "上海环球金融中心观光厅", "Ctype": "国家级景点", "Ntype": "110202", "Address": "世纪大道１００号", "Telephone": "021-68777878|50393723|58780101|68880888" }, "geometry": { "type": "Point", "coordinates": [ 121.507061, 31.234424 ] } },
{ "type": "Feature", "properties": { "Name": "上海共青国家森林公园（西大门）", "Ctype": "国家级景点", "Ntype": "110202", "Address": "军工路２０００号", "Telephone": null }, "geometry": { "type": "Point", "coordinates": [ 121.5456211475, 31.320775886111111 ] } },
{ "type": "Feature", "properties": { "Name": "上海共青国家森林公园（北大门）", "Ctype": "国家级景点", "Ntype": "110202", "Address": "军工路２３００号", "Telephone": null }, "geometry": { "type": "Point", "coordinates": [ 121.546351821944441, 31.323300883888891 ] } },
{ "type": "Feature", "properties": { "Name": "上海共青国家森林公园", "Ctype": "国家级景点", "Ntype": "110202", "Address": "军工路２０００号", "Telephone": "021-65740586|65328194|65881571" }, "geometry": { "type": "Point", "coordinates": [ 121.550851508333338, 31.320089789444445 ] } },
{ "type": "Feature", "properties": { "Name": "旧上海特别市政府", "Ctype": "省级景点", "Ntype": "110203", "Address": "清源环路６５０", "Telephone": null }, "geometry": { "type": "Point", "coordinates": [ 121.525608273333333, 31.31317481472222 ] } },
{ "type": "Feature", "properties": { "Name": "上海共青国家森林公园（南大门）", "Ctype": "国家级景点", "Ntype": "110202", "Address": "军工路１７０７号", "Telephone": null }, "geometry": { "type": "Point", "coordinates": [ 121.547268031944441, 31.315218691944445 ] } },
{ "type": "Feature", "properties": { "Name": "上海共青国家森林公园（东北门）", "Ctype": "国家级景点", "Ntype": "110202", "Address": "嫩江路１５９", "Telephone": null }, "geometry": { "type": "Point", "coordinates": [ 121.551525141111114, 31.315040068888887 ] } },
{ "type": "Feature", "properties": { "Name": "前卫生态农业旅游区（东门）", "Ctype": "国家级景点", "Ntype": "110202", "Address": null, "Telephone": null }, "geometry": { "type": "Point", "coordinates": [ 121.515311944444448, 31.721997777777776 ] } },
{ "type": "Feature", "properties": { "Name": "前卫生态农业旅游区", "Ctype": "国家级景点", "Ntype": "110202", "Address": null, "Telephone": "021-59649003" }, "geometry": { "type": "Point", "coordinates": [ 121.509077777777776, 31.723166944444444 ] } },
{ "type": "Feature", "properties": { "Name": "前卫生态农业旅游区（南门）", "Ctype": "国家级景点", "Ntype": "110202", "Address": null, "Telephone": null }, "geometry": { "type": "Point", "coordinates": [ 121.508536944444444, 31.72047388888889 ] } },
{ "type": "Feature", "properties": { "Name": "前卫生态农业旅游区（东南门）", "Ctype": "国家级景点", "Ntype": "110202", "Address": null, "Telephone": null }, "geometry": { "type": "Point", "coordinates": [ 121.508661651666671, 31.720541045833336 ] } },
{ "type": "Feature", "properties": { "Name": "上海海湾国家森林公园（１号门）", "Ctype": "国家级景点", "Ntype": "110202", "Address": null, "Telephone": null }, "geometry": { "type": "Point", "coordinates": [ 121.678651, 30.865923 ] } },
{ "type": "Feature", "properties": { "Name": "上海海湾国家森林公园（东北门）", "Ctype": "国家级景点", "Ntype": "110202", "Address": null, "Telephone": null }, "geometry": { "type": "Point", "coordinates": [ 121.700014, 30.866156 ] } },
{ "type": "Feature", "properties": { "Name": "上海海湾国家森林公园（北１门）", "Ctype": "国家级景点", "Ntype": "110202", "Address": "随塘河路１６７７上海海湾国家森林公园", "Telephone": null }, "geometry": { "type": "Point", "coordinates": [ 121.6800979275, 30.865834418333332 ] } },
{ "type": "Feature", "properties": { "Name": "上海海湾国家森林公园（北２门）", "Ctype": "国家级景点", "Ntype": "110202", "Address": "随塘河路１６７７上海海湾国家森林公园", "Telephone": null }, "geometry": { "type": "Point", "coordinates": [ 121.680810546944443, 30.865892198333334 ] } },
{ "type": "Feature", "properties": { "Name": "上海海湾国家森林公园", "Ctype": "国家级景点", "Ntype": "110202", "Address": "随塘河路１６７７号五四社区内", "Telephone": "021-57160468|57169090|57169696" }, "geometry": { "type": "Point", "coordinates": [ 121.681634722222228, 30.857506666666669 ] } },
{ "type": "Feature", "properties": { "Name": "上海游龙石文化科普馆", "Ctype": "国家级景点", "Ntype": "110202", "Address": null, "Telephone": null }, "geometry": { "type": "Point", "coordinates": [ 121.691727777777771, 31.162504444444444 ] } },
{ "type": "Feature", "properties": { "Name": "桃花村", "Ctype": "省级景点", "Ntype": "110203", "Address": "北门路２８９号", "Telephone": "021-58016565|58019595" }, "geometry": { "type": "Point", "coordinates": [ 121.754964722222226, 31.061408611111109 ] } }
]
}
