{
"type": "FeatureCollection",
"crs": { "type": "name", "properties": { "name": "urn:ogc:def:crs:OGC:1.3:CRS84" } },
"features": [
{ "type": "Feature", "properties": { "Name": "枫溪公园", "Ctype": "公园", "Ntype": "110101", "Address": "新泾路４５", "Telephone": "021-57351429" }, "geometry": { "type": "Point", "coordinates": [ 121.017693888888886, 30.885930833333333 ] } },
{ "type": "Feature", "properties": { "Name": "枫溪公园（东门）", "Ctype": "公园", "Ntype": "110101", "Address": null, "Telephone": null }, "geometry": { "type": "Point", "coordinates": [ 121.018111944444442, 30.885142777777777 ] } },
{ "type": "Feature", "properties": { "Name": "枫溪公园（东北门）", "Ctype": "公园", "Ntype": "110101", "Address": "新泾路４５", "Telephone": null }, "geometry": { "type": "Point", "coordinates": [ 121.017869166666671, 30.886275833333332 ] } },
{ "type": "Feature", "properties": { "Name": "雅园", "Ctype": "公园", "Ntype": "110101", "Address": null, "Telephone": null }, "geometry": { "type": "Point", "coordinates": [ 121.052654110277786, 30.956480040277778 ] } },
{ "type": "Feature", "properties": { "Name": "雅园（西门）", "Ctype": "公园", "Ntype": "110101", "Address": null, "Telephone": null }, "geometry": { "type": "Point", "coordinates": [ 121.052473130555555, 30.95666353361111 ] } },
{ "type": "Feature", "properties": { "Name": "石湖荡镇控烟主题公园", "Ctype": "公园", "Ntype": "110101", "Address": null, "Telephone": null }, "geometry": { "type": "Point", "coordinates": [ 121.118230794166678, 30.986252441388888 ] } },
{ "type": "Feature", "properties": { "Name": "青西郊野公园", "Ctype": "公园", "Ntype": "110101", "Address": null, "Telephone": "021-69835188" }, "geometry": { "type": "Point", "coordinates": [ 121.00823, 31.0582 ] } },
{ "type": "Feature", "properties": { "Name": "侨鑫绿地", "Ctype": "公园", "Ntype": "110101", "Address": null, "Telephone": null }, "geometry": { "type": "Point", "coordinates": [ 121.114621039444444, 31.144409450833333 ] } },
{ "type": "Feature", "properties": { "Name": "曲水园", "Ctype": "公园", "Ntype": "110101", "Address": "公园路６１２号", "Telephone": "021-59732996" }, "geometry": { "type": "Point", "coordinates": [ 121.114090298611117, 31.148939450277776 ] } },
{ "type": "Feature", "properties": { "Name": "斧韵绿地", "Ctype": "公园", "Ntype": "110101", "Address": "青浦镇", "Telephone": null }, "geometry": { "type": "Point", "coordinates": [ 121.119887424166663, 31.148922254722223 ] } },
{ "type": "Feature", "properties": { "Name": "曲水园（西门）", "Ctype": "公园", "Ntype": "110101", "Address": null, "Telephone": null }, "geometry": { "type": "Point", "coordinates": [ 121.113177082222236, 31.149257499722221 ] } },
{ "type": "Feature", "properties": { "Name": "常青绿地（西门）", "Ctype": "公园", "Ntype": "110101", "Address": null, "Telephone": null }, "geometry": { "type": "Point", "coordinates": [ 121.118677029166676, 31.15689697277778 ] } },
{ "type": "Feature", "properties": { "Name": "曲水园（南门）", "Ctype": "公园", "Ntype": "110101", "Address": "公园路６１２号", "Telephone": null }, "geometry": { "type": "Point", "coordinates": [ 121.113826369722233, 31.148264546388887 ] } },
{ "type": "Feature", "properties": { "Name": "常青绿地", "Ctype": "公园", "Ntype": "110101", "Address": null, "Telephone": null }, "geometry": { "type": "Point", "coordinates": [ 121.118869628888888, 31.156650933055555 ] } },
{ "type": "Feature", "properties": { "Name": "上海廊下郊野公园", "Ctype": "公园", "Ntype": "110101", "Address": null, "Telephone": "021-57395422" }, "geometry": { "type": "Point", "coordinates": [ 121.159189, 30.787126 ] } },
{ "type": "Feature", "properties": { "Name": "枫叶岛", "Ctype": "公园", "Ntype": "110101", "Address": null, "Telephone": null }, "geometry": { "type": "Point", "coordinates": [ 121.175471, 30.776403 ] } },
{ "type": "Feature", "properties": { "Name": "车镜公园（南门）", "Ctype": "公园", "Ntype": "110101", "Address": "朱吕公路３８５８", "Telephone": null }, "geometry": { "type": "Point", "coordinates": [ 121.235659444444451, 30.832531388888889 ] } },
{ "type": "Feature", "properties": { "Name": "金山公园", "Ctype": "公园", "Ntype": "110101", "Address": "公园路９６", "Telephone": "021-57311036" }, "geometry": { "type": "Point", "coordinates": [ 121.162466111111115, 30.892491666666668 ] } },
{ "type": "Feature", "properties": { "Name": "车镜公园", "Ctype": "公园", "Ntype": "110101", "Address": "朱吕公路３８５８", "Telephone": null }, "geometry": { "type": "Point", "coordinates": [ 121.235661666666658, 30.833022222222223 ] } },
{ "type": "Feature", "properties": { "Name": "船子缘", "Ctype": "公园", "Ntype": "110101", "Address": null, "Telephone": null }, "geometry": { "type": "Point", "coordinates": [ 121.163960833333334, 30.894454444444442 ] } },
{ "type": "Feature", "properties": { "Name": "船子缘（西北门）", "Ctype": "公园", "Ntype": "110101", "Address": null, "Telephone": null }, "geometry": { "type": "Point", "coordinates": [ 121.163313055555562, 30.894276944444442 ] } },
{ "type": "Feature", "properties": { "Name": "金山公园（西南门）", "Ctype": "公园", "Ntype": "110101", "Address": "公园路９６", "Telephone": null }, "geometry": { "type": "Point", "coordinates": [ 121.161756388888875, 30.892276111111112 ] } },
{ "type": "Feature", "properties": { "Name": "泖港镇健康主题公园", "Ctype": "公园", "Ntype": "110101", "Address": null, "Telephone": null }, "geometry": { "type": "Point", "coordinates": [ 121.21418, 30.931977 ] } },
{ "type": "Feature", "properties": { "Name": "思贤公园（西南门）", "Ctype": "公园", "Ntype": "110101", "Address": null, "Telephone": null }, "geometry": { "type": "Point", "coordinates": [ 121.222006364722219, 31.030155825833333 ] } },
{ "type": "Feature", "properties": { "Name": "双拥林（东门）", "Ctype": "公园", "Ntype": "110101", "Address": null, "Telephone": null }, "geometry": { "type": "Point", "coordinates": [ 121.229188910555564, 31.03507704 ] } },
{ "type": "Feature", "properties": { "Name": "辰山植物园（２号门）", "Ctype": "植物园", "Ntype": "110103", "Address": null, "Telephone": null }, "geometry": { "type": "Point", "coordinates": [ 121.189311, 31.078165 ] } },
{ "type": "Feature", "properties": { "Name": "上海辰山植物园（南门）", "Ctype": "植物园", "Ntype": "110103", "Address": null, "Telephone": null }, "geometry": { "type": "Point", "coordinates": [ 121.189442, 31.078318 ] } },
{ "type": "Feature", "properties": { "Name": "绿舟苑", "Ctype": "公园", "Ntype": "110101", "Address": "松江镇", "Telephone": null }, "geometry": { "type": "Point", "coordinates": [ 121.220193, 31.015994 ] } },
{ "type": "Feature", "properties": { "Name": "岩石和药用植物园", "Ctype": "植物园", "Ntype": "110103", "Address": null, "Telephone": null }, "geometry": { "type": "Point", "coordinates": [ 121.183536, 31.077858 ] } },
{ "type": "Feature", "properties": { "Name": "湿地植物园", "Ctype": "植物园", "Ntype": "110103", "Address": null, "Telephone": null }, "geometry": { "type": "Point", "coordinates": [ 121.184552, 31.071482 ] } },
{ "type": "Feature", "properties": { "Name": "龙兴港绿地", "Ctype": "公园", "Ntype": "110101", "Address": null, "Telephone": null }, "geometry": { "type": "Point", "coordinates": [ 121.229169, 31.013677 ] } },
{ "type": "Feature", "properties": { "Name": "菜花泾绿地", "Ctype": "公园", "Ntype": "110101", "Address": "松江镇", "Telephone": null }, "geometry": { "type": "Point", "coordinates": [ 121.236608886666673, 31.010335828888888 ] } },
{ "type": "Feature", "properties": { "Name": "天马山", "Ctype": "公园", "Ntype": "110101", "Address": "天马山镇", "Telephone": "021-57668324" }, "geometry": { "type": "Point", "coordinates": [ 121.151948242222218, 31.07531467027778 ] } },
{ "type": "Feature", "properties": { "Name": "思贤公园", "Ctype": "公园", "Ntype": "110101", "Address": "思贤路与人民北路交叉口东北", "Telephone": null }, "geometry": { "type": "Point", "coordinates": [ 121.223875833333324, 31.029971944444444 ] } },
{ "type": "Feature", "properties": { "Name": "其昌公园", "Ctype": "公园", "Ntype": "110101", "Address": null, "Telephone": null }, "geometry": { "type": "Point", "coordinates": [ 121.230833888888881, 31.024677777777775 ] } },
{ "type": "Feature", "properties": { "Name": "上海辰山植物园", "Ctype": "植物园", "Ntype": "110103", "Address": "辰花公路３８８８号", "Telephone": "021-37792288|31121863|67657770" }, "geometry": { "type": "Point", "coordinates": [ 121.182666936111119, 31.075576429722222 ] } },
{ "type": "Feature", "properties": { "Name": "上海辰山植物园（３号门）", "Ctype": "植物园", "Ntype": "110103", "Address": "辰花公路３８８８号", "Telephone": null }, "geometry": { "type": "Point", "coordinates": [ 121.176429307777781, 31.077169325 ] } },
{ "type": "Feature", "properties": { "Name": "天马山（东北门）", "Ctype": "公园", "Ntype": "110101", "Address": "刘家山村４６０", "Telephone": null }, "geometry": { "type": "Point", "coordinates": [ 121.15653672972222, 31.074202473888889 ] } },
{ "type": "Feature", "properties": { "Name": "辰山户外公园（西南门）", "Ctype": "公园", "Ntype": "110101", "Address": null, "Telephone": null }, "geometry": { "type": "Point", "coordinates": [ 121.179484320833339, 31.065129123333335 ] } },
{ "type": "Feature", "properties": { "Name": "沈泾塘", "Ctype": "公园", "Ntype": "110101", "Address": null, "Telephone": null }, "geometry": { "type": "Point", "coordinates": [ 121.193119574722218, 31.054448784722222 ] } },
{ "type": "Feature", "properties": { "Name": "双拥林（南１门）", "Ctype": "公园", "Ntype": "110101", "Address": null, "Telephone": null }, "geometry": { "type": "Point", "coordinates": [ 121.225987413333328, 31.034465331944443 ] } },
{ "type": "Feature", "properties": { "Name": "天马山（西南门）", "Ctype": "公园", "Ntype": "110101", "Address": "天马山镇", "Telephone": null }, "geometry": { "type": "Point", "coordinates": [ 121.148149414166653, 31.074558919166666 ] } },
{ "type": "Feature", "properties": { "Name": "思贤公园（东门）", "Ctype": "公园", "Ntype": "110101", "Address": "思贤路与人民北路交叉口东北", "Telephone": null }, "geometry": { "type": "Point", "coordinates": [ 121.225821631666676, 31.029769821666669 ] } },
{ "type": "Feature", "properties": { "Name": "辰山户外公园", "Ctype": "公园", "Ntype": "110101", "Address": null, "Telephone": null }, "geometry": { "type": "Point", "coordinates": [ 121.179594997777784, 31.065468478611109 ] } },
{ "type": "Feature", "properties": { "Name": "水绘苑", "Ctype": "公园", "Ntype": "110101", "Address": null, "Telephone": null }, "geometry": { "type": "Point", "coordinates": [ 121.234992946944445, 31.017233886666666 ] } },
{ "type": "Feature", "properties": { "Name": "北内路绿地", "Ctype": "公园", "Ntype": "110101", "Address": null, "Telephone": null }, "geometry": { "type": "Point", "coordinates": [ 121.241638455, 31.012898763055556 ] } },
{ "type": "Feature", "properties": { "Name": "上海醉白池公园", "Ctype": "公园", "Ntype": "110101", "Address": "人民南路６４", "Telephone": "021-57814763" }, "geometry": { "type": "Point", "coordinates": [ 121.230685277777781, 31.002403055555554 ] } },
{ "type": "Feature", "properties": { "Name": "中央公园", "Ctype": "公园", "Ntype": "110101", "Address": "园中路", "Telephone": null }, "geometry": { "type": "Point", "coordinates": [ 121.228296959444449, 31.036584357500001 ] } },
{ "type": "Feature", "properties": { "Name": "双拥林", "Ctype": "公园", "Ntype": "110101", "Address": null, "Telephone": null }, "geometry": { "type": "Point", "coordinates": [ 121.226016981388881, 31.035675455833335 ] } },
{ "type": "Feature", "properties": { "Name": "紫园一号（东南２门）", "Ctype": "公园", "Ntype": "110101", "Address": "佘天昆公路２６８弄", "Telephone": null }, "geometry": { "type": "Point", "coordinates": [ 121.192143316111114, 31.087028908333334 ] } },
{ "type": "Feature", "properties": { "Name": "紫园一号（东北门）", "Ctype": "公园", "Ntype": "110101", "Address": "环山路６２９号", "Telephone": null }, "geometry": { "type": "Point", "coordinates": [ 121.189677800277778, 31.09159715111111 ] } },
{ "type": "Feature", "properties": { "Name": "上海森大花园（东南门）", "Ctype": "公园", "Ntype": "110101", "Address": null, "Telephone": null }, "geometry": { "type": "Point", "coordinates": [ 121.206434751388898, 31.155310974722219 ] } },
{ "type": "Feature", "properties": { "Name": "人文纪念公园", "Ctype": "公园", "Ntype": "110101", "Address": "外青松公路７２７０号", "Telephone": "021-69209026" }, "geometry": { "type": "Point", "coordinates": [ 121.13238416888889, 31.111024305555556 ] } },
{ "type": "Feature", "properties": { "Name": "北菁园", "Ctype": "公园", "Ntype": "110101", "Address": "华科路４００号", "Telephone": null }, "geometry": { "type": "Point", "coordinates": [ 121.13373838555556, 31.156256641111113 ] } },
{ "type": "Feature", "properties": { "Name": "淼森多肉植物园", "Ctype": "植物园", "Ntype": "110103", "Address": null, "Telephone": null }, "geometry": { "type": "Point", "coordinates": [ 121.20762, 31.151533 ] } },
{ "type": "Feature", "properties": { "Name": "上海月湖雕塑公园", "Ctype": "公园", "Ntype": "110101", "Address": "佘山镇外青松公路", "Telephone": "021-57653235|57798090" }, "geometry": { "type": "Point", "coordinates": [ 121.208047633888896, 31.100316409722222 ] } },
{ "type": "Feature", "properties": { "Name": "上海月湖雕塑公园（北门）", "Ctype": "公园", "Ntype": "110101", "Address": null, "Telephone": null }, "geometry": { "type": "Point", "coordinates": [ 121.202394, 31.103001 ] } },
{ "type": "Feature", "properties": { "Name": "南园", "Ctype": "公园", "Ntype": "110101", "Address": null, "Telephone": null }, "geometry": { "type": "Point", "coordinates": [ 121.136331108888896, 31.099358995277779 ] } },
{ "type": "Feature", "properties": { "Name": "上海森大花园", "Ctype": "公园", "Ntype": "110101", "Address": null, "Telephone": null }, "geometry": { "type": "Point", "coordinates": [ 121.206428467222224, 31.155344908333333 ] } },
{ "type": "Feature", "properties": { "Name": "千竹苑", "Ctype": "公园", "Ntype": "110101", "Address": "林荫新路１９９９", "Telephone": null }, "geometry": { "type": "Point", "coordinates": [ 121.203112, 31.086025 ] } },
{ "type": "Feature", "properties": { "Name": "千竹苑（西南门）", "Ctype": "公园", "Ntype": "110101", "Address": "林荫新路１９９９", "Telephone": null }, "geometry": { "type": "Point", "coordinates": [ 121.203053, 31.086003 ] } },
{ "type": "Feature", "properties": { "Name": "上海月湖雕塑公园（东南门）", "Ctype": "公园", "Ntype": "110101", "Address": "佘山镇外青松公路", "Telephone": null }, "geometry": { "type": "Point", "coordinates": [ 121.208038, 31.09785 ] } },
{ "type": "Feature", "properties": { "Name": "紫园一号（东南１门）", "Ctype": "公园", "Ntype": "110101", "Address": null, "Telephone": null }, "geometry": { "type": "Point", "coordinates": [ 121.196114502222215, 31.089565766944446 ] } },
{ "type": "Feature", "properties": { "Name": "上海月湖雕塑公园（南门）", "Ctype": "公园", "Ntype": "110101", "Address": null, "Telephone": null }, "geometry": { "type": "Point", "coordinates": [ 121.208224, 31.095821 ] } },
{ "type": "Feature", "properties": { "Name": "紫园一号", "Ctype": "公园", "Ntype": "110101", "Address": "环山路６２９号", "Telephone": null }, "geometry": { "type": "Point", "coordinates": [ 121.193426649444447, 31.089653862777777 ] } },
{ "type": "Feature", "properties": { "Name": "南菁园", "Ctype": "公园", "Ntype": "110101", "Address": null, "Telephone": null }, "geometry": { "type": "Point", "coordinates": [ 121.13638897, 31.141354942777777 ] } },
{ "type": "Feature", "properties": { "Name": "赵巷公园", "Ctype": "公园", "Ntype": "110101", "Address": null, "Telephone": null }, "geometry": { "type": "Point", "coordinates": [ 121.199284636944441, 31.156216266388888 ] } },
{ "type": "Feature", "properties": { "Name": "上海福泉山留园（东北门）", "Ctype": "公园", "Ntype": "110101", "Address": "香花桥街道郏一村２１５号", "Telephone": null }, "geometry": { "type": "Point", "coordinates": [ 121.182350555555558, 31.170509166666665 ] } },
{ "type": "Feature", "properties": { "Name": "华新公园", "Ctype": "公园", "Ntype": "110101", "Address": null, "Telephone": null }, "geometry": { "type": "Point", "coordinates": [ 121.228335, 31.24164 ] } },
{ "type": "Feature", "properties": { "Name": "华新公园（南门）", "Ctype": "公园", "Ntype": "110101", "Address": null, "Telephone": null }, "geometry": { "type": "Point", "coordinates": [ 121.228526, 31.241325 ] } },
{ "type": "Feature", "properties": { "Name": "凤溪公园（古思浜农民中心村南）", "Ctype": "公园", "Ntype": "110101", "Address": "凤溪镇", "Telephone": null }, "geometry": { "type": "Point", "coordinates": [ 121.227020670555547, 31.205710991666667 ] } },
{ "type": "Feature", "properties": { "Name": "上海福泉山", "Ctype": "公园", "Ntype": "110101", "Address": "北青路６７２５号", "Telephone": "021-59786028" }, "geometry": { "type": "Point", "coordinates": [ 121.188712022499999, 31.190135905 ] } },
{ "type": "Feature", "properties": { "Name": "重固体育公园", "Ctype": "公园", "Ntype": "110101", "Address": null, "Telephone": null }, "geometry": { "type": "Point", "coordinates": [ 121.187995552777778, 31.20240326 ] } },
{ "type": "Feature", "properties": { "Name": "凤溪公园（西北门）", "Ctype": "公园", "Ntype": "110101", "Address": null, "Telephone": null }, "geometry": { "type": "Point", "coordinates": [ 121.227393841666668, 31.206864913888889 ] } },
{ "type": "Feature", "properties": { "Name": "凤溪公园（西南门）", "Ctype": "公园", "Ntype": "110101", "Address": "凤溪镇", "Telephone": null }, "geometry": { "type": "Point", "coordinates": [ 121.226335612777788, 31.205466091111113 ] } },
{ "type": "Feature", "properties": { "Name": "上海福泉山留园", "Ctype": "公园", "Ntype": "110101", "Address": "香花桥街道郏一村２１５号", "Telephone": null }, "geometry": { "type": "Point", "coordinates": [ 121.182317631111104, 31.17025313111111 ] } },
{ "type": "Feature", "properties": { "Name": "古树公园", "Ctype": "公园", "Ntype": "110101", "Address": "泰海路２３０", "Telephone": "021-63366016" }, "geometry": { "type": "Point", "coordinates": [ 121.244949, 31.315588 ] } },
{ "type": "Feature", "properties": { "Name": "黄渡公园", "Ctype": "公园", "Ntype": "110101", "Address": "新黄路４０号", "Telephone": "021-59590913" }, "geometry": { "type": "Point", "coordinates": [ 121.21671572166666, 31.268313513333332 ] } },
{ "type": "Feature", "properties": { "Name": "安亭生态运动公园", "Ctype": "公园", "Ntype": "110101", "Address": null, "Telephone": null }, "geometry": { "type": "Point", "coordinates": [ 121.174119809166669, 31.264712455833333 ] } },
{ "type": "Feature", "properties": { "Name": "黄渡公园（东南门）", "Ctype": "公园", "Ntype": "110101", "Address": null, "Telephone": null }, "geometry": { "type": "Point", "coordinates": [ 121.217041862222217, 31.267609703055555 ] } },
{ "type": "Feature", "properties": { "Name": "上海汽车博览公园（西北门）", "Ctype": "公园", "Ntype": "110101", "Address": "博园路７５７５", "Telephone": null }, "geometry": { "type": "Point", "coordinates": [ 121.168224027222223, 31.280441065555557 ] } },
{ "type": "Feature", "properties": { "Name": "上海汽车博览公园（东北门）", "Ctype": "公园", "Ntype": "110101", "Address": "博园路７００１、７５５５", "Telephone": null }, "geometry": { "type": "Point", "coordinates": [ 121.17895009944445, 31.279697800277777 ] } },
{ "type": "Feature", "properties": { "Name": "上海汽车博览公园", "Ctype": "公园", "Ntype": "110101", "Address": "博园路７００１、７５５５", "Telephone": null }, "geometry": { "type": "Point", "coordinates": [ 121.17511694444444, 31.278800833333335 ] } },
{ "type": "Feature", "properties": { "Name": "腊梅主题公园", "Ctype": "公园", "Ntype": "110101", "Address": null, "Telephone": null }, "geometry": { "type": "Point", "coordinates": [ 121.177558, 31.333883 ] } },
{ "type": "Feature", "properties": { "Name": "人民街绿地", "Ctype": "公园", "Ntype": "110101", "Address": "嘉定镇", "Telephone": null }, "geometry": { "type": "Point", "coordinates": [ 121.246045735555555, 31.381662055 ] } },
{ "type": "Feature", "properties": { "Name": "绿色项链", "Ctype": "公园", "Ntype": "110101", "Address": null, "Telephone": null }, "geometry": { "type": "Point", "coordinates": [ 121.251141666666669, 31.3741125 ] } },
{ "type": "Feature", "properties": { "Name": "陈家山荷花公园", "Ctype": "公园", "Ntype": "110101", "Address": null, "Telephone": null }, "geometry": { "type": "Point", "coordinates": [ 121.245523333333338, 31.398619166666666 ] } },
{ "type": "Feature", "properties": { "Name": "儿童公园", "Ctype": "公园", "Ntype": "110101", "Address": "梅园路２２６号", "Telephone": null }, "geometry": { "type": "Point", "coordinates": [ 121.242001045277789, 31.383587568055553 ] } },
{ "type": "Feature", "properties": { "Name": "外冈蜡梅园", "Ctype": "植物园", "Ntype": "110103", "Address": "墨玉北路２７００", "Telephone": "021-60643427" }, "geometry": { "type": "Point", "coordinates": [ 121.150006781666661, 31.354925943888887 ] } },
{ "type": "Feature", "properties": { "Name": "南苑公园（裕民路）", "Ctype": "公园", "Ntype": "110101", "Address": "群裕路４８号", "Telephone": null }, "geometry": { "type": "Point", "coordinates": [ 121.25214, 31.369688333333333 ] } },
{ "type": "Feature", "properties": { "Name": "南苑公园（群裕路）", "Ctype": "公园", "Ntype": "110101", "Address": null, "Telephone": null }, "geometry": { "type": "Point", "coordinates": [ 121.251201388888887, 31.37192277777778 ] } },
{ "type": "Feature", "properties": { "Name": "嘉北郊野公园", "Ctype": "公园", "Ntype": "110101", "Address": null, "Telephone": null }, "geometry": { "type": "Point", "coordinates": [ 121.202842, 31.343874 ] } },
{ "type": "Feature", "properties": { "Name": "绿色项链（西南门）", "Ctype": "公园", "Ntype": "110101", "Address": null, "Telephone": null }, "geometry": { "type": "Point", "coordinates": [ 121.251142408333337, 31.373755276666667 ] } },
{ "type": "Feature", "properties": { "Name": "外冈蜡梅园（东北门）", "Ctype": "植物园", "Ntype": "110103", "Address": "墨玉北路２７００", "Telephone": null }, "geometry": { "type": "Point", "coordinates": [ 121.151263292222225, 31.35533528638889 ] } },
{ "type": "Feature", "properties": { "Name": "汇龙潭公园（西北门）", "Ctype": "公园", "Ntype": "110101", "Address": null, "Telephone": null }, "geometry": { "type": "Point", "coordinates": [ 121.253345428611112, 31.38228771861111 ] } },
{ "type": "Feature", "properties": { "Name": "陈家山荷花公园（西北门）", "Ctype": "公园", "Ntype": "110101", "Address": null, "Telephone": null }, "geometry": { "type": "Point", "coordinates": [ 121.245082404722226, 31.399060766388889 ] } },
{ "type": "Feature", "properties": { "Name": "南苑公园（东南门）", "Ctype": "公园", "Ntype": "110101", "Address": null, "Telephone": null }, "geometry": { "type": "Point", "coordinates": [ 121.251454724166678, 31.371813514722223 ] } },
{ "type": "Feature", "properties": { "Name": "环城河市民休闲公园", "Ctype": "公园", "Ntype": "110101", "Address": "环城路６０１号", "Telephone": null }, "geometry": { "type": "Point", "coordinates": [ 121.250155813611116, 31.394043480833332 ] } },
{ "type": "Feature", "properties": { "Name": "紫气东来体育公园", "Ctype": "公园", "Ntype": "110101", "Address": null, "Telephone": null }, "geometry": { "type": "Point", "coordinates": [ 121.248251131111104, 31.343847742500003 ] } },
{ "type": "Feature", "properties": { "Name": "小河口银杏园", "Ctype": "公园", "Ntype": "110101", "Address": null, "Telephone": null }, "geometry": { "type": "Point", "coordinates": [ 121.242521666666661, 31.376288333333335 ] } },
{ "type": "Feature", "properties": { "Name": "滨海公园（西南门）", "Ctype": "公园", "Ntype": "110101", "Address": "新城路１６", "Telephone": null }, "geometry": { "type": "Point", "coordinates": [ 121.344203926944445, 30.706771406944444 ] } },
{ "type": "Feature", "properties": { "Name": "滨海公园动物园", "Ctype": "动物园", "Ntype": "110102", "Address": null, "Telephone": null }, "geometry": { "type": "Point", "coordinates": [ 121.344713, 30.705796 ] } },
{ "type": "Feature", "properties": { "Name": "滨海公园（新城路）", "Ctype": "公园", "Ntype": "110101", "Address": "新城路１６", "Telephone": "021-57931120|57932176" }, "geometry": { "type": "Point", "coordinates": [ 121.345141388888891, 30.706833888888887 ] } },
{ "type": "Feature", "properties": { "Name": "飞虹公园", "Ctype": "公园", "Ntype": "110101", "Address": null, "Telephone": null }, "geometry": { "type": "Point", "coordinates": [ 121.31605416666666, 30.725116666666665 ] } },
{ "type": "Feature", "properties": { "Name": "小公园（金一东路）", "Ctype": "公园", "Ntype": "110101", "Address": "复旦大学附属金山医院", "Telephone": null }, "geometry": { "type": "Point", "coordinates": [ 121.33584659305555, 30.712349022777776 ] } },
{ "type": "Feature", "properties": { "Name": "荟萃园（东南门）", "Ctype": "公园", "Ntype": "110101", "Address": "大堤路２０８", "Telephone": null }, "geometry": { "type": "Point", "coordinates": [ 121.340461734166666, 30.710232250833332 ] } },
{ "type": "Feature", "properties": { "Name": "东礁公园", "Ctype": "公园", "Ntype": "110101", "Address": null, "Telephone": null }, "geometry": { "type": "Point", "coordinates": [ 121.341460833333343, 30.723010833333337 ] } },
{ "type": "Feature", "properties": { "Name": "滨海公园（２号门）", "Ctype": "公园", "Ntype": "110101", "Address": "合浦路７１", "Telephone": null }, "geometry": { "type": "Point", "coordinates": [ 121.345984806388898, 30.708017814166666 ] } },
{ "type": "Feature", "properties": { "Name": "小公园（东南门）", "Ctype": "公园", "Ntype": "110101", "Address": null, "Telephone": null }, "geometry": { "type": "Point", "coordinates": [ 121.335855390833331, 30.712304406388892 ] } },
{ "type": "Feature", "properties": { "Name": "飞虹公园（东北门）", "Ctype": "公园", "Ntype": "110101", "Address": null, "Telephone": null }, "geometry": { "type": "Point", "coordinates": [ 121.31703216, 30.725172978611109 ] } },
{ "type": "Feature", "properties": { "Name": "荟萃园", "Ctype": "公园", "Ntype": "110101", "Address": "大堤路２０８", "Telephone": null }, "geometry": { "type": "Point", "coordinates": [ 121.340216666666677, 30.710402777777777 ] } },
{ "type": "Feature", "properties": { "Name": "秦望山百草园（南门）", "Ctype": "公园", "Ntype": "110101", "Address": null, "Telephone": null }, "geometry": { "type": "Point", "coordinates": [ 121.263319581388885, 30.787395298055554 ] } },
{ "type": "Feature", "properties": { "Name": "秦望山百草园", "Ctype": "公园", "Ntype": "110101", "Address": null, "Telephone": null }, "geometry": { "type": "Point", "coordinates": [ 121.263074504722226, 30.788128014722222 ] } },
{ "type": "Feature", "properties": { "Name": "张堰公园（西南门）", "Ctype": "公园", "Ntype": "110101", "Address": "花贤路６８号", "Telephone": null }, "geometry": { "type": "Point", "coordinates": [ 121.283719394166653, 30.803022397777777 ] } },
{ "type": "Feature", "properties": { "Name": "张堰公园", "Ctype": "公园", "Ntype": "110101", "Address": "花贤路６８号", "Telephone": "021-57213033" }, "geometry": { "type": "Point", "coordinates": [ 121.283857222222224, 30.803376666666669 ] } },
{ "type": "Feature", "properties": { "Name": "金山粉黛乱子草园", "Ctype": "植物园", "Ntype": "110103", "Address": null, "Telephone": null }, "geometry": { "type": "Point", "coordinates": [ 121.283739, 30.842886 ] } },
{ "type": "Feature", "properties": { "Name": "宠物公园", "Ctype": "公园", "Ntype": "110101", "Address": null, "Telephone": "021-57806328" }, "geometry": { "type": "Point", "coordinates": [ 121.325196, 30.913648 ] } },
{ "type": "Feature", "properties": { "Name": "万家公园", "Ctype": "公园", "Ntype": "110101", "Address": "马桥镇", "Telephone": null }, "geometry": { "type": "Point", "coordinates": [ 121.329582519444443, 30.992026909722224 ] } },
{ "type": "Feature", "properties": { "Name": "新桥公园（南门）", "Ctype": "公园", "Ntype": "110101", "Address": "新站路４３０", "Telephone": null }, "geometry": { "type": "Point", "coordinates": [ 121.313422580277773, 31.058703884444444 ] } },
{ "type": "Feature", "properties": { "Name": "新桥公园（新站路）", "Ctype": "公园", "Ntype": "110101", "Address": "新站路４３０", "Telephone": null }, "geometry": { "type": "Point", "coordinates": [ 121.313463055555559, 31.058817222222221 ] } },
{ "type": "Feature", "properties": { "Name": "马桥公园", "Ctype": "公园", "Ntype": "110101", "Address": null, "Telephone": null }, "geometry": { "type": "Point", "coordinates": [ 121.370059678888893, 31.031239691944446 ] } },
{ "type": "Feature", "properties": { "Name": "闵行开发区生态公园西洋园·企业园", "Ctype": "公园", "Ntype": "110101", "Address": "东川路３３３３", "Telephone": null }, "geometry": { "type": "Point", "coordinates": [ 121.37430338555555, 31.00122829861111 ] } },
{ "type": "Feature", "properties": { "Name": "水生园", "Ctype": "公园", "Ntype": "110101", "Address": "东川路３３６６", "Telephone": null }, "geometry": { "type": "Point", "coordinates": [ 121.373928055555552, 31.002642222222224 ] } },
{ "type": "Feature", "properties": { "Name": "新桥人口文化主题公园", "Ctype": "公园", "Ntype": "110101", "Address": null, "Telephone": null }, "geometry": { "type": "Point", "coordinates": [ 121.322397189722224, 31.067814398888888 ] } },
{ "type": "Feature", "properties": { "Name": "水生园（南门）", "Ctype": "公园", "Ntype": "110101", "Address": "东川路３３６６", "Telephone": null }, "geometry": { "type": "Point", "coordinates": [ 121.374012858055551, 31.002184516111111 ] } },
{ "type": "Feature", "properties": { "Name": "闵行开发区生态公园西洋园·企业园（北门）", "Ctype": "公园", "Ntype": "110101", "Address": "东川路３３３３", "Telephone": null }, "geometry": { "type": "Point", "coordinates": [ 121.374128418055562, 31.00165961361111 ] } },
{ "type": "Feature", "properties": { "Name": "旗忠公园（东南门）", "Ctype": "公园", "Ntype": "110101", "Address": "马桥镇", "Telephone": null }, "geometry": { "type": "Point", "coordinates": [ 121.35082411027777, 31.057950303888891 ] } },
{ "type": "Feature", "properties": { "Name": "金都息园", "Ctype": "公园", "Ntype": "110101", "Address": null, "Telephone": null }, "geometry": { "type": "Point", "coordinates": [ 121.37397867833333, 31.074332411111111 ] } },
{ "type": "Feature", "properties": { "Name": "旗忠公园", "Ctype": "公园", "Ntype": "110101", "Address": "马桥镇", "Telephone": null }, "geometry": { "type": "Point", "coordinates": [ 121.35066867416667, 31.05822428388889 ] } },
{ "type": "Feature", "properties": { "Name": "莘庄公园（西南门）", "Ctype": "公园", "Ntype": "110101", "Address": null, "Telephone": null }, "geometry": { "type": "Point", "coordinates": [ 121.370758734722216, 31.1013083225 ] } },
{ "type": "Feature", "properties": { "Name": "黎安公园（西北门）", "Ctype": "公园", "Ntype": "110101", "Address": "莘庄镇", "Telephone": null }, "geometry": { "type": "Point", "coordinates": [ 121.376912582222218, 31.131912506388886 ] } },
{ "type": "Feature", "properties": { "Name": "闵行体育公园（南门）", "Ctype": "公园", "Ntype": "110101", "Address": null, "Telephone": null }, "geometry": { "type": "Point", "coordinates": [ 121.377288423611105, 31.137098291388888 ] } },
{ "type": "Feature", "properties": { "Name": "闵行体育公园（８号门）", "Ctype": "公园", "Ntype": "110101", "Address": null, "Telephone": null }, "geometry": { "type": "Point", "coordinates": [ 121.37432553, 31.136625913888889 ] } },
{ "type": "Feature", "properties": { "Name": "闵行体育公园（７号门）", "Ctype": "公园", "Ntype": "110101", "Address": null, "Telephone": null }, "geometry": { "type": "Point", "coordinates": [ 121.375942654166664, 31.13687120222222 ] } },
{ "type": "Feature", "properties": { "Name": "闵行体育公园（４号门）", "Ctype": "公园", "Ntype": "110101", "Address": null, "Telephone": null }, "geometry": { "type": "Point", "coordinates": [ 121.369089898055549, 31.149687228611111 ] } },
{ "type": "Feature", "properties": { "Name": "闵行体育公园（１号门）", "Ctype": "公园", "Ntype": "110101", "Address": "新镇路４５６号", "Telephone": null }, "geometry": { "type": "Point", "coordinates": [ 121.366952332777771, 31.143543205555556 ] } },
{ "type": "Feature", "properties": { "Name": "闵行体育公园（３号门）", "Ctype": "公园", "Ntype": "110101", "Address": "农南路２２号", "Telephone": null }, "geometry": { "type": "Point", "coordinates": [ 121.367241, 31.148789 ] } },
{ "type": "Feature", "properties": { "Name": "闵行体育公园（２号门）", "Ctype": "公园", "Ntype": "110101", "Address": "农南路５５号", "Telephone": null }, "geometry": { "type": "Point", "coordinates": [ 121.36481645138889, 31.147948069722219 ] } },
{ "type": "Feature", "properties": { "Name": "黎安公园（东南门）", "Ctype": "公园", "Ntype": "110101", "Address": "秀文路１１８号", "Telephone": null }, "geometry": { "type": "Point", "coordinates": [ 121.378510537500006, 31.130043820833333 ] } },
{ "type": "Feature", "properties": { "Name": "泗泾公园（西门）", "Ctype": "公园", "Ntype": "110101", "Address": "泗泾镇", "Telephone": null }, "geometry": { "type": "Point", "coordinates": [ 121.273936, 31.113588 ] } },
{ "type": "Feature", "properties": { "Name": "莘庄公园", "Ctype": "公园", "Ntype": "110101", "Address": "莘浜路４２１", "Telephone": "021-64921817" }, "geometry": { "type": "Point", "coordinates": [ 121.372748147500005, 31.102210541111109 ] } },
{ "type": "Feature", "properties": { "Name": "泗泾公园", "Ctype": "公园", "Ntype": "110101", "Address": "泗泾镇", "Telephone": "021-57610067|57614543" }, "geometry": { "type": "Point", "coordinates": [ 121.275178, 31.114187 ] } },
{ "type": "Feature", "properties": { "Name": "黎安公园", "Ctype": "公园", "Ntype": "110101", "Address": "秀文路１１８号", "Telephone": "021-64599037" }, "geometry": { "type": "Point", "coordinates": [ 121.380102, 31.129784 ] } },
{ "type": "Feature", "properties": { "Name": "法制宣传主题公园", "Ctype": "公园", "Ntype": "110101", "Address": null, "Telephone": null }, "geometry": { "type": "Point", "coordinates": [ 121.37146, 31.108458 ] } },
{ "type": "Feature", "properties": { "Name": "闵行体育公园", "Ctype": "公园", "Ntype": "110101", "Address": "新镇路４５６号", "Telephone": "021-54860606" }, "geometry": { "type": "Point", "coordinates": [ 121.370920691388889, 31.143030532222223 ] } },
{ "type": "Feature", "properties": { "Name": "悦心园", "Ctype": "公园", "Ntype": "110101", "Address": "七宝镇", "Telephone": null }, "geometry": { "type": "Point", "coordinates": [ 121.349688585, 31.143386230555556 ] } },
{ "type": "Feature", "properties": { "Name": "馨园", "Ctype": "公园", "Ntype": "110101", "Address": "莘庄镇", "Telephone": null }, "geometry": { "type": "Point", "coordinates": [ 121.371615, 31.111097 ] } },
{ "type": "Feature", "properties": { "Name": "泗泾公园（北门）", "Ctype": "公园", "Ntype": "110101", "Address": null, "Telephone": null }, "geometry": { "type": "Point", "coordinates": [ 121.275051, 31.115228 ] } },
{ "type": "Feature", "properties": { "Name": "馨园（东南门）", "Ctype": "公园", "Ntype": "110101", "Address": "莘庄镇", "Telephone": null }, "geometry": { "type": "Point", "coordinates": [ 121.371877, 31.111 ] } },
{ "type": "Feature", "properties": { "Name": "悦心园（东门）", "Ctype": "公园", "Ntype": "110101", "Address": "七宝镇", "Telephone": null }, "geometry": { "type": "Point", "coordinates": [ 121.349798177222226, 31.143680013055555 ] } },
{ "type": "Feature", "properties": { "Name": "闵行文化公园（东南门）", "Ctype": "公园", "Ntype": "110101", "Address": "漕宝路２００１", "Telephone": null }, "geometry": { "type": "Point", "coordinates": [ 121.361635554444447, 31.1578846375 ] } },
{ "type": "Feature", "properties": { "Name": "泗泾公园（北门）", "Ctype": "公园", "Ntype": "110101", "Address": "鼓浪路", "Telephone": null }, "geometry": { "type": "Point", "coordinates": [ 121.27515218111111, 31.11515896277778 ] } },
{ "type": "Feature", "properties": { "Name": "莘庄公园（西北门）", "Ctype": "公园", "Ntype": "110101", "Address": "莘浜路４２１", "Telephone": null }, "geometry": { "type": "Point", "coordinates": [ 121.373147590555547, 31.103072155833331 ] } },
{ "type": "Feature", "properties": { "Name": "莘庄公园（东北门）", "Ctype": "公园", "Ntype": "110101", "Address": null, "Telephone": null }, "geometry": { "type": "Point", "coordinates": [ 121.374556206666668, 31.103054741666664 ] } },
{ "type": "Feature", "properties": { "Name": "春申绿地", "Ctype": "公园", "Ntype": "110101", "Address": null, "Telephone": null }, "geometry": { "type": "Point", "coordinates": [ 121.374082574166664, 31.091541529722225 ] } },
{ "type": "Feature", "properties": { "Name": "金沙公园（西北门）", "Ctype": "公园", "Ntype": "110101", "Address": "真新新村", "Telephone": null }, "geometry": { "type": "Point", "coordinates": [ 121.357709325555561, 31.242835898611112 ] } },
{ "type": "Feature", "properties": { "Name": "上海动物园（南３门）", "Ctype": "动物园", "Ntype": "110102", "Address": "虹桥路２３９５号上海动物园", "Telephone": null }, "geometry": { "type": "Point", "coordinates": [ 121.364952001944445, 31.189932311111111 ] } },
{ "type": "Feature", "properties": { "Name": "许浦公园", "Ctype": "公园", "Ntype": "110101", "Address": null, "Telephone": null }, "geometry": { "type": "Point", "coordinates": [ 121.338854, 31.228665 ] } },
{ "type": "Feature", "properties": { "Name": "滨江爱特公园", "Ctype": "公园", "Ntype": "110101", "Address": null, "Telephone": null }, "geometry": { "type": "Point", "coordinates": [ 121.315320471666666, 31.230384742222224 ] } },
{ "type": "Feature", "properties": { "Name": "航华公园", "Ctype": "公园", "Ntype": "110101", "Address": null, "Telephone": null }, "geometry": { "type": "Point", "coordinates": [ 121.34649, 31.17399 ] } },
{ "type": "Feature", "properties": { "Name": "上海动物园", "Ctype": "动物园", "Ntype": "110102", "Address": "虹桥路２３８１号", "Telephone": "021-62687775" }, "geometry": { "type": "Point", "coordinates": [ 121.362719, 31.192878 ] } },
{ "type": "Feature", "properties": { "Name": "哲击体育公园", "Ctype": "公园", "Ntype": "110101", "Address": null, "Telephone": null }, "geometry": { "type": "Point", "coordinates": [ 121.331143, 31.228385 ] } },
{ "type": "Feature", "properties": { "Name": "金鹤公园", "Ctype": "公园", "Ntype": "110101", "Address": null, "Telephone": null }, "geometry": { "type": "Point", "coordinates": [ 121.314072465277775, 31.241391202500001 ] } },
{ "type": "Feature", "properties": { "Name": "纪王公园", "Ctype": "公园", "Ntype": "110101", "Address": "纪高路５９８－６００", "Telephone": null }, "geometry": { "type": "Point", "coordinates": [ 121.269129444444445, 31.238014722222221 ] } },
{ "type": "Feature", "properties": { "Name": "哲击体育公园（东南门）", "Ctype": "公园", "Ntype": "110101", "Address": null, "Telephone": null }, "geometry": { "type": "Point", "coordinates": [ 121.331157, 31.228362 ] } },
{ "type": "Feature", "properties": { "Name": "食艺公园", "Ctype": "公园", "Ntype": "110101", "Address": null, "Telephone": null }, "geometry": { "type": "Point", "coordinates": [ 121.371247852777771, 31.173264025833333 ] } },
{ "type": "Feature", "properties": { "Name": "上海动物园繁殖场（东北门）", "Ctype": "动物园", "Ntype": "110102", "Address": null, "Telephone": null }, "geometry": { "type": "Point", "coordinates": [ 121.366366193888894, 31.205569936388887 ] } },
{ "type": "Feature", "properties": { "Name": "纪王公园（东南门）", "Ctype": "公园", "Ntype": "110101", "Address": "纪高路５９８－６００", "Telephone": null }, "geometry": { "type": "Point", "coordinates": [ 121.269479177500003, 31.237811825 ] } },
{ "type": "Feature", "properties": { "Name": "上海动物园南非海狮", "Ctype": "动物园", "Ntype": "110102", "Address": null, "Telephone": null }, "geometry": { "type": "Point", "coordinates": [ 121.36038, 31.193577 ] } },
{ "type": "Feature", "properties": { "Name": "孟加拉虎馆", "Ctype": "动物园", "Ntype": "110102", "Address": null, "Telephone": null }, "geometry": { "type": "Point", "coordinates": [ 121.362778, 31.195999 ] } },
{ "type": "Feature", "properties": { "Name": "上海动物园－两栖爬行动物区域", "Ctype": "动物园", "Ntype": "110102", "Address": null, "Telephone": null }, "geometry": { "type": "Point", "coordinates": [ 121.368451, 31.191435 ] } },
{ "type": "Feature", "properties": { "Name": "豪猪馆", "Ctype": "动物园", "Ntype": "110102", "Address": null, "Telephone": null }, "geometry": { "type": "Point", "coordinates": [ 121.363739, 31.196022 ] } },
{ "type": "Feature", "properties": { "Name": "非洲狮馆", "Ctype": "动物园", "Ntype": "110102", "Address": null, "Telephone": null }, "geometry": { "type": "Point", "coordinates": [ 121.359867494166664, 31.194772523055555 ] } },
{ "type": "Feature", "properties": { "Name": "上海动物园浣熊", "Ctype": "动物园", "Ntype": "110102", "Address": null, "Telephone": null }, "geometry": { "type": "Point", "coordinates": [ 121.362976, 31.197056 ] } },
{ "type": "Feature", "properties": { "Name": "上海动物园亚洲象", "Ctype": "动物园", "Ntype": "110102", "Address": null, "Telephone": null }, "geometry": { "type": "Point", "coordinates": [ 121.360372, 31.19153 ] } },
{ "type": "Feature", "properties": { "Name": "上海动物园（南１门）", "Ctype": "动物园", "Ntype": "110102", "Address": "虹桥路２３８１号", "Telephone": null }, "geometry": { "type": "Point", "coordinates": [ 121.368222883055552, 31.190415628888889 ] } },
{ "type": "Feature", "properties": { "Name": "火烈鸟馆", "Ctype": "动物园", "Ntype": "110102", "Address": null, "Telephone": null }, "geometry": { "type": "Point", "coordinates": [ 121.365821, 31.193874 ] } },
{ "type": "Feature", "properties": { "Name": "东方白鹳馆", "Ctype": "动物园", "Ntype": "110102", "Address": null, "Telephone": null }, "geometry": { "type": "Point", "coordinates": [ 121.363209, 31.194953 ] } },
{ "type": "Feature", "properties": { "Name": "鸟类动物区域", "Ctype": "动物园", "Ntype": "110102", "Address": null, "Telephone": null }, "geometry": { "type": "Point", "coordinates": [ 121.36446, 31.194275 ] } },
{ "type": "Feature", "properties": { "Name": "大猩猩馆", "Ctype": "动物园", "Ntype": "110102", "Address": null, "Telephone": null }, "geometry": { "type": "Point", "coordinates": [ 121.361778, 31.19146 ] } },
{ "type": "Feature", "properties": { "Name": "上海动物园（南２门）", "Ctype": "动物园", "Ntype": "110102", "Address": "虹桥路２３８１号", "Telephone": null }, "geometry": { "type": "Point", "coordinates": [ 121.367709488333333, 31.190536846666667 ] } },
{ "type": "Feature", "properties": { "Name": "金沙公园（东南门）", "Ctype": "公园", "Ntype": "110101", "Address": "丰庄路６９号", "Telephone": null }, "geometry": { "type": "Point", "coordinates": [ 121.360788888888891, 31.242855555555554 ] } },
{ "type": "Feature", "properties": { "Name": "食草类动物区域", "Ctype": "动物园", "Ntype": "110102", "Address": null, "Telephone": null }, "geometry": { "type": "Point", "coordinates": [ 121.359397, 31.193013 ] } },
{ "type": "Feature", "properties": { "Name": "上海动物园斑海豹", "Ctype": "动物园", "Ntype": "110102", "Address": null, "Telephone": null }, "geometry": { "type": "Point", "coordinates": [ 121.360645472222231, 31.193627707500003 ] } },
{ "type": "Feature", "properties": { "Name": "上海动物园花冠皱盔犀鸟", "Ctype": "动物园", "Ntype": "110102", "Address": null, "Telephone": null }, "geometry": { "type": "Point", "coordinates": [ 121.363236, 31.195595 ] } },
{ "type": "Feature", "properties": { "Name": "秃鹫馆", "Ctype": "动物园", "Ntype": "110102", "Address": null, "Telephone": null }, "geometry": { "type": "Point", "coordinates": [ 121.363869, 31.195118 ] } },
{ "type": "Feature", "properties": { "Name": "羊驼馆", "Ctype": "动物园", "Ntype": "110102", "Address": null, "Telephone": null }, "geometry": { "type": "Point", "coordinates": [ 121.358811, 31.193989 ] } },
{ "type": "Feature", "properties": { "Name": "灵长类动物区域", "Ctype": "动物园", "Ntype": "110102", "Address": null, "Telephone": null }, "geometry": { "type": "Point", "coordinates": [ 121.361886, 31.190985 ] } },
{ "type": "Feature", "properties": { "Name": "大天鹅馆", "Ctype": "动物园", "Ntype": "110102", "Address": null, "Telephone": null }, "geometry": { "type": "Point", "coordinates": [ 121.366104, 31.195007 ] } },
{ "type": "Feature", "properties": { "Name": "狼馆", "Ctype": "动物园", "Ntype": "110102", "Address": null, "Telephone": null }, "geometry": { "type": "Point", "coordinates": [ 121.361375, 31.194668 ] } },
{ "type": "Feature", "properties": { "Name": "大熊猫馆", "Ctype": "动物园", "Ntype": "110102", "Address": null, "Telephone": null }, "geometry": { "type": "Point", "coordinates": [ 121.36066, 31.195435 ] } },
{ "type": "Feature", "properties": { "Name": "新泾公园（西南门）", "Ctype": "公园", "Ntype": "110101", "Address": "新渔路４８０", "Telephone": null }, "geometry": { "type": "Point", "coordinates": [ 121.36194632583333, 31.216443173611111 ] } },
{ "type": "Feature", "properties": { "Name": "上海动物园斑嘴环企鹅", "Ctype": "动物园", "Ntype": "110102", "Address": null, "Telephone": null }, "geometry": { "type": "Point", "coordinates": [ 121.364159, 31.195902 ] } },
{ "type": "Feature", "properties": { "Name": "马来熊馆", "Ctype": "动物园", "Ntype": "110102", "Address": null, "Telephone": null }, "geometry": { "type": "Point", "coordinates": [ 121.35865, 31.194775 ] } },
{ "type": "Feature", "properties": { "Name": "上海动物园海狸鼠", "Ctype": "动物园", "Ntype": "110102", "Address": null, "Telephone": null }, "geometry": { "type": "Point", "coordinates": [ 121.363434, 31.196253 ] } },
{ "type": "Feature", "properties": { "Name": "黑天鹅馆", "Ctype": "动物园", "Ntype": "110102", "Address": null, "Telephone": null }, "geometry": { "type": "Point", "coordinates": [ 121.363869, 31.194632 ] } },
{ "type": "Feature", "properties": { "Name": "熊猫岭馆", "Ctype": "动物园", "Ntype": "110102", "Address": null, "Telephone": null }, "geometry": { "type": "Point", "coordinates": [ 121.361058, 31.195595 ] } },
{ "type": "Feature", "properties": { "Name": "上海动物园金丝猴", "Ctype": "动物园", "Ntype": "110102", "Address": null, "Telephone": null }, "geometry": { "type": "Point", "coordinates": [ 121.361969, 31.190788 ] } },
{ "type": "Feature", "properties": { "Name": "长颈鹿馆", "Ctype": "动物园", "Ntype": "110102", "Address": null, "Telephone": null }, "geometry": { "type": "Point", "coordinates": [ 121.359299, 31.192865 ] } },
{ "type": "Feature", "properties": { "Name": "孔雀园", "Ctype": "动物园", "Ntype": "110102", "Address": null, "Telephone": null }, "geometry": { "type": "Point", "coordinates": [ 121.365991, 31.193497 ] } },
{ "type": "Feature", "properties": { "Name": "上海动物园四川羚牛", "Ctype": "动物园", "Ntype": "110102", "Address": null, "Telephone": null }, "geometry": { "type": "Point", "coordinates": [ 121.359058, 31.19181 ] } },
{ "type": "Feature", "properties": { "Name": "河马馆", "Ctype": "动物园", "Ntype": "110102", "Address": null, "Telephone": null }, "geometry": { "type": "Point", "coordinates": [ 121.360099, 31.192895 ] } },
{ "type": "Feature", "properties": { "Name": "上海动物园弯角剑羚", "Ctype": "动物园", "Ntype": "110102", "Address": null, "Telephone": null }, "geometry": { "type": "Point", "coordinates": [ 121.357894, 31.19301 ] } },
{ "type": "Feature", "properties": { "Name": "上海动物园旋角羚", "Ctype": "动物园", "Ntype": "110102", "Address": null, "Telephone": null }, "geometry": { "type": "Point", "coordinates": [ 121.358638, 31.191981 ] } },
{ "type": "Feature", "properties": { "Name": "虹桥锦绣绿地", "Ctype": "植物园", "Ntype": "110103", "Address": null, "Telephone": null }, "geometry": { "type": "Point", "coordinates": [ 121.37758789055556, 31.174433593888889 ] } },
{ "type": "Feature", "properties": { "Name": "金沙公园", "Ctype": "公园", "Ntype": "110101", "Address": null, "Telephone": null }, "geometry": { "type": "Point", "coordinates": [ 121.359443, 31.242989 ] } },
{ "type": "Feature", "properties": { "Name": "金沙公园", "Ctype": "公园", "Ntype": "110101", "Address": null, "Telephone": null }, "geometry": { "type": "Point", "coordinates": [ 121.35769, 31.242829 ] } },
{ "type": "Feature", "properties": { "Name": "健康主题公园", "Ctype": "公园", "Ntype": "110101", "Address": null, "Telephone": null }, "geometry": { "type": "Point", "coordinates": [ 121.278868888888894, 31.168168888888889 ] } },
{ "type": "Feature", "properties": { "Name": "闵行文化公园（吴中路）", "Ctype": "公园", "Ntype": "110101", "Address": null, "Telephone": null }, "geometry": { "type": "Point", "coordinates": [ 121.361279276944444, 31.16529518222222 ] } },
{ "type": "Feature", "properties": { "Name": "闵行文化公园", "Ctype": "公园", "Ntype": "110101", "Address": "漕宝路２００１", "Telephone": null }, "geometry": { "type": "Point", "coordinates": [ 121.361522, 31.163277 ] } },
{ "type": "Feature", "properties": { "Name": "儿童动物园", "Ctype": "动物园", "Ntype": "110102", "Address": "虹桥路２３８１号上海动物园", "Telephone": null }, "geometry": { "type": "Point", "coordinates": [ 121.362916395277779, 31.194196777222221 ] } },
{ "type": "Feature", "properties": { "Name": "上海动物园长廊", "Ctype": "动物园", "Ntype": "110102", "Address": "虹桥路２３８１号上海动物园", "Telephone": null }, "geometry": { "type": "Point", "coordinates": [ 121.364981011388878, 31.192190212777778 ] } },
{ "type": "Feature", "properties": { "Name": "风铃绿地", "Ctype": "公园", "Ntype": "110101", "Address": null, "Telephone": null }, "geometry": { "type": "Point", "coordinates": [ 121.370544, 31.222167 ] } },
{ "type": "Feature", "properties": { "Name": "新泾公园", "Ctype": "公园", "Ntype": "110101", "Address": "天山西路４５５", "Telephone": null }, "geometry": { "type": "Point", "coordinates": [ 121.362015, 31.217132 ] } },
{ "type": "Feature", "properties": { "Name": "航华公园", "Ctype": "公园", "Ntype": "110101", "Address": "航新路６００", "Telephone": null }, "geometry": { "type": "Point", "coordinates": [ 121.3473315813889, 31.173942935555559 ] } },
{ "type": "Feature", "properties": { "Name": "华漕公园（西门）", "Ctype": "公园", "Ntype": "110101", "Address": "华漕镇", "Telephone": null }, "geometry": { "type": "Point", "coordinates": [ 121.332064513888895, 31.220051944166666 ] } },
{ "type": "Feature", "properties": { "Name": "闵行文化公园（西北２门）", "Ctype": "公园", "Ntype": "110101", "Address": null, "Telephone": null }, "geometry": { "type": "Point", "coordinates": [ 121.359204372222223, 31.167252575555555 ] } },
{ "type": "Feature", "properties": { "Name": "航华公园（西南２门）", "Ctype": "公园", "Ntype": "110101", "Address": "航新路６００", "Telephone": null }, "geometry": { "type": "Point", "coordinates": [ 121.345791996666662, 31.173708541666667 ] } },
{ "type": "Feature", "properties": { "Name": "闵行文化公园（西北１门）", "Ctype": "公园", "Ntype": "110101", "Address": null, "Telephone": null }, "geometry": { "type": "Point", "coordinates": [ 121.358536773888886, 31.167158551111108 ] } },
{ "type": "Feature", "properties": { "Name": "诸翟公园（东南门）", "Ctype": "公园", "Ntype": "110101", "Address": "运乐路", "Telephone": null }, "geometry": { "type": "Point", "coordinates": [ 121.287464, 31.208159 ] } },
{ "type": "Feature", "properties": { "Name": "金鹤公园（南门）", "Ctype": "公园", "Ntype": "110101", "Address": null, "Telephone": null }, "geometry": { "type": "Point", "coordinates": [ 121.314049843055557, 31.241177545833335 ] } },
{ "type": "Feature", "properties": { "Name": "新泾公园（东北门）", "Ctype": "公园", "Ntype": "110101", "Address": "天山西路４５５", "Telephone": null }, "geometry": { "type": "Point", "coordinates": [ 121.362079511388885, 31.217901836944442 ] } },
{ "type": "Feature", "properties": { "Name": "华漕公园", "Ctype": "公园", "Ntype": "110101", "Address": "华漕镇", "Telephone": null }, "geometry": { "type": "Point", "coordinates": [ 121.333021944444454, 31.219856111111113 ] } },
{ "type": "Feature", "properties": { "Name": "上海动物园进入式鸟乐园", "Ctype": "动物园", "Ntype": "110102", "Address": "虹桥路２３８１号上海动物园", "Telephone": null }, "geometry": { "type": "Point", "coordinates": [ 121.36399197055556, 31.197381727500002 ] } },
{ "type": "Feature", "properties": { "Name": "诸翟公园", "Ctype": "公园", "Ntype": "110101", "Address": "运乐路", "Telephone": null }, "geometry": { "type": "Point", "coordinates": [ 121.286924, 31.208874 ] } },
{ "type": "Feature", "properties": { "Name": "金沙公园（丰庄路）", "Ctype": "公园", "Ntype": "110101", "Address": "丰庄路６９号", "Telephone": null }, "geometry": { "type": "Point", "coordinates": [ 121.359426111111119, 31.242988888888888 ] } },
{ "type": "Feature", "properties": { "Name": "上海动物园繁殖场", "Ctype": "动物园", "Ntype": "110102", "Address": null, "Telephone": null }, "geometry": { "type": "Point", "coordinates": [ 121.365583, 31.205199 ] } },
{ "type": "Feature", "properties": { "Name": "槎浦公园北区（东北门）", "Ctype": "公园", "Ntype": "110101", "Address": null, "Telephone": null }, "geometry": { "type": "Point", "coordinates": [ 121.331011904166658, 31.288323638333335 ] } },
{ "type": "Feature", "properties": { "Name": "普陀区体育公园（西门）", "Ctype": "公园", "Ntype": "110101", "Address": null, "Telephone": null }, "geometry": { "type": "Point", "coordinates": [ 121.342842339444431, 31.283801811944443 ] } },
{ "type": "Feature", "properties": { "Name": "槎浦公园北区（东南门）", "Ctype": "公园", "Ntype": "110101", "Address": "金迈路３００", "Telephone": null }, "geometry": { "type": "Point", "coordinates": [ 121.330445713888892, 31.287631924722223 ] } },
{ "type": "Feature", "properties": { "Name": "真新恩德公园（东北门）", "Ctype": "公园", "Ntype": "110101", "Address": null, "Telephone": null }, "geometry": { "type": "Point", "coordinates": [ 121.359619981666668, 31.252268840555558 ] } },
{ "type": "Feature", "properties": { "Name": "未来岛公园", "Ctype": "公园", "Ntype": "110101", "Address": "绥德路３７８号", "Telephone": null }, "geometry": { "type": "Point", "coordinates": [ 121.375015, 31.265785 ] } },
{ "type": "Feature", "properties": { "Name": "未来岛公园（西南门）", "Ctype": "公园", "Ntype": "110101", "Address": "绥德路３７８号", "Telephone": null }, "geometry": { "type": "Point", "coordinates": [ 121.374643497499989, 31.265379437499998 ] } },
{ "type": "Feature", "properties": { "Name": "槎浦公园（西区）", "Ctype": "公园", "Ntype": "110101", "Address": null, "Telephone": null }, "geometry": { "type": "Point", "coordinates": [ 121.330270664444441, 31.288786444166664 ] } },
{ "type": "Feature", "properties": { "Name": "南翔镇银翔湖公园", "Ctype": "公园", "Ntype": "110101", "Address": null, "Telephone": null }, "geometry": { "type": "Point", "coordinates": [ 121.324636644444453, 31.281232261944446 ] } },
{ "type": "Feature", "properties": { "Name": "普陀区体育公园（西南门）", "Ctype": "公园", "Ntype": "110101", "Address": "桃浦镇", "Telephone": null }, "geometry": { "type": "Point", "coordinates": [ 121.342983978611102, 31.281266067222219 ] } },
{ "type": "Feature", "properties": { "Name": "普陀区体育公园", "Ctype": "公园", "Ntype": "110101", "Address": "桃浦镇", "Telephone": null }, "geometry": { "type": "Point", "coordinates": [ 121.343359766944431, 31.281953291944447 ] } },
{ "type": "Feature", "properties": { "Name": "马陆公园", "Ctype": "公园", "Ntype": "110101", "Address": "育英街４５５", "Telephone": null }, "geometry": { "type": "Point", "coordinates": [ 121.279271944444446, 31.326499444444444 ] } },
{ "type": "Feature", "properties": { "Name": "双河绿地游园", "Ctype": "公园", "Ntype": "110101", "Address": "双河路", "Telephone": null }, "geometry": { "type": "Point", "coordinates": [ 121.378935546944447, 31.2573261175 ] } },
{ "type": "Feature", "properties": { "Name": "双桥公园", "Ctype": "公园", "Ntype": "110101", "Address": null, "Telephone": null }, "geometry": { "type": "Point", "coordinates": [ 121.3371455786111, 31.251012743611113 ] } },
{ "type": "Feature", "properties": { "Name": "留云公园", "Ctype": "公园", "Ntype": "110101", "Address": null, "Telephone": null }, "geometry": { "type": "Point", "coordinates": [ 121.308899460555551, 31.313984981944447 ] } },
{ "type": "Feature", "properties": { "Name": "百亩公园", "Ctype": "公园", "Ntype": "110101", "Address": null, "Telephone": null }, "geometry": { "type": "Point", "coordinates": [ 121.321206054722211, 31.299715440555556 ] } },
{ "type": "Feature", "properties": { "Name": "槎浦公园（北区）", "Ctype": "公园", "Ntype": "110101", "Address": "金迈路３００", "Telephone": null }, "geometry": { "type": "Point", "coordinates": [ 121.330555555555549, 31.287967393611112 ] } },
{ "type": "Feature", "properties": { "Name": "槎浦公园（南区）", "Ctype": "公园", "Ntype": "110101", "Address": "金迈路３０３", "Telephone": null }, "geometry": { "type": "Point", "coordinates": [ 121.330855034722219, 31.286860622777777 ] } },
{ "type": "Feature", "properties": { "Name": "双河绿地游园（西门）", "Ctype": "公园", "Ntype": "110101", "Address": "双河路", "Telephone": null }, "geometry": { "type": "Point", "coordinates": [ 121.377709960833343, 31.257110731388888 ] } },
{ "type": "Feature", "properties": { "Name": "真新恩德公园", "Ctype": "公园", "Ntype": "110101", "Address": null, "Telephone": null }, "geometry": { "type": "Point", "coordinates": [ 121.359075785555547, 31.25207780611111 ] } },
{ "type": "Feature", "properties": { "Name": "马陆公园（东北门）", "Ctype": "公园", "Ntype": "110101", "Address": "育英街４５５", "Telephone": null }, "geometry": { "type": "Point", "coordinates": [ 121.27942520944444, 31.326479969166666 ] } },
{ "type": "Feature", "properties": { "Name": "槎浦公园南区（西北门）", "Ctype": "公园", "Ntype": "110101", "Address": "金迈路３０３", "Telephone": null }, "geometry": { "type": "Point", "coordinates": [ 121.33049763555556, 31.287205475555556 ] } },
{ "type": "Feature", "properties": { "Name": "普陀区体育公园（２号门）", "Ctype": "公园", "Ntype": "110101", "Address": null, "Telephone": null }, "geometry": { "type": "Point", "coordinates": [ 121.342688629722218, 31.282251401666667 ] } },
{ "type": "Feature", "properties": { "Name": "家美绿地（东南门）", "Ctype": "公园", "Ntype": "110101", "Address": null, "Telephone": null }, "geometry": { "type": "Point", "coordinates": [ 121.377267523888889, 31.257369520277777 ] } },
{ "type": "Feature", "properties": { "Name": "家美绿地", "Ctype": "公园", "Ntype": "110101", "Address": null, "Telephone": null }, "geometry": { "type": "Point", "coordinates": [ 121.376993696944439, 31.257506126666666 ] } },
{ "type": "Feature", "properties": { "Name": "黄家花园", "Ctype": "公园", "Ntype": "110101", "Address": null, "Telephone": null }, "geometry": { "type": "Point", "coordinates": [ 121.319065276111118, 31.2728655 ] } },
{ "type": "Feature", "properties": { "Name": "北管村休闲公园（西南门）", "Ctype": "公园", "Ntype": "110101", "Address": null, "Telephone": null }, "geometry": { "type": "Point", "coordinates": [ 121.322137376111101, 31.336589071388889 ] } },
{ "type": "Feature", "properties": { "Name": "世纪绿苑（南门）", "Ctype": "公园", "Ntype": "110101", "Address": "徐行镇", "Telephone": null }, "geometry": { "type": "Point", "coordinates": [ 121.256362229166669, 31.414532593888886 ] } },
{ "type": "Feature", "properties": { "Name": "马陆葡萄主题公园（西北门）", "Ctype": "公园", "Ntype": "110101", "Address": "大治路２９", "Telephone": null }, "geometry": { "type": "Point", "coordinates": [ 121.315661536944432, 31.381013869166669 ] } },
{ "type": "Feature", "properties": { "Name": "南水关公园", "Ctype": "公园", "Ntype": "110101", "Address": null, "Telephone": null }, "geometry": { "type": "Point", "coordinates": [ 121.255712775833331, 31.376630215555558 ] } },
{ "type": "Feature", "properties": { "Name": "南水关公园（西南门）", "Ctype": "公园", "Ntype": "110101", "Address": null, "Telephone": null }, "geometry": { "type": "Point", "coordinates": [ 121.25510636805555, 31.376157028888887 ] } },
{ "type": "Feature", "properties": { "Name": "马陆葡萄主题公园", "Ctype": "公园", "Ntype": "110101", "Address": "大治路２９", "Telephone": "021-59155240" }, "geometry": { "type": "Point", "coordinates": [ 121.315647397777781, 31.380820007222223 ] } },
{ "type": "Feature", "properties": { "Name": "顾村公园（２号门）", "Ctype": "公园", "Ntype": "110101", "Address": "刘行镇", "Telephone": null }, "geometry": { "type": "Point", "coordinates": [ 121.373270964444444, 31.34424912388889 ] } },
{ "type": "Feature", "properties": { "Name": "儿童拓展公园", "Ctype": "公园", "Ntype": "110101", "Address": null, "Telephone": null }, "geometry": { "type": "Point", "coordinates": [ 121.267515, 31.344772 ] } },
{ "type": "Feature", "properties": { "Name": "远香湖公园", "Ctype": "公园", "Ntype": "110101", "Address": null, "Telephone": null }, "geometry": { "type": "Point", "coordinates": [ 121.267433, 31.355048 ] } },
{ "type": "Feature", "properties": { "Name": "众仁乐园", "Ctype": "公园", "Ntype": "110101", "Address": "平城路１６０号", "Telephone": null }, "geometry": { "type": "Point", "coordinates": [ 121.260208333333338, 31.401644166666664 ] } },
{ "type": "Feature", "properties": { "Name": "南城墙公园", "Ctype": "公园", "Ntype": "110101", "Address": null, "Telephone": null }, "geometry": { "type": "Point", "coordinates": [ 121.254536404166672, 31.376012369722222 ] } },
{ "type": "Feature", "properties": { "Name": "顾村公园", "Ctype": "公园", "Ntype": "110101", "Address": null, "Telephone": null }, "geometry": { "type": "Point", "coordinates": [ 121.361342777777764, 31.3393275 ] } },
{ "type": "Feature", "properties": { "Name": "汇龙潭公园", "Ctype": "公园", "Ntype": "110101", "Address": "塔城路２９９号", "Telephone": "021-59529604" }, "geometry": { "type": "Point", "coordinates": [ 121.253975872777772, 31.38170519 ] } },
{ "type": "Feature", "properties": { "Name": "友谊苑", "Ctype": "公园", "Ntype": "110101", "Address": null, "Telephone": null }, "geometry": { "type": "Point", "coordinates": [ 121.255290527222229, 31.380597330833336 ] } },
{ "type": "Feature", "properties": { "Name": "众仁乐园二期", "Ctype": "公园", "Ntype": "110101", "Address": null, "Telephone": null }, "geometry": { "type": "Point", "coordinates": [ 121.260704752500004, 31.40247857 ] } },
{ "type": "Feature", "properties": { "Name": "春晖苑", "Ctype": "公园", "Ntype": "110101", "Address": null, "Telephone": null }, "geometry": { "type": "Point", "coordinates": [ 121.258762230833327, 31.391764217777776 ] } },
{ "type": "Feature", "properties": { "Name": "嘉定紫藤园", "Ctype": "公园", "Ntype": "110101", "Address": "博乐路４５", "Telephone": null }, "geometry": { "type": "Point", "coordinates": [ 121.258818055555551, 31.379474444444444 ] } },
{ "type": "Feature", "properties": { "Name": "顾村公园", "Ctype": "公园", "Ntype": "110101", "Address": "沪太路４７８８号", "Telephone": "021-56045199|56045200|36621019" }, "geometry": { "type": "Point", "coordinates": [ 121.368323, 31.339359 ] } },
{ "type": "Feature", "properties": { "Name": "世纪绿苑", "Ctype": "公园", "Ntype": "110101", "Address": "徐行镇", "Telephone": null }, "geometry": { "type": "Point", "coordinates": [ 121.256106499444442, 31.415021701388888 ] } },
{ "type": "Feature", "properties": { "Name": "众仁乐园（北门）", "Ctype": "公园", "Ntype": "110101", "Address": null, "Telephone": null }, "geometry": { "type": "Point", "coordinates": [ 121.259995388333337, 31.402943522222223 ] } },
{ "type": "Feature", "properties": { "Name": "顾村公园（东北门）", "Ctype": "公园", "Ntype": "110101", "Address": null, "Telephone": null }, "geometry": { "type": "Point", "coordinates": [ 121.361781056111113, 31.339308088333333 ] } },
{ "type": "Feature", "properties": { "Name": "嘉定紫藤园（西北门）", "Ctype": "公园", "Ntype": "110101", "Address": "博乐路４５", "Telephone": null }, "geometry": { "type": "Point", "coordinates": [ 121.258057736388892, 31.379314198888888 ] } },
{ "type": "Feature", "properties": { "Name": "众仁乐园（东南２门）", "Ctype": "公园", "Ntype": "110101", "Address": "平城路１６０号", "Telephone": null }, "geometry": { "type": "Point", "coordinates": [ 121.259992821666671, 31.400227651666665 ] } },
{ "type": "Feature", "properties": { "Name": "汇龙潭公园（东南门）", "Ctype": "公园", "Ntype": "110101", "Address": "塔城路２９９号", "Telephone": null }, "geometry": { "type": "Point", "coordinates": [ 121.255397318055557, 31.380643190555556 ] } },
{ "type": "Feature", "properties": { "Name": "南城墙公园（东北门）", "Ctype": "公园", "Ntype": "110101", "Address": null, "Telephone": null }, "geometry": { "type": "Point", "coordinates": [ 121.254829871111113, 31.376027578333332 ] } },
{ "type": "Feature", "properties": { "Name": "诺贝尔科技公园（东北门）", "Ctype": "公园", "Ntype": "110101", "Address": "罗迎路２９９", "Telephone": null }, "geometry": { "type": "Point", "coordinates": [ 121.3602355013889, 31.401633701111113 ] } },
{ "type": "Feature", "properties": { "Name": "众仁乐园（东南１门）", "Ctype": "公园", "Ntype": "110101", "Address": null, "Telephone": null }, "geometry": { "type": "Point", "coordinates": [ 121.26124396972223, 31.400397948611111 ] } },
{ "type": "Feature", "properties": { "Name": "仓场健身公园", "Ctype": "公园", "Ntype": "110101", "Address": null, "Telephone": null }, "geometry": { "type": "Point", "coordinates": [ 121.28405496083333, 31.360666292499999 ] } },
{ "type": "Feature", "properties": { "Name": "北管村休闲公园", "Ctype": "公园", "Ntype": "110101", "Address": null, "Telephone": null }, "geometry": { "type": "Point", "coordinates": [ 121.322378682500002, 31.336913326944448 ] } },
{ "type": "Feature", "properties": { "Name": "新城公园", "Ctype": "公园", "Ntype": "110101", "Address": "塔城东路３３５号", "Telephone": null }, "geometry": { "type": "Point", "coordinates": [ 121.268901638333332, 31.387652723611112 ] } },
{ "type": "Feature", "properties": { "Name": "石冈门塘休闲公园", "Ctype": "公园", "Ntype": "110101", "Address": null, "Telephone": null }, "geometry": { "type": "Point", "coordinates": [ 121.266489240833323, 31.344334753888891 ] } },
{ "type": "Feature", "properties": { "Name": "诺贝尔科技公园", "Ctype": "公园", "Ntype": "110101", "Address": "罗迎路２９９", "Telephone": null }, "geometry": { "type": "Point", "coordinates": [ 121.360203333333345, 31.4015875 ] } },
{ "type": "Feature", "properties": { "Name": "复华绿地", "Ctype": "公园", "Ntype": "110101", "Address": null, "Telephone": null }, "geometry": { "type": "Point", "coordinates": [ 121.274798990833332, 31.382671169722222 ] } },
{ "type": "Feature", "properties": { "Name": "仓场健身公园（东南门）", "Ctype": "公园", "Ntype": "110101", "Address": null, "Telephone": null }, "geometry": { "type": "Point", "coordinates": [ 121.28407569805556, 31.360635500833332 ] } },
{ "type": "Feature", "properties": { "Name": "罗泾公园（东南门）", "Ctype": "公园", "Ntype": "110101", "Address": "潘沪路２９８号", "Telephone": null }, "geometry": { "type": "Point", "coordinates": [ 121.329353027222226, 31.479901801111112 ] } },
{ "type": "Feature", "properties": { "Name": "罗泾公园", "Ctype": "公园", "Ntype": "110101", "Address": "潘沪路２９８号", "Telephone": null }, "geometry": { "type": "Point", "coordinates": [ 121.329201931388894, 31.480053710833332 ] } },
{ "type": "Feature", "properties": { "Name": "罗泾镇健康主题公园", "Ctype": "公园", "Ntype": "110101", "Address": null, "Telephone": null }, "geometry": { "type": "Point", "coordinates": [ 121.328494914722214, 31.482060129444442 ] } },
{ "type": "Feature", "properties": { "Name": "罗溪公园", "Ctype": "公园", "Ntype": "110101", "Address": "市一路", "Telephone": "021-56866820" }, "geometry": { "type": "Point", "coordinates": [ 121.351916666666668, 31.41721861111111 ] } },
{ "type": "Feature", "properties": { "Name": "罗溪公园（东南门）", "Ctype": "公园", "Ntype": "110101", "Address": "市一路", "Telephone": null }, "geometry": { "type": "Point", "coordinates": [ 121.352063762500009, 31.416993101666666 ] } },
{ "type": "Feature", "properties": { "Name": "罗泾镇健康主题公园（东南门）", "Ctype": "公园", "Ntype": "110101", "Address": null, "Telephone": null }, "geometry": { "type": "Point", "coordinates": [ 121.32852194, 31.48193593 ] } },
{ "type": "Feature", "properties": { "Name": "生态植物园", "Ctype": "植物园", "Ntype": "110103", "Address": "柘林镇", "Telephone": null }, "geometry": { "type": "Point", "coordinates": [ 121.463749186111102, 30.811750759444443 ] } },
{ "type": "Feature", "properties": { "Name": "中央公园（育秀东路）", "Ctype": "公园", "Ntype": "110101", "Address": "江海镇", "Telephone": null }, "geometry": { "type": "Point", "coordinates": [ 121.478054166666666, 30.912055833333334 ] } },
{ "type": "Feature", "properties": { "Name": "望春园", "Ctype": "公园", "Ntype": "110101", "Address": "菜场路１６７", "Telephone": null }, "geometry": { "type": "Point", "coordinates": [ 121.455679444444442, 30.902145555555556 ] } },
{ "type": "Feature", "properties": { "Name": "望春园（东北门）", "Ctype": "公园", "Ntype": "110101", "Address": "菜场路１６７", "Telephone": null }, "geometry": { "type": "Point", "coordinates": [ 121.456000434166668, 30.902060818055556 ] } },
{ "type": "Feature", "properties": { "Name": "正阳体育公园", "Ctype": "公园", "Ntype": "110101", "Address": null, "Telephone": null }, "geometry": { "type": "Point", "coordinates": [ 121.482861855, 30.907913613888891 ] } },
{ "type": "Feature", "properties": { "Name": "古华公园（２号门）", "Ctype": "公园", "Ntype": "110101", "Address": null, "Telephone": null }, "geometry": { "type": "Point", "coordinates": [ 121.466508012222221, 30.917044832777776 ] } },
{ "type": "Feature", "properties": { "Name": "牡丹苑", "Ctype": "公园", "Ntype": "110101", "Address": null, "Telephone": null }, "geometry": { "type": "Point", "coordinates": [ 121.400021972777779, 30.962748480833334 ] } },
{ "type": "Feature", "properties": { "Name": "西渡公园", "Ctype": "公园", "Ntype": "110101", "Address": null, "Telephone": null }, "geometry": { "type": "Point", "coordinates": [ 121.43993833333333, 30.989491944444445 ] } },
{ "type": "Feature", "properties": { "Name": "古华公园", "Ctype": "公园", "Ntype": "110101", "Address": "解放中路８７号", "Telephone": null }, "geometry": { "type": "Point", "coordinates": [ 121.464978128611108, 30.918764808055553 ] } },
{ "type": "Feature", "properties": { "Name": "古华公园（１号门）", "Ctype": "公园", "Ntype": "110101", "Address": "解放中路２２０", "Telephone": null }, "geometry": { "type": "Point", "coordinates": [ 121.4631475, 30.916350277777777 ] } },
{ "type": "Feature", "properties": { "Name": "古华公园（西北门）", "Ctype": "公园", "Ntype": "110101", "Address": "解放中路８７号", "Telephone": null }, "geometry": { "type": "Point", "coordinates": [ 121.464427059166667, 30.919454597222224 ] } },
{ "type": "Feature", "properties": { "Name": "奉浦四季生态园（西门）", "Ctype": "公园", "Ntype": "110101", "Address": null, "Telephone": null }, "geometry": { "type": "Point", "coordinates": [ 121.467611188888895, 30.93313792361111 ] } },
{ "type": "Feature", "properties": { "Name": "牡丹苑（西南门）", "Ctype": "公园", "Ntype": "110101", "Address": null, "Telephone": null }, "geometry": { "type": "Point", "coordinates": [ 121.399663085833339, 30.962623155277775 ] } },
{ "type": "Feature", "properties": { "Name": "东篱园", "Ctype": "公园", "Ntype": "110101", "Address": null, "Telephone": null }, "geometry": { "type": "Point", "coordinates": [ 121.383243543888881, 30.949076605833334 ] } },
{ "type": "Feature", "properties": { "Name": "闵行滨江公园", "Ctype": "公园", "Ntype": "110101", "Address": null, "Telephone": null }, "geometry": { "type": "Point", "coordinates": [ 121.424089, 30.997026 ] } },
{ "type": "Feature", "properties": { "Name": "奉浦四季生态园", "Ctype": "公园", "Ntype": "110101", "Address": null, "Telephone": null }, "geometry": { "type": "Point", "coordinates": [ 121.47027567, 30.935185300833332 ] } },
{ "type": "Feature", "properties": { "Name": "古藤园（东门）", "Ctype": "公园", "Ntype": "110101", "Address": "临沧路１４８", "Telephone": null }, "geometry": { "type": "Point", "coordinates": [ 121.387459581111116, 31.002877875555555 ] } },
{ "type": "Feature", "properties": { "Name": "颛桥公园（西北２门）", "Ctype": "公园", "Ntype": "110101", "Address": null, "Telephone": null }, "geometry": { "type": "Point", "coordinates": [ 121.39167615, 31.06241097111111 ] } },
{ "type": "Feature", "properties": { "Name": "红园（北门）", "Ctype": "公园", "Ntype": "110101", "Address": "江川路３５４号", "Telephone": null }, "geometry": { "type": "Point", "coordinates": [ 121.413255, 31.004193 ] } },
{ "type": "Feature", "properties": { "Name": "颛桥公园（西北门）", "Ctype": "公园", "Ntype": "110101", "Address": "颛盛路５２５号", "Telephone": null }, "geometry": { "type": "Point", "coordinates": [ 121.390929781388891, 31.062025819444447 ] } },
{ "type": "Feature", "properties": { "Name": "小元国农业公园", "Ctype": "公园", "Ntype": "110101", "Address": null, "Telephone": null }, "geometry": { "type": "Point", "coordinates": [ 121.476771, 31.003365 ] } },
{ "type": "Feature", "properties": { "Name": "大学林", "Ctype": "植物园", "Ntype": "110103", "Address": null, "Telephone": null }, "geometry": { "type": "Point", "coordinates": [ 121.4539, 31.025914 ] } },
{ "type": "Feature", "properties": { "Name": "红园", "Ctype": "公园", "Ntype": "110101", "Address": "江川路３５４", "Telephone": null }, "geometry": { "type": "Point", "coordinates": [ 121.415451, 31.003499 ] } },
{ "type": "Feature", "properties": { "Name": "红园（东南门）", "Ctype": "公园", "Ntype": "110101", "Address": "江川路３５４", "Telephone": null }, "geometry": { "type": "Point", "coordinates": [ 121.415911, 31.003279 ] } },
{ "type": "Feature", "properties": { "Name": "闵行公园", "Ctype": "公园", "Ntype": "110101", "Address": "沪闵路２４９", "Telephone": "021-54700663|64304120" }, "geometry": { "type": "Point", "coordinates": [ 121.424521, 31.008503 ] } },
{ "type": "Feature", "properties": { "Name": "撷英园", "Ctype": "公园", "Ntype": "110101", "Address": null, "Telephone": null }, "geometry": { "type": "Point", "coordinates": [ 121.428403, 31.020886 ] } },
{ "type": "Feature", "properties": { "Name": "古藤园", "Ctype": "公园", "Ntype": "110101", "Address": "临沧路１４８", "Telephone": null }, "geometry": { "type": "Point", "coordinates": [ 121.387223307222229, 31.002862955833333 ] } },
{ "type": "Feature", "properties": { "Name": "金塔公园", "Ctype": "公园", "Ntype": "110101", "Address": null, "Telephone": null }, "geometry": { "type": "Point", "coordinates": [ 121.409598, 31.038371 ] } },
{ "type": "Feature", "properties": { "Name": "马桥古文化遗址公园", "Ctype": "公园", "Ntype": "110101", "Address": "北松公路８８８号", "Telephone": null }, "geometry": { "type": "Point", "coordinates": [ 121.391422222222218, 31.034183333333331 ] } },
{ "type": "Feature", "properties": { "Name": "小元国农业公园（北门）", "Ctype": "公园", "Ntype": "110101", "Address": null, "Telephone": null }, "geometry": { "type": "Point", "coordinates": [ 121.476771, 31.003413 ] } },
{ "type": "Feature", "properties": { "Name": "樱花林", "Ctype": "公园", "Ntype": "110101", "Address": null, "Telephone": null }, "geometry": { "type": "Point", "coordinates": [ 121.425788, 31.01583 ] } },
{ "type": "Feature", "properties": { "Name": "闵行公园（西南门）", "Ctype": "公园", "Ntype": "110101", "Address": "沪闵路２４９", "Telephone": null }, "geometry": { "type": "Point", "coordinates": [ 121.423032, 31.006812 ] } },
{ "type": "Feature", "properties": { "Name": "金塔公园（西北门）", "Ctype": "公园", "Ntype": "110101", "Address": null, "Telephone": null }, "geometry": { "type": "Point", "coordinates": [ 121.409591666666671, 31.038391666666669 ] } },
{ "type": "Feature", "properties": { "Name": "上海交通大学植物园（西门）", "Ctype": "植物园", "Ntype": "110103", "Address": null, "Telephone": null }, "geometry": { "type": "Point", "coordinates": [ 121.435031, 31.027805 ] } },
{ "type": "Feature", "properties": { "Name": "吴泾公园（东南门）", "Ctype": "公园", "Ntype": "110101", "Address": "剑川路２号", "Telephone": null }, "geometry": { "type": "Point", "coordinates": [ 121.478481445277779, 31.046351453888889 ] } },
{ "type": "Feature", "properties": { "Name": "颛桥公园", "Ctype": "公园", "Ntype": "110101", "Address": "颛盛路５２５号", "Telephone": null }, "geometry": { "type": "Point", "coordinates": [ 121.39132027777778, 31.061948333333333 ] } },
{ "type": "Feature", "properties": { "Name": "吴泾公园", "Ctype": "公园", "Ntype": "110101", "Address": "剑川路２号", "Telephone": "021-64528472|64528772" }, "geometry": { "type": "Point", "coordinates": [ 121.477528839722211, 31.046801291388892 ] } },
{ "type": "Feature", "properties": { "Name": "银杏公园", "Ctype": "公园", "Ntype": "110101", "Address": null, "Telephone": null }, "geometry": { "type": "Point", "coordinates": [ 121.411217719166658, 31.010996636388889 ] } },
{ "type": "Feature", "properties": { "Name": "上海交通大学植物园", "Ctype": "植物园", "Ntype": "110103", "Address": null, "Telephone": "021-54742459" }, "geometry": { "type": "Point", "coordinates": [ 121.436193333333321, 31.0277475 ] } },
{ "type": "Feature", "properties": { "Name": "上海交通大学闵行校区园林植物标本园", "Ctype": "植物园", "Ntype": "110103", "Address": null, "Telephone": null }, "geometry": { "type": "Point", "coordinates": [ 121.43506, 31.0278 ] } },
{ "type": "Feature", "properties": { "Name": "康健园（南门）", "Ctype": "公园", "Ntype": "110101", "Address": "冠生园路４５８", "Telephone": null }, "geometry": { "type": "Point", "coordinates": [ 121.422466382500005, 31.163108736111109 ] } },
{ "type": "Feature", "properties": { "Name": "梅馨陇韵（西南门）", "Ctype": "公园", "Ntype": "110101", "Address": null, "Telephone": null }, "geometry": { "type": "Point", "coordinates": [ 121.423000602777776, 31.091868770277777 ] } },
{ "type": "Feature", "properties": { "Name": "前滩休闲公园（１２号门）", "Ctype": "公园", "Ntype": "110101", "Address": "前滩大道６５０号", "Telephone": null }, "geometry": { "type": "Point", "coordinates": [ 121.467143640833328, 31.150294284722222 ] } },
{ "type": "Feature", "properties": { "Name": "梅陇休闲苑（南门）", "Ctype": "公园", "Ntype": "110101", "Address": "镇西路５５０", "Telephone": null }, "geometry": { "type": "Point", "coordinates": [ 121.409227777777772, 31.135561111111112 ] } },
{ "type": "Feature", "properties": { "Name": "前滩休闲公园（东南门）", "Ctype": "公园", "Ntype": "110101", "Address": "前滩大道５８０", "Telephone": null }, "geometry": { "type": "Point", "coordinates": [ 121.46565558499999, 31.149525120833335 ] } },
{ "type": "Feature", "properties": { "Name": "康健园（西门）", "Ctype": "公园", "Ntype": "110101", "Address": "桂林路９１", "Telephone": null }, "geometry": { "type": "Point", "coordinates": [ 121.419333327499999, 31.164122034166663 ] } },
{ "type": "Feature", "properties": { "Name": "莘城中央公园（东南门）", "Ctype": "公园", "Ntype": "110101", "Address": null, "Telephone": null }, "geometry": { "type": "Point", "coordinates": [ 121.387986111111104, 31.104845833333336 ] } },
{ "type": "Feature", "properties": { "Name": "上海植物园（３号门）", "Ctype": "植物园", "Ntype": "110103", "Address": "百色路９４０号", "Telephone": null }, "geometry": { "type": "Point", "coordinates": [ 121.439551767777772, 31.142585678055557 ] } },
{ "type": "Feature", "properties": { "Name": "世纪林", "Ctype": "公园", "Ntype": "110101", "Address": null, "Telephone": null }, "geometry": { "type": "Point", "coordinates": [ 121.404643825833332, 31.159497070277776 ] } },
{ "type": "Feature", "properties": { "Name": "上海植物园（２号门）", "Ctype": "植物园", "Ntype": "110103", "Address": "龙吴路９９７号", "Telephone": null }, "geometry": { "type": "Point", "coordinates": [ 121.449788278333344, 31.150065389444446 ] } },
{ "type": "Feature", "properties": { "Name": "梅陇休闲苑", "Ctype": "公园", "Ntype": "110101", "Address": "镇西路５５０", "Telephone": null }, "geometry": { "type": "Point", "coordinates": [ 121.408381, 31.134929 ] } },
{ "type": "Feature", "properties": { "Name": "上海植物园", "Ctype": "植物园", "Ntype": "110103", "Address": "龙吴路１１１１号", "Telephone": "021-54355125|54363369" }, "geometry": { "type": "Point", "coordinates": [ 121.44434, 31.147231 ] } },
{ "type": "Feature", "properties": { "Name": "上海植物园（４号门）", "Ctype": "植物园", "Ntype": "110103", "Address": "罗城路１５１号", "Telephone": null }, "geometry": { "type": "Point", "coordinates": [ 121.445811997777781, 31.152167733888888 ] } },
{ "type": "Feature", "properties": { "Name": "上海植物园（１号门）", "Ctype": "植物园", "Ntype": "110103", "Address": "龙吴路１１１１号", "Telephone": null }, "geometry": { "type": "Point", "coordinates": [ 121.450365072777785, 31.146365044444444 ] } },
{ "type": "Feature", "properties": { "Name": "北杨河小游园", "Ctype": "公园", "Ntype": "110101", "Address": null, "Telephone": null }, "geometry": { "type": "Point", "coordinates": [ 121.444675833333335, 31.134078333333335 ] } },
{ "type": "Feature", "properties": { "Name": "北杨河小游园（东南门）", "Ctype": "公园", "Ntype": "110101", "Address": null, "Telephone": null }, "geometry": { "type": "Point", "coordinates": [ 121.444974722222213, 31.13353138888889 ] } },
{ "type": "Feature", "properties": { "Name": "田园公园", "Ctype": "公园", "Ntype": "110101", "Address": "梅州路４４５", "Telephone": null }, "geometry": { "type": "Point", "coordinates": [ 121.395346, 31.087246 ] } },
{ "type": "Feature", "properties": { "Name": "双拥公园", "Ctype": "公园", "Ntype": "110101", "Address": "古美路", "Telephone": null }, "geometry": { "type": "Point", "coordinates": [ 121.387296666666657, 31.1347425 ] } },
{ "type": "Feature", "properties": { "Name": "四季花卉温室", "Ctype": "植物园", "Ntype": "110103", "Address": null, "Telephone": null }, "geometry": { "type": "Point", "coordinates": [ 121.447733, 31.147938 ] } },
{ "type": "Feature", "properties": { "Name": "草药园", "Ctype": "植物园", "Ntype": "110103", "Address": null, "Telephone": null }, "geometry": { "type": "Point", "coordinates": [ 121.448494, 31.147705 ] } },
{ "type": "Feature", "properties": { "Name": "植物大楼", "Ctype": "植物园", "Ntype": "110103", "Address": null, "Telephone": null }, "geometry": { "type": "Point", "coordinates": [ 121.44408, 31.146016 ] } },
{ "type": "Feature", "properties": { "Name": "兰室", "Ctype": "植物园", "Ntype": "110103", "Address": null, "Telephone": null }, "geometry": { "type": "Point", "coordinates": [ 121.446205, 31.146753 ] } },
{ "type": "Feature", "properties": { "Name": "上海植物园展览温室", "Ctype": "植物园", "Ntype": "110103", "Address": null, "Telephone": null }, "geometry": { "type": "Point", "coordinates": [ 121.447336, 31.147296 ] } },
{ "type": "Feature", "properties": { "Name": "槭树园", "Ctype": "植物园", "Ntype": "110103", "Address": null, "Telephone": null }, "geometry": { "type": "Point", "coordinates": [ 121.438923, 31.143466 ] } },
{ "type": "Feature", "properties": { "Name": "桂花园", "Ctype": "植物园", "Ntype": "110103", "Address": null, "Telephone": null }, "geometry": { "type": "Point", "coordinates": [ 121.441115, 31.143605 ] } },
{ "type": "Feature", "properties": { "Name": "杜鹃园", "Ctype": "植物园", "Ntype": "110103", "Address": null, "Telephone": null }, "geometry": { "type": "Point", "coordinates": [ 121.439726, 31.146263 ] } },
{ "type": "Feature", "properties": { "Name": "国际友好城市公园", "Ctype": "公园", "Ntype": "110101", "Address": null, "Telephone": null }, "geometry": { "type": "Point", "coordinates": [ 121.471851, 31.158184 ] } },
{ "type": "Feature", "properties": { "Name": "盆景园", "Ctype": "植物园", "Ntype": "110103", "Address": null, "Telephone": null }, "geometry": { "type": "Point", "coordinates": [ 121.445201, 31.147755 ] } },
{ "type": "Feature", "properties": { "Name": "梅馨陇韵", "Ctype": "公园", "Ntype": "110101", "Address": null, "Telephone": null }, "geometry": { "type": "Point", "coordinates": [ 121.423014741944456, 31.091945278055558 ] } },
{ "type": "Feature", "properties": { "Name": "木兰园", "Ctype": "植物园", "Ntype": "110103", "Address": null, "Telephone": null }, "geometry": { "type": "Point", "coordinates": [ 121.441971, 31.146589 ] } },
{ "type": "Feature", "properties": { "Name": "嘉川路小游园", "Ctype": "公园", "Ntype": "110101", "Address": "凌云路２８３", "Telephone": null }, "geometry": { "type": "Point", "coordinates": [ 121.419727, 31.135327 ] } },
{ "type": "Feature", "properties": { "Name": "莘城中央公园", "Ctype": "公园", "Ntype": "110101", "Address": "闵城路１８０号", "Telephone": "021-54152600" }, "geometry": { "type": "Point", "coordinates": [ 121.38676, 31.105161 ] } },
{ "type": "Feature", "properties": { "Name": "古美人口文化公园", "Ctype": "公园", "Ntype": "110101", "Address": "平南路与莲花路交叉口西南角", "Telephone": null }, "geometry": { "type": "Point", "coordinates": [ 121.396662222222218, 31.152162222222223 ] } },
{ "type": "Feature", "properties": { "Name": "长青园", "Ctype": "公园", "Ntype": "110101", "Address": "杨新路２８１弄３２号", "Telephone": null }, "geometry": { "type": "Point", "coordinates": [ 121.490129123333332, 31.161197645277777 ] } },
{ "type": "Feature", "properties": { "Name": "莘庄梅园", "Ctype": "公园", "Ntype": "110101", "Address": null, "Telephone": null }, "geometry": { "type": "Point", "coordinates": [ 121.392431, 31.114113 ] } },
{ "type": "Feature", "properties": { "Name": "古美体育公园", "Ctype": "公园", "Ntype": "110101", "Address": null, "Telephone": null }, "geometry": { "type": "Point", "coordinates": [ 121.406547580277774, 31.151748318055557 ] } },
{ "type": "Feature", "properties": { "Name": "前滩休闲公园", "Ctype": "公园", "Ntype": "110101", "Address": "前滩大道５０６号", "Telephone": null }, "geometry": { "type": "Point", "coordinates": [ 121.46785222222222, 31.152073888888889 ] } },
{ "type": "Feature", "properties": { "Name": "上海植物园（南门）", "Ctype": "植物园", "Ntype": "110103", "Address": null, "Telephone": null }, "geometry": { "type": "Point", "coordinates": [ 121.445442, 31.145047 ] } },
{ "type": "Feature", "properties": { "Name": "田园公园（西北门）", "Ctype": "公园", "Ntype": "110101", "Address": "梅州路４４５", "Telephone": null }, "geometry": { "type": "Point", "coordinates": [ 121.395271, 31.087742 ] } },
{ "type": "Feature", "properties": { "Name": "嘉和公园", "Ctype": "公园", "Ntype": "110101", "Address": "梅陇西路６６６", "Telephone": null }, "geometry": { "type": "Point", "coordinates": [ 121.401123731388893, 31.126922130833332 ] } },
{ "type": "Feature", "properties": { "Name": "古美科普公园", "Ctype": "公园", "Ntype": "110101", "Address": "古美路", "Telephone": null }, "geometry": { "type": "Point", "coordinates": [ 121.405521, 31.141487 ] } },
{ "type": "Feature", "properties": { "Name": "梅陇镇廉政文化主体公园", "Ctype": "公园", "Ntype": "110101", "Address": null, "Telephone": null }, "geometry": { "type": "Point", "coordinates": [ 121.409127368888889, 31.130486359722223 ] } },
{ "type": "Feature", "properties": { "Name": "梅陇公园", "Ctype": "公园", "Ntype": "110101", "Address": "上中西路７８８", "Telephone": null }, "geometry": { "type": "Point", "coordinates": [ 121.415924011388881, 31.131807877499998 ] } },
{ "type": "Feature", "properties": { "Name": "康健绿苑", "Ctype": "公园", "Ntype": "110101", "Address": "康健新村", "Telephone": null }, "geometry": { "type": "Point", "coordinates": [ 121.420364311944454, 31.153733181388887 ] } },
{ "type": "Feature", "properties": { "Name": "前滩休闲公园（８号门）", "Ctype": "公园", "Ntype": "110101", "Address": null, "Telephone": null }, "geometry": { "type": "Point", "coordinates": [ 121.471404206111117, 31.153539352499998 ] } },
{ "type": "Feature", "properties": { "Name": "前滩休闲公园（１３号门）", "Ctype": "公园", "Ntype": "110101", "Address": null, "Telephone": null }, "geometry": { "type": "Point", "coordinates": [ 121.463549181666664, 31.148263289722223 ] } },
{ "type": "Feature", "properties": { "Name": "莘城中央公园（西北门）", "Ctype": "公园", "Ntype": "110101", "Address": "闵城路１８０号", "Telephone": null }, "geometry": { "type": "Point", "coordinates": [ 121.385411797222218, 31.105372342777777 ] } },
{ "type": "Feature", "properties": { "Name": "莘庄梅园（西南门）", "Ctype": "公园", "Ntype": "110101", "Address": null, "Telephone": null }, "geometry": { "type": "Point", "coordinates": [ 121.39219, 31.113954 ] } },
{ "type": "Feature", "properties": { "Name": "桂林公园（东南门）", "Ctype": "公园", "Ntype": "110101", "Address": "桂林路１２８", "Telephone": null }, "geometry": { "type": "Point", "coordinates": [ 121.418661168888889, 31.164517309444445 ] } },
{ "type": "Feature", "properties": { "Name": "嘉和公园（西北门）", "Ctype": "公园", "Ntype": "110101", "Address": "梅陇西路６６６", "Telephone": null }, "geometry": { "type": "Point", "coordinates": [ 121.400365246388887, 31.127384881944447 ] } },
{ "type": "Feature", "properties": { "Name": "梅陇公园（东南门）", "Ctype": "公园", "Ntype": "110101", "Address": "上中西路７８８", "Telephone": null }, "geometry": { "type": "Point", "coordinates": [ 121.416296260833334, 31.130947752499999 ] } },
{ "type": "Feature", "properties": { "Name": "前滩休闲公园（１１号门）", "Ctype": "公园", "Ntype": "110101", "Address": "前滩大道５０６号", "Telephone": null }, "geometry": { "type": "Point", "coordinates": [ 121.468671914444442, 31.151133829722223 ] } },
{ "type": "Feature", "properties": { "Name": "集心公园（东南门）", "Ctype": "公园", "Ntype": "110101", "Address": null, "Telephone": null }, "geometry": { "type": "Point", "coordinates": [ 121.414291894444446, 31.114815338888889 ] } },
{ "type": "Feature", "properties": { "Name": "康健园（东门）", "Ctype": "公园", "Ntype": "110101", "Address": "冠生园路４１８", "Telephone": null }, "geometry": { "type": "Point", "coordinates": [ 121.424802938055564, 31.163327576944447 ] } },
{ "type": "Feature", "properties": { "Name": "前滩休闲公园（１０号门）", "Ctype": "公园", "Ntype": "110101", "Address": null, "Telephone": null }, "geometry": { "type": "Point", "coordinates": [ 121.470218093333344, 31.152102994166668 ] } },
{ "type": "Feature", "properties": { "Name": "前滩休闲公园（９号门）", "Ctype": "公园", "Ntype": "110101", "Address": null, "Telephone": null }, "geometry": { "type": "Point", "coordinates": [ 121.470730559166668, 31.152362984166668 ] } },
{ "type": "Feature", "properties": { "Name": "古美科普公园（东北门）", "Ctype": "公园", "Ntype": "110101", "Address": null, "Telephone": null }, "geometry": { "type": "Point", "coordinates": [ 121.406046, 31.141391 ] } },
{ "type": "Feature", "properties": { "Name": "华泾公园", "Ctype": "公园", "Ntype": "110101", "Address": "华泾路１９０号", "Telephone": null }, "geometry": { "type": "Point", "coordinates": [ 121.454625, 31.120455555555555 ] } },
{ "type": "Feature", "properties": { "Name": "集心公园", "Ctype": "公园", "Ntype": "110101", "Address": null, "Telephone": null }, "geometry": { "type": "Point", "coordinates": [ 121.41425293333333, 31.114880692777778 ] } },
{ "type": "Feature", "properties": { "Name": "康健园", "Ctype": "公园", "Ntype": "110101", "Address": "冠生园路４５８", "Telephone": "021-64365081" }, "geometry": { "type": "Point", "coordinates": [ 121.422073, 31.164005 ] } },
{ "type": "Feature", "properties": { "Name": "华城休闲绿地", "Ctype": "公园", "Ntype": "110101", "Address": null, "Telephone": null }, "geometry": { "type": "Point", "coordinates": [ 121.489993218333339, 31.159500868055556 ] } },
{ "type": "Feature", "properties": { "Name": "上海植物园环境保护植物区", "Ctype": "植物园", "Ntype": "110103", "Address": "龙吴路１１１１", "Telephone": null }, "geometry": { "type": "Point", "coordinates": [ 121.444981553888894, 31.145486925 ] } },
{ "type": "Feature", "properties": { "Name": "康健园（北门）", "Ctype": "公园", "Ntype": "110101", "Address": "漕河泾镇", "Telephone": null }, "geometry": { "type": "Point", "coordinates": [ 121.424028432777789, 31.164766853055557 ] } },
{ "type": "Feature", "properties": { "Name": "蓬莱公园（西南门）", "Ctype": "公园", "Ntype": "110101", "Address": "南车站路３５０", "Telephone": null }, "geometry": { "type": "Point", "coordinates": [ 121.490280219166664, 31.206359320833332 ] } },
{ "type": "Feature", "properties": { "Name": "新虹桥中心花园（西北门）", "Ctype": "公园", "Ntype": "110101", "Address": "延安西路２２３８", "Telephone": null }, "geometry": { "type": "Point", "coordinates": [ 121.403680555555553, 31.201383333333332 ] } },
{ "type": "Feature", "properties": { "Name": "衡山公园（东南门）", "Ctype": "公园", "Ntype": "110101", "Address": "广元路２", "Telephone": null }, "geometry": { "type": "Point", "coordinates": [ 121.442921337499996, 31.200147454166665 ] } },
{ "type": "Feature", "properties": { "Name": "蝴蝶湾花园（东南门）", "Ctype": "公园", "Ntype": "110101", "Address": "康定东路５０", "Telephone": null }, "geometry": { "type": "Point", "coordinates": [ 121.45608973611111, 31.237573817777779 ] } },
{ "type": "Feature", "properties": { "Name": "水霞公园（西南门）", "Ctype": "公园", "Ntype": "110101", "Address": "仙霞路５０５", "Telephone": null }, "geometry": { "type": "Point", "coordinates": [ 121.390050660555559, 31.20607061388889 ] } },
{ "type": "Feature", "properties": { "Name": "武宁公园南区（西北门）", "Ctype": "公园", "Ntype": "110101", "Address": "石泉路４５０", "Telephone": null }, "geometry": { "type": "Point", "coordinates": [ 121.41365576222222, 31.246141785277779 ] } },
{ "type": "Feature", "properties": { "Name": "滨江公园（３号门）", "Ctype": "公园", "Ntype": "110101", "Address": null, "Telephone": null }, "geometry": { "type": "Point", "coordinates": [ 121.497206944444443, 31.240316666666665 ] } },
{ "type": "Feature", "properties": { "Name": "中山公园（３号门）", "Ctype": "公园", "Ntype": "110101", "Address": "万航渡路１５６２", "Telephone": null }, "geometry": { "type": "Point", "coordinates": [ 121.414762253333336, 31.22328694222222 ] } },
{ "type": "Feature", "properties": { "Name": "新虹桥中心花园（南２门）", "Ctype": "公园", "Ntype": "110101", "Address": "虹桥路１５０１", "Telephone": null }, "geometry": { "type": "Point", "coordinates": [ 121.40135308166667, 31.199897189722222 ] } },
{ "type": "Feature", "properties": { "Name": "兰溪青年公园（西南门）", "Ctype": "公园", "Ntype": "110101", "Address": "兰溪路１５２号", "Telephone": null }, "geometry": { "type": "Point", "coordinates": [ 121.404335, 31.240439 ] } },
{ "type": "Feature", "properties": { "Name": "普陀公园（东南门）", "Ctype": "公园", "Ntype": "110101", "Address": "光复西路２５５", "Telephone": null }, "geometry": { "type": "Point", "coordinates": [ 121.428874586111121, 31.24473517638889 ] } },
{ "type": "Feature", "properties": { "Name": "虹桥河滨公园（东南门）", "Ctype": "公园", "Ntype": "110101", "Address": "长宁路２０２８", "Telephone": null }, "geometry": { "type": "Point", "coordinates": [ 121.400729, 31.218708 ] } },
{ "type": "Feature", "properties": { "Name": "东安公园（西北门）", "Ctype": "公园", "Ntype": "110101", "Address": "中山南二路８１１", "Telephone": null }, "geometry": { "type": "Point", "coordinates": [ 121.454278, 31.1861 ] } },
{ "type": "Feature", "properties": { "Name": "后滩公园（南１门）", "Ctype": "公园", "Ntype": "110101", "Address": "世博大道２２００", "Telephone": null }, "geometry": { "type": "Point", "coordinates": [ 121.473800998333331, 31.183715006388887 ] } },
{ "type": "Feature", "properties": { "Name": "滨江公园（５号门）", "Ctype": "公园", "Ntype": "110101", "Address": "明珠塔路规二路路口", "Telephone": null }, "geometry": { "type": "Point", "coordinates": [ 121.497046944444449, 31.237931944444444 ] } },
{ "type": "Feature", "properties": { "Name": "复兴公园（东南门）", "Ctype": "公园", "Ntype": "110101", "Address": "复兴中路５１６", "Telephone": null }, "geometry": { "type": "Point", "coordinates": [ 121.470539, 31.215756 ] } },
{ "type": "Feature", "properties": { "Name": "复兴广场（东南门）", "Ctype": "公园", "Ntype": "110101", "Address": "重庆南路２０８", "Telephone": null }, "geometry": { "type": "Point", "coordinates": [ 121.470701652499997, 31.216328726111112 ] } },
{ "type": "Feature", "properties": { "Name": "襄阳公园（南门）", "Ctype": "公园", "Ntype": "110101", "Address": "淮海中路１００８号", "Telephone": null }, "geometry": { "type": "Point", "coordinates": [ 121.456989, 31.216094 ] } },
{ "type": "Feature", "properties": { "Name": "番禺绿地（西南门）", "Ctype": "公园", "Ntype": "110101", "Address": "虹桥路６３７", "Telephone": null }, "geometry": { "type": "Point", "coordinates": [ 121.42677, 31.194476 ] } },
{ "type": "Feature", "properties": { "Name": "长寿健康主题公园（西南门）", "Ctype": "公园", "Ntype": "110101", "Address": "长寿路２６０号", "Telephone": null }, "geometry": { "type": "Point", "coordinates": [ 121.438842334444445, 31.24269971861111 ] } },
{ "type": "Feature", "properties": { "Name": "名都体育公园（西南门）", "Ctype": "公园", "Ntype": "110101", "Address": null, "Telephone": null }, "geometry": { "type": "Point", "coordinates": [ 121.397877, 31.189042 ] } },
{ "type": "Feature", "properties": { "Name": "桂林公园（西北２门）", "Ctype": "公园", "Ntype": "110101", "Address": "桂林路１３８", "Telephone": null }, "geometry": { "type": "Point", "coordinates": [ 121.4183758, 31.166597073888887 ] } },
{ "type": "Feature", "properties": { "Name": "复兴公园（北门）", "Ctype": "公园", "Ntype": "110101", "Address": "雁荡路１０９号", "Telephone": null }, "geometry": { "type": "Point", "coordinates": [ 121.469651, 31.218553 ] } },
{ "type": "Feature", "properties": { "Name": "憩园（东北门）", "Ctype": "公园", "Ntype": "110101", "Address": null, "Telephone": null }, "geometry": { "type": "Point", "coordinates": [ 121.44845, 31.186891 ] } },
{ "type": "Feature", "properties": { "Name": "凯桥绿地（东北１门）", "Ctype": "公园", "Ntype": "110101", "Address": null, "Telephone": null }, "geometry": { "type": "Point", "coordinates": [ 121.418427777777779, 31.211830555555554 ] } },
{ "type": "Feature", "properties": { "Name": "交通公园（西北门）", "Ctype": "公园", "Ntype": "110101", "Address": "新马路２６２", "Telephone": null }, "geometry": { "type": "Point", "coordinates": [ 121.467518796666667, 31.247945435 ] } },
{ "type": "Feature", "properties": { "Name": "静安雕塑公园（东南２门）", "Ctype": "公园", "Ntype": "110101", "Address": null, "Telephone": null }, "geometry": { "type": "Point", "coordinates": [ 121.462443774166672, 31.233442276944444 ] } },
{ "type": "Feature", "properties": { "Name": "海棠公园（西北门）", "Ctype": "公园", "Ntype": "110101", "Address": "真北路１９０２弄－１－６５号", "Telephone": null }, "geometry": { "type": "Point", "coordinates": [ 121.389716035, 31.247821449444441 ] } },
{ "type": "Feature", "properties": { "Name": "蔓趣公园（南门）", "Ctype": "公园", "Ntype": "110101", "Address": null, "Telephone": null }, "geometry": { "type": "Point", "coordinates": [ 121.500282389444436, 31.173379448888891 ] } },
{ "type": "Feature", "properties": { "Name": "海棠公园（东南门）", "Ctype": "公园", "Ntype": "110101", "Address": null, "Telephone": null }, "geometry": { "type": "Point", "coordinates": [ 121.39057, 31.247248 ] } },
{ "type": "Feature", "properties": { "Name": "上南公园（西北门）", "Ctype": "公园", "Ntype": "110101", "Address": "德州路１９８", "Telephone": null }, "geometry": { "type": "Point", "coordinates": [ 121.497508, 31.168421 ] } },
{ "type": "Feature", "properties": { "Name": "世博公园（１号门）", "Ctype": "公园", "Ntype": "110101", "Address": null, "Telephone": null }, "geometry": { "type": "Point", "coordinates": [ 121.490910101944451, 31.188052300277779 ] } },
{ "type": "Feature", "properties": { "Name": "黄浦公园（西门）", "Ctype": "公园", "Ntype": "110101", "Address": "中山东一路５００号", "Telephone": null }, "geometry": { "type": "Point", "coordinates": [ 121.490405, 31.241625833333334 ] } },
{ "type": "Feature", "properties": { "Name": "长寿健康主题公园", "Ctype": "公园", "Ntype": "110101", "Address": "长寿路２６０号", "Telephone": "021-52521386" }, "geometry": { "type": "Point", "coordinates": [ 121.439492, 31.243408 ] } },
{ "type": "Feature", "properties": { "Name": "长风公园（４号门）", "Ctype": "公园", "Ntype": "110101", "Address": "大渡河路４５１", "Telephone": null }, "geometry": { "type": "Point", "coordinates": [ 121.396431211666666, 31.224450537222225 ] } },
{ "type": "Feature", "properties": { "Name": "长风公园（东门）", "Ctype": "公园", "Ntype": "110101", "Address": "枣阳路８０９附近", "Telephone": null }, "geometry": { "type": "Point", "coordinates": [ 121.402548206388886, 31.224130045277779 ] } },
{ "type": "Feature", "properties": { "Name": "北外滩滨江绿地（西北１门）", "Ctype": "公园", "Ntype": "110101", "Address": null, "Telephone": null }, "geometry": { "type": "Point", "coordinates": [ 121.497849, 31.247926 ] } },
{ "type": "Feature", "properties": { "Name": "延中公园（成都南路）", "Ctype": "公园", "Ntype": "110101", "Address": null, "Telephone": null }, "geometry": { "type": "Point", "coordinates": [ 121.467088611111109, 31.222601944444445 ] } },
{ "type": "Feature", "properties": { "Name": "祥和公园", "Ctype": "公园", "Ntype": "110101", "Address": "真光路１１２１甲", "Telephone": null }, "geometry": { "type": "Point", "coordinates": [ 121.379738, 31.242235 ] } },
{ "type": "Feature", "properties": { "Name": "长风公园", "Ctype": "公园", "Ntype": "110101", "Address": "大度河路１８９号", "Telephone": "021-62453270" }, "geometry": { "type": "Point", "coordinates": [ 121.399476198055552, 31.22397419833333 ] } },
{ "type": "Feature", "properties": { "Name": "南京西路绿地", "Ctype": "公园", "Ntype": "110101", "Address": null, "Telephone": null }, "geometry": { "type": "Point", "coordinates": [ 121.441660277777785, 31.220784166666668 ] } },
{ "type": "Feature", "properties": { "Name": "延中公园（金陵西路）", "Ctype": "公园", "Ntype": "110101", "Address": "南阳路１８３弄１号楼２０２室", "Telephone": "021-53064233" }, "geometry": { "type": "Point", "coordinates": [ 121.471383055555549, 31.223211111111109 ] } },
{ "type": "Feature", "properties": { "Name": "仙霞公园", "Ctype": "公园", "Ntype": "110101", "Address": null, "Telephone": null }, "geometry": { "type": "Point", "coordinates": [ 121.390882432777772, 31.204374728611111 ] } },
{ "type": "Feature", "properties": { "Name": "兰溪青年公园", "Ctype": "公园", "Ntype": "110101", "Address": "兰溪路１５２号", "Telephone": "021-62547327" }, "geometry": { "type": "Point", "coordinates": [ 121.404795, 31.240864 ] } },
{ "type": "Feature", "properties": { "Name": "天山公园", "Ctype": "公园", "Ntype": "110101", "Address": "延安西路１７３１", "Telephone": "021-62594887" }, "geometry": { "type": "Point", "coordinates": [ 121.415788367777779, 31.210225648888891 ] } },
{ "type": "Feature", "properties": { "Name": "虹桥公园", "Ctype": "公园", "Ntype": "110101", "Address": "遵义路１０１号", "Telephone": "021-62599446" }, "geometry": { "type": "Point", "coordinates": [ 121.40555, 31.206156 ] } },
{ "type": "Feature", "properties": { "Name": "徐家汇公园（西门）", "Ctype": "公园", "Ntype": "110101", "Address": null, "Telephone": null }, "geometry": { "type": "Point", "coordinates": [ 121.440577, 31.196282 ] } },
{ "type": "Feature", "properties": { "Name": "长风公园（３号门）", "Ctype": "公园", "Ntype": "110101", "Address": "怒江路１４０弄１１", "Telephone": null }, "geometry": { "type": "Point", "coordinates": [ 121.399318151666662, 31.228508843333334 ] } },
{ "type": "Feature", "properties": { "Name": "衡山公园", "Ctype": "公园", "Ntype": "110101", "Address": "广元路２", "Telephone": "021-64727577" }, "geometry": { "type": "Point", "coordinates": [ 121.442097, 31.200682 ] } },
{ "type": "Feature", "properties": { "Name": "静安公园", "Ctype": "公园", "Ntype": "110101", "Address": "华山路１８９", "Telephone": "021-62483238" }, "geometry": { "type": "Point", "coordinates": [ 121.446707, 31.222106 ] } },
{ "type": "Feature", "properties": { "Name": "华山儿童公园", "Ctype": "公园", "Ntype": "110101", "Address": "华山路１５７５", "Telephone": null }, "geometry": { "type": "Point", "coordinates": [ 121.434656, 31.204134 ] } },
{ "type": "Feature", "properties": { "Name": "长风公园（２号门）", "Ctype": "公园", "Ntype": "110101", "Address": "枣阳路５２５", "Telephone": null }, "geometry": { "type": "Point", "coordinates": [ 121.401836260555555, 31.228961569166664 ] } },
{ "type": "Feature", "properties": { "Name": "长风公园（１号门）", "Ctype": "公园", "Ntype": "110101", "Address": "大渡河路１８９", "Telephone": null }, "geometry": { "type": "Point", "coordinates": [ 121.39781, 31.221263 ] } },
{ "type": "Feature", "properties": { "Name": "交通公园", "Ctype": "公园", "Ntype": "110101", "Address": "新马路２６２", "Telephone": null }, "geometry": { "type": "Point", "coordinates": [ 121.467539, 31.247904 ] } },
{ "type": "Feature", "properties": { "Name": "济阳公园", "Ctype": "公园", "Ntype": "110101", "Address": "耀华路６００", "Telephone": "021-58452940" }, "geometry": { "type": "Point", "coordinates": [ 121.479853, 31.169128 ] } },
{ "type": "Feature", "properties": { "Name": "凯桥绿地（东北２门）", "Ctype": "公园", "Ntype": "110101", "Address": "华阳路", "Telephone": null }, "geometry": { "type": "Point", "coordinates": [ 121.418733333333336, 31.211319444444445 ] } },
{ "type": "Feature", "properties": { "Name": "梅川公园", "Ctype": "公园", "Ntype": "110101", "Address": "武宁路２３６１", "Telephone": "021-52811866" }, "geometry": { "type": "Point", "coordinates": [ 121.393611653611117, 31.244386121944444 ] } },
{ "type": "Feature", "properties": { "Name": "天原公园", "Ctype": "公园", "Ntype": "110101", "Address": "水城路７３５", "Telephone": "021-62596697" },