{
"type": "FeatureCollection",
"crs": { "type": "name", "properties": { "name": "urn:ogc:def:crs:OGC:1.3:CRS84" } },
"features": [
{ "type": "Feature", "properties": { "Name": "金山北站", "Ctype": "火车站", "Ntype": "150200", "Address": "兴豪路１２８８号", "Telephone": null }, "geometry": { "type": "Point", "coordinates": [ 121.089578611111108, 30.894221388888887 ] } },
{ "type": "Feature", "properties": { "Name": "新浜站", "Ctype": "火车站", "Ntype": "150200", "Address": null, "Telephone": null }, "geometry": { "type": "Point", "coordinates": [ 121.066893333333326, 30.93559611111111 ] } },
{ "type": "Feature", "properties": { "Name": "松江南站", "Ctype": "火车站", "Ntype": "150200", "Address": "盐仓路", "Telephone": null }, "geometry": { "type": "Point", "coordinates": [ 121.229986944444434, 30.983373333333333 ] } },
{ "type": "Feature", "properties": { "Name": "松江站", "Ctype": "火车站", "Ntype": "150200", "Address": "人民南路１号", "Telephone": null }, "geometry": { "type": "Point", "coordinates": [ 121.227925, 31.000235555555555 ] } },
{ "type": "Feature", "properties": { "Name": "安亭站", "Ctype": "火车站", "Ntype": "150200", "Address": null, "Telephone": null }, "geometry": { "type": "Point", "coordinates": [ 121.180072, 31.304796 ] } },
{ "type": "Feature", "properties": { "Name": "安亭北站", "Ctype": "火车站", "Ntype": "150200", "Address": "安亭镇宝安公路５６７８号", "Telephone": null }, "geometry": { "type": "Point", "coordinates": [ 121.15858472222223, 31.314982222222223 ] } },
{ "type": "Feature", "properties": { "Name": "金山卫站", "Ctype": "火车站", "Ntype": "150200", "Address": "隆安东路", "Telephone": null }, "geometry": { "type": "Point", "coordinates": [ 121.362684722222212, 30.72822972222222 ] } },
{ "type": "Feature", "properties": { "Name": "山阳站", "Ctype": "火车站", "Ntype": "150200", "Address": null, "Telephone": null }, "geometry": { "type": "Point", "coordinates": [ 121.3677, 30.7764025 ] } },
{ "type": "Feature", "properties": { "Name": "金山园区站", "Ctype": "火车站", "Ntype": "150200", "Address": "漕泾镇天工路", "Telephone": null }, "geometry": { "type": "Point", "coordinates": [ 121.367449722222233, 30.829966944444443 ] } },
{ "type": "Feature", "properties": { "Name": "亭林站", "Ctype": "火车站", "Ntype": "150200", "Address": null, "Telephone": null }, "geometry": { "type": "Point", "coordinates": [ 121.358483344166658, 30.894812011666666 ] } },
{ "type": "Feature", "properties": { "Name": "叶榭站", "Ctype": "火车站", "Ntype": "150200", "Address": "济众路１１０号", "Telephone": null }, "geometry": { "type": "Point", "coordinates": [ 121.329533420277784, 30.94037462027778 ] } },
{ "type": "Feature", "properties": { "Name": "车墩站", "Ctype": "火车站", "Ntype": "150200", "Address": null, "Telephone": null }, "geometry": { "type": "Point", "coordinates": [ 121.320586666666671, 31.005133055555557 ] } },
{ "type": "Feature", "properties": { "Name": "春申站", "Ctype": "火车站", "Ntype": "150200", "Address": null, "Telephone": null }, "geometry": { "type": "Point", "coordinates": [ 121.354192777777769, 31.079415833333332 ] } },
{ "type": "Feature", "properties": { "Name": "新桥站", "Ctype": "火车站", "Ntype": "150200", "Address": null, "Telephone": null }, "geometry": { "type": "Point", "coordinates": [ 121.323752, 31.059144 ] } },
{ "type": "Feature", "properties": { "Name": "上海虹桥站", "Ctype": "火车站", "Ntype": "150200", "Address": "申昆路１５００号", "Telephone": "021-51245555" }, "geometry": { "type": "Point", "coordinates": [ 121.320789722222216, 31.194285277777777 ] } },
{ "type": "Feature", "properties": { "Name": "封浜站", "Ctype": "火车站", "Ntype": "150200", "Address": "封浜镇", "Telephone": null }, "geometry": { "type": "Point", "coordinates": [ 121.2891613888889, 31.256719444444446 ] } },
{ "type": "Feature", "properties": { "Name": "南翔北站", "Ctype": "火车站", "Ntype": "150200", "Address": "南翔镇", "Telephone": null }, "geometry": { "type": "Point", "coordinates": [ 121.309253611111117, 31.281559166666668 ] } },
{ "type": "Feature", "properties": { "Name": "上海南站", "Ctype": "火车站", "Ntype": "150200", "Address": "沪闵路９００１号", "Telephone": null }, "geometry": { "type": "Point", "coordinates": [ 121.429440277777772, 31.153230555555556 ] } },
{ "type": "Feature", "properties": { "Name": "金山铁卫上海南站", "Ctype": "火车站", "Ntype": "150200", "Address": "沪闵路９００１号", "Telephone": null }, "geometry": { "type": "Point", "coordinates": [ 121.428985555555556, 31.1528225 ] } },
{ "type": "Feature", "properties": { "Name": "上海站", "Ctype": "火车站", "Ntype": "150200", "Address": "秣陵路３０３号", "Telephone": "021-63179090" }, "geometry": { "type": "Point", "coordinates": [ 121.455210833333339, 31.248773888888888 ] } },
{ "type": "Feature", "properties": { "Name": "北郊站", "Ctype": "火车站", "Ntype": "150200", "Address": "寿阳路１５００", "Telephone": null }, "geometry": { "type": "Point", "coordinates": [ 121.452453333333338, 31.301069444444447 ] } },
{ "type": "Feature", "properties": { "Name": "上海西站", "Ctype": "火车站", "Ntype": "150200", "Address": "桃浦路２２号", "Telephone": "021-51241022" }, "geometry": { "type": "Point", "coordinates": [ 121.403088888888888, 31.262886111111111 ] } },
{ "type": "Feature", "properties": { "Name": "何家湾站", "Ctype": "火车站", "Ntype": "150200", "Address": "逸仙路３００１号", "Telephone": null }, "geometry": { "type": "Point", "coordinates": [ 121.498221388888894, 31.340046944444442 ] } },
{ "type": "Feature", "properties": { "Name": "吴淞站", "Ctype": "火车站", "Ntype": "150200", "Address": "淞浦路１００", "Telephone": "021-56671205" }, "geometry": { "type": "Point", "coordinates": [ 121.50116083333333, 31.375210833333334 ] } },
{ "type": "Feature", "properties": { "Name": "芦潮港站", "Ctype": "火车站", "Ntype": "150200", "Address": "老芦公路１８５５", "Telephone": null }, "geometry": { "type": "Point", "coordinates": [ 121.851084798055552, 30.885303819444445 ] } },
{ "type": "Feature", "properties": { "Name": "上海市芦潮港站", "Ctype": "火车站", "Ntype": "150200", "Address": null, "Telephone": null }, "geometry": { "type": "Point", "coordinates": [ 121.846229, 30.852884 ] } }
]
}
