{
"type": "FeatureCollection",
"crs": { "type": "name", "properties": { "name": "urn:ogc:def:crs:OGC:1.3:CRS84" } },
"features": [
{ "type": "Feature", "properties": { "Name": "上海交通大学附属第一人民医院实验动物中心（南门）", "Ctype": "三级甲等医院", "Ntype": "090101", "Address": null, "Telephone": null }, "geometry": { "type": "Point", "coordinates": [ 121.229475108888892, 31.040565877500001 ] } },
{ "type": "Feature", "properties": { "Name": "上海交通大学附属第一人民医院南院（北１门）", "Ctype": "三级甲等医院", "Ntype": "090101", "Address": "文翔路１４８５", "Telephone": null }, "geometry": { "type": "Point", "coordinates": [ 121.22568722222222, 31.042164444444445 ] } },
{ "type": "Feature", "properties": { "Name": "上海交通大学附属第一人民医院南院", "Ctype": "三级甲等医院", "Ntype": "090101", "Address": "新松江路６５０", "Telephone": "021-37798888|63240090" }, "geometry": { "type": "Point", "coordinates": [ 121.225715537222229, 31.040366988333336 ] } },
{ "type": "Feature", "properties": { "Name": "上海交通大学附属第一人民医院南院发热门诊", "Ctype": "三级甲等医院", "Ntype": "090101", "Address": null, "Telephone": null }, "geometry": { "type": "Point", "coordinates": [ 121.224878977222218, 31.039865209444446 ] } },
{ "type": "Feature", "properties": { "Name": "上海交通大学附属第一人民医院南院门诊", "Ctype": "三级甲等医院", "Ntype": "090101", "Address": "新松江路６５０", "Telephone": null }, "geometry": { "type": "Point", "coordinates": [ 121.225671111111112, 31.039840555555557 ] } },
{ "type": "Feature", "properties": { "Name": "上海交通大学附属第一人民医院南院肠道门诊", "Ctype": "三级甲等医院", "Ntype": "090101", "Address": null, "Telephone": null }, "geometry": { "type": "Point", "coordinates": [ 121.224862010277789, 31.039720676944444 ] } },
{ "type": "Feature", "properties": { "Name": "上海交通大学附属第一人民医院南院（北２门）", "Ctype": "三级甲等医院", "Ntype": "090101", "Address": null, "Telephone": null }, "geometry": { "type": "Point", "coordinates": [ 121.226673611111124, 31.04222 ] } },
{ "type": "Feature", "properties": { "Name": "上海交通大学附属第一人民医院南院（南２门）", "Ctype": "三级甲等医院", "Ntype": "090101", "Address": "新松江路６５０", "Telephone": null }, "geometry": { "type": "Point", "coordinates": [ 121.223916501111106, 31.038969029444445 ] } },
{ "type": "Feature", "properties": { "Name": "上海交通大学附属第一人民医院南院儿科门急诊", "Ctype": "三级甲等医院", "Ntype": "090101", "Address": null, "Telephone": null }, "geometry": { "type": "Point", "coordinates": [ 121.226332470833327, 31.039717534722222 ] } },
{ "type": "Feature", "properties": { "Name": "上海交通大学附属第一人民医院南院（南１门）", "Ctype": "三级甲等医院", "Ntype": "090101", "Address": "新松江路６５０", "Telephone": null }, "geometry": { "type": "Point", "coordinates": [ 121.225642777777779, 31.038981111111109 ] } },
{ "type": "Feature", "properties": { "Name": "上海交通大学附属第一人民医院实验动物中心", "Ctype": "三级甲等医院", "Ntype": "090101", "Address": null, "Telephone": null }, "geometry": { "type": "Point", "coordinates": [ 121.229470081944442, 31.0406111225 ] } },
{ "type": "Feature", "properties": { "Name": "上海交通大学附属第一人民医院南院临床医学院", "Ctype": "三级甲等医院", "Ntype": "090101", "Address": null, "Telephone": null }, "geometry": { "type": "Point", "coordinates": [ 121.228770041944443, 31.041888035277779 ] } },
{ "type": "Feature", "properties": { "Name": "上海交通大学附属第一人民医院南院急诊", "Ctype": "三级甲等医院", "Ntype": "090101", "Address": null, "Telephone": null }, "geometry": { "type": "Point", "coordinates": [ 121.22581780972223, 31.04110159027778 ] } },
{ "type": "Feature", "properties": { "Name": "上海交通大学附属第一人民医院南院肝炎门诊", "Ctype": "三级甲等医院", "Ntype": "090101", "Address": null, "Telephone": null }, "geometry": { "type": "Point", "coordinates": [ 121.224987690555551, 31.03971502111111 ] } },
{ "type": "Feature", "properties": { "Name": "复旦大学附属闵行医院（筹）", "Ctype": "三级甲等医院", "Ntype": "090101", "Address": "莘松路１７０", "Telephone": null }, "geometry": { "type": "Point", "coordinates": [ 121.375876111111111, 31.108596111111112 ] } },
{ "type": "Feature", "properties": { "Name": "上海市闵行区中心医院急诊部", "Ctype": "三级甲等医院", "Ntype": "090101", "Address": null, "Telephone": null }, "geometry": { "type": "Point", "coordinates": [ 121.376266666666666, 31.108591666666666 ] } },
{ "type": "Feature", "properties": { "Name": "上海市闵行区中心医院住院部", "Ctype": "三级甲等医院", "Ntype": "090101", "Address": null, "Telephone": null }, "geometry": { "type": "Point", "coordinates": [ 121.375216666666674, 31.10831111111111 ] } },
{ "type": "Feature", "properties": { "Name": "上海交通大学医学院附属瑞金医院北院门诊", "Ctype": "三级甲等医院", "Ntype": "090101", "Address": null, "Telephone": null }, "geometry": { "type": "Point", "coordinates": [ 121.258341, 31.334762 ] } },
{ "type": "Feature", "properties": { "Name": "复旦大学附属华山医院北院急诊", "Ctype": "三级甲等医院", "Ntype": "090101", "Address": null, "Telephone": null }, "geometry": { "type": "Point", "coordinates": [ 121.373342, 31.345882 ] } },
{ "type": "Feature", "properties": { "Name": "上海中医药大学附属岳阳中西医结合医院闵行分院（西北门）", "Ctype": "三级甲等医院", "Ntype": "090101", "Address": "剑川路１５５号", "Telephone": null }, "geometry": { "type": "Point", "coordinates": [ 121.467605555555551, 31.041863888888891 ] } },
{ "type": "Feature", "properties": { "Name": "上海市精神卫生中心中心供应室", "Ctype": "三级甲等医院", "Ntype": "090101", "Address": null, "Telephone": null }, "geometry": { "type": "Point", "coordinates": [ 121.40344881861111, 31.057437213055557 ] } },
{ "type": "Feature", "properties": { "Name": "上海市精神卫生中心Ｌ３", "Ctype": "三级甲等医院", "Ntype": "090101", "Address": null, "Telephone": null }, "geometry": { "type": "Point", "coordinates": [ 121.403630426388887, 31.058746175277779 ] } },
{ "type": "Feature", "properties": { "Name": "上海中医药大学附属岳阳中西医结合医院闵行分院住院部", "Ctype": "三级甲等医院", "Ntype": "090101", "Address": null, "Telephone": null }, "geometry": { "type": "Point", "coordinates": [ 121.467871, 31.041264 ] } },
{ "type": "Feature", "properties": { "Name": "上海中医药大学附属岳阳中西医结合医院闵行分院（东北门）", "Ctype": "三级甲等医院", "Ntype": "090101", "Address": "剑川路１５５号", "Telephone": null }, "geometry": { "type": "Point", "coordinates": [ 121.468161, 31.041288 ] } },
{ "type": "Feature", "properties": { "Name": "上海交通大学阿尔茨海默病诊治中心", "Ctype": "三级甲等医院", "Ntype": "090101", "Address": "沪闵路３２１０", "Telephone": null }, "geometry": { "type": "Point", "coordinates": [ 121.404802082222218, 31.056817923055558 ] } },
{ "type": "Feature", "properties": { "Name": "上海交通大学医学院附属仁济医院（南院）", "Ctype": "三级甲等医院", "Ntype": "090101", "Address": "浦江镇江月路２０００号", "Telephone": "021-34506157|34506226|66799230" }, "geometry": { "type": "Point", "coordinates": [ 121.498582, 31.081701 ] } },
{ "type": "Feature", "properties": { "Name": "上海中医药大学附属岳阳中西医结合医院闵行分院", "Ctype": "三级甲等医院", "Ntype": "090101", "Address": "剑川路１５５号", "Telephone": null }, "geometry": { "type": "Point", "coordinates": [ 121.467734, 31.041527 ] } },
{ "type": "Feature", "properties": { "Name": "上海中医药大学附属岳阳中西医结合医院闵行分院门诊", "Ctype": "三级甲等医院", "Ntype": "090101", "Address": "剑川路１５５号", "Telephone": null }, "geometry": { "type": "Point", "coordinates": [ 121.467683333333326, 31.041790277777778 ] } },
{ "type": "Feature", "properties": { "Name": "上海中医药大学附属岳阳中西医结合医院闵行分院发热门诊", "Ctype": "三级甲等医院", "Ntype": "090101", "Address": null, "Telephone": null }, "geometry": { "type": "Point", "coordinates": [ 121.468114, 31.041069 ] } },
{ "type": "Feature", "properties": { "Name": "上海市精神卫生中心８", "Ctype": "三级甲等医院", "Ntype": "090101", "Address": null, "Telephone": null }, "geometry": { "type": "Point", "coordinates": [ 121.405209600833331, 31.055469686666669 ] } },
{ "type": "Feature", "properties": { "Name": "上海市精神卫生中心Ｌ７（西南门）", "Ctype": "三级甲等医院", "Ntype": "090101", "Address": null, "Telephone": null }, "geometry": { "type": "Point", "coordinates": [ 121.404294411944448, 31.057894296944443 ] } },
{ "type": "Feature", "properties": { "Name": "上海市精神卫生中心６", "Ctype": "三级甲等医院", "Ntype": "090101", "Address": null, "Telephone": null }, "geometry": { "type": "Point", "coordinates": [ 121.405095231666664, 31.055995030555557 ] } },
{ "type": "Feature", "properties": { "Name": "上海中医药大学附属岳阳中西医结合医院闵行分院急诊", "Ctype": "三级甲等医院", "Ntype": "090101", "Address": "剑川路１５５号", "Telephone": null }, "geometry": { "type": "Point", "coordinates": [ 121.46756944444445, 31.041770833333334 ] } },
{ "type": "Feature", "properties": { "Name": "上海市精神卫生中心Ｄ", "Ctype": "三级甲等医院", "Ntype": "090101", "Address": null, "Telephone": null }, "geometry": { "type": "Point", "coordinates": [ 121.403550619722225, 31.057716223611113 ] } },
{ "type": "Feature", "properties": { "Name": "上海市精神卫生中心Ｂ", "Ctype": "三级甲等医院", "Ntype": "090101", "Address": null, "Telephone": null }, "geometry": { "type": "Point", "coordinates": [ 121.403774330833343, 31.056980993333333 ] } },
{ "type": "Feature", "properties": { "Name": "上海交通大学医学院附属仁济医院南院（南门）", "Ctype": "三级甲等医院", "Ntype": "090101", "Address": null, "Telephone": null }, "geometry": { "type": "Point", "coordinates": [ 121.498857, 31.081083 ] } },
{ "type": "Feature", "properties": { "Name": "上海市精神卫生中心Ｌ７", "Ctype": "三级甲等医院", "Ntype": "090101", "Address": null, "Telephone": null }, "geometry": { "type": "Point", "coordinates": [ 121.404328345833335, 31.057903094722221 ] } },
{ "type": "Feature", "properties": { "Name": "上海市精神卫生中心检验科", "Ctype": "三级甲等医院", "Ntype": "090101", "Address": null, "Telephone": null }, "geometry": { "type": "Point", "coordinates": [ 121.403470184166665, 31.057713081666666 ] } },
{ "type": "Feature", "properties": { "Name": "上海市精神卫生中心Ｌ８", "Ctype": "三级甲等医院", "Ntype": "090101", "Address": null, "Telephone": null }, "geometry": { "type": "Point", "coordinates": [ 121.404145716388882, 31.058508638611112 ] } },
{ "type": "Feature", "properties": { "Name": "上海市精神卫生中心Ｌ５", "Ctype": "三级甲等医院", "Ntype": "090101", "Address": null, "Telephone": null }, "geometry": { "type": "Point", "coordinates": [ 121.404461566944434, 31.057598319722221 ] } },
{ "type": "Feature", "properties": { "Name": "上海市精神卫生中心康复中心", "Ctype": "三级甲等医院", "Ntype": "090101", "Address": null, "Telephone": null }, "geometry": { "type": "Point", "coordinates": [ 121.403987987500003, 31.058209519166667 ] } },
{ "type": "Feature", "properties": { "Name": "上海市精神卫生中心早期精神病干预中心", "Ctype": "三级甲等医院", "Ntype": "090101", "Address": "沪闵路３２１０", "Telephone": null }, "geometry": { "type": "Point", "coordinates": [ 121.404802082222218, 31.056817923055558 ] } },
{ "type": "Feature", "properties": { "Name": "上海市精神卫生临床质量控制中心", "Ctype": "三级甲等医院", "Ntype": "090101", "Address": "沪闵路３２１０", "Telephone": null }, "geometry": { "type": "Point", "coordinates": [ 121.404802082222218, 31.056817923055558 ] } },
{ "type": "Feature", "properties": { "Name": "上海市精神卫生中心５", "Ctype": "三级甲等医院", "Ntype": "090101", "Address": null, "Telephone": null }, "geometry": { "type": "Point", "coordinates": [ 121.405057527499991, 31.056225025833331 ] } },
{ "type": "Feature", "properties": { "Name": "上海市精神卫生中心物质成瘾诊疗中心", "Ctype": "三级甲等医院", "Ntype": "090101", "Address": null, "Telephone": null }, "geometry": { "type": "Point", "coordinates": [ 121.403969763888895, 31.058791419444443 ] } },
{ "type": "Feature", "properties": { "Name": "上海市精神卫生中心Ｌ２", "Ctype": "三级甲等医院", "Ntype": "090101", "Address": null, "Telephone": null }, "geometry": { "type": "Point", "coordinates": [ 121.404031975555554, 31.057848816388891 ] } },
{ "type": "Feature", "properties": { "Name": "上海市精神卫生中心Ａ", "Ctype": "三级甲等医院", "Ntype": "090101", "Address": null, "Telephone": null }, "geometry": { "type": "Point", "coordinates": [ 121.403905038333335, 31.0565851 ] } },
{ "type": "Feature", "properties": { "Name": "上海市精神卫生中心老年期痴呆诊疗中心", "Ctype": "三级甲等医院", "Ntype": "090101", "Address": "沪闵路３２１０", "Telephone": null }, "geometry": { "type": "Point", "coordinates": [ 121.404802082222218, 31.056817923055558 ] } },
{ "type": "Feature", "properties": { "Name": "上海市精神卫生中心Ｌ４", "Ctype": "三级甲等医院", "Ntype": "090101", "Address": null, "Telephone": null }, "geometry": { "type": "Point", "coordinates": [ 121.403774330833343, 31.058393012499998 ] } },
{ "type": "Feature", "properties": { "Name": "上海市精神卫生中心７", "Ctype": "三级甲等医院", "Ntype": "090101", "Address": null, "Telephone": null }, "geometry": { "type": "Point", "coordinates": [ 121.405158071944442, 31.055667005 ] } },
{ "type": "Feature", "properties": { "Name": "复旦大学附属儿科医院行政楼", "Ctype": "三级甲等医院", "Ntype": "090101", "Address": null, "Telephone": null }, "geometry": { "type": "Point", "coordinates": [ 121.395463400833336, 31.140513522500001 ] } },
{ "type": "Feature", "properties": { "Name": "复旦大学附属儿科医院门诊部", "Ctype": "三级甲等医院", "Ntype": "090101", "Address": null, "Telephone": null }, "geometry": { "type": "Point", "coordinates": [ 121.395819704722214, 31.139148947777777 ] } },
{ "type": "Feature", "properties": { "Name": "上海交通大学医学院附属仁济医院南院住院部", "Ctype": "三级甲等医院", "Ntype": "090101", "Address": null, "Telephone": "021-58752345" }, "geometry": { "type": "Point", "coordinates": [ 121.498632, 31.082226 ] } },
{ "type": "Feature", "properties": { "Name": "上海交通大学医学院附属仁济医院南院门诊部", "Ctype": "三级甲等医院", "Ntype": "090101", "Address": null, "Telephone": "021-34506114" }, "geometry": { "type": "Point", "coordinates": [ 121.498851, 31.081472 ] } },
{ "type": "Feature", "properties": { "Name": "上海交通大学医学院附属仁济医院南院急诊部", "Ctype": "三级甲等医院", "Ntype": "090101", "Address": null, "Telephone": null }, "geometry": { "type": "Point", "coordinates": [ 121.498059, 31.081759 ] } },
{ "type": "Feature", "properties": { "Name": "复旦大学附属儿科医院康复科", "Ctype": "三级甲等医院", "Ntype": "090101", "Address": "顾戴路８０５复旦大学附属儿科医院３层", "Telephone": "021-64931990" }, "geometry": { "type": "Point", "coordinates": [ 121.393303611111108, 31.140353888888889 ] } },
{ "type": "Feature", "properties": { "Name": "复旦大学附属儿科医院传染病门诊", "Ctype": "三级甲等医院", "Ntype": "090101", "Address": null, "Telephone": null }, "geometry": { "type": "Point", "coordinates": [ 121.394196228333328, 31.13998912111111 ] } },
{ "type": "Feature", "properties": { "Name": "复旦大学附属儿科医院第一诊疗部", "Ctype": "三级甲等医院", "Ntype": "090101", "Address": null, "Telephone": null }, "geometry": { "type": "Point", "coordinates": [ 121.395583739722227, 31.139625590555557 ] } },
{ "type": "Feature", "properties": { "Name": "复旦大学附属儿科医院住院部", "Ctype": "三级甲等医院", "Ntype": "090101", "Address": null, "Telephone": null }, "geometry": { "type": "Point", "coordinates": [ 121.394943712222215, 31.138061812499998 ] } },
{ "type": "Feature", "properties": { "Name": "复旦大学附属儿科医院儿童保健康复部", "Ctype": "三级甲等医院", "Ntype": "090101", "Address": "顾戴路８０５", "Telephone": null }, "geometry": { "type": "Point", "coordinates": [ 121.393318665, 31.140609668055557 ] } },
{ "type": "Feature", "properties": { "Name": "复旦大学附属儿科医院７", "Ctype": "三级甲等医院", "Ntype": "090101", "Address": null, "Telephone": null }, "geometry": { "type": "Point", "coordinates": [ 121.3938514538889, 31.138247884166667 ] } },
{ "type": "Feature", "properties": { "Name": "上海交通大学医学院附属仁济医院南院（北门）", "Ctype": "三级甲等医院", "Ntype": "090101", "Address": "南江洲路３３７号附近", "Telephone": null }, "geometry": { "type": "Point", "coordinates": [ 121.49862, 31.082617 ] } },
{ "type": "Feature", "properties": { "Name": "复旦大学附属儿科医院６号楼", "Ctype": "三级甲等医院", "Ntype": "090101", "Address": null, "Telephone": null }, "geometry": { "type": "Point", "coordinates": [ 121.394029701666668, 31.140020855555555 ] } },
{ "type": "Feature", "properties": { "Name": "复旦大学附属儿科医院２号楼", "Ctype": "三级甲等医院", "Ntype": "090101", "Address": null, "Telephone": null }, "geometry": { "type": "Point", "coordinates": [ 121.39542443972222, 31.138852341944443 ] } },
{ "type": "Feature", "properties": { "Name": "复旦大学附属儿科医院儿童保健科", "Ctype": "三级甲等医院", "Ntype": "090101", "Address": "顾戴路８０５复旦大学附属儿科医院３层", "Telephone": null }, "geometry": { "type": "Point", "coordinates": [ 121.393299153611125, 31.140362955833336 ] } },
{ "type": "Feature", "properties": { "Name": "复旦大学附属儿科医院心理科", "Ctype": "三级甲等医院", "Ntype": "090101", "Address": "顾戴路８０５复旦大学附属儿科医院３层", "Telephone": null }, "geometry": { "type": "Point", "coordinates": [ 121.393305121666671, 31.140359700555557 ] } },
{ "type": "Feature", "properties": { "Name": "复旦大学附属儿科医院急诊", "Ctype": "三级甲等医院", "Ntype": "090101", "Address": "万源路３９９号复旦大学附属儿科医院", "Telephone": null }, "geometry": { "type": "Point", "coordinates": [ 121.39552467, 31.139869724722221 ] } },
{ "type": "Feature", "properties": { "Name": "上海交通大学医学院附属第九人民医院（东门）", "Ctype": "三级甲等医院", "Ntype": "090101", "Address": "瞿溪路５４６", "Telephone": null }, "geometry": { "type": "Point", "coordinates": [ 121.487671018888889, 31.202177663888889 ] } },
{ "type": "Feature", "properties": { "Name": "瑞金医院（西南１门）", "Ctype": "三级甲等医院", "Ntype": "090101", "Address": null, "Telephone": null }, "geometry": { "type": "Point", "coordinates": [ 121.466487903333331, 31.209975189444446 ] } },
{ "type": "Feature", "properties": { "Name": "复旦大学附属中山医院东院区（８号门）", "Ctype": "三级甲等医院", "Ntype": "090101", "Address": "小木桥路２５０", "Telephone": null }, "geometry": { "type": "Point", "coordinates": [ 121.457849070555568, 31.19779567222222 ] } },
{ "type": "Feature", "properties": { "Name": "复旦大学附属华山医院（北门）", "Ctype": "三级甲等医院", "Ntype": "090101", "Address": "华山路５５５号", "Telephone": null }, "geometry": { "type": "Point", "coordinates": [ 121.442178005555547, 31.216911621111112 ] } },
{ "type": "Feature", "properties": { "Name": "上海市儿童医院（东北２门）", "Ctype": "三级甲等医院", "Ntype": "090101", "Address": "同普路５０５", "Telephone": null }, "geometry": { "type": "Point", "coordinates": [ 121.386554860555563, 31.227590867222222 ] } },
{ "type": "Feature", "properties": { "Name": "复旦大学附属中山医院东院区（５号门）", "Ctype": "三级甲等医院", "Ntype": "090101", "Address": "枫林路１７９", "Telephone": null }, "geometry": { "type": "Point", "coordinates": [ 121.455264, 31.197001 ] } },
{ "type": "Feature", "properties": { "Name": "复旦大学附属中山医院东院区（南１门）", "Ctype": "三级甲等医院", "Ntype": "090101", "Address": "斜土路１６０９", "Telephone": null }, "geometry": { "type": "Point", "coordinates": [ 121.456570246111113, 31.196278834722225 ] } },
{ "type": "Feature", "properties": { "Name": "复旦大学附属中山医院西院区（２号门）", "Ctype": "三级甲等医院", "Ntype": "090101", "Address": "医学院路１３６号", "Telephone": null }, "geometry": { "type": "Point", "coordinates": [ 121.453389178888884, 31.198314248611112 ] } },
{ "type": "Feature", "properties": { "Name": "上海长征医院（西南门）", "Ctype": "三级甲等医院", "Ntype": "090101", "Address": "凤阳路４１５号", "Telephone": null }, "geometry": { "type": "Point", "coordinates": [ 121.467066, 31.232403 ] } },
{ "type": "Feature", "properties": { "Name": "复旦大学附属华山医院（东北２门）", "Ctype": "三级甲等医院", "Ntype": "090101", "Address": "乌鲁木齐中路３８", "Telephone": null }, "geometry": { "type": "Point", "coordinates": [ 121.4442, 31.215758333333333 ] } },
{ "type": "Feature", "properties": { "Name": "上海中医药大学附属岳阳中西医结合医院（东北１门）", "Ctype": "三级甲等医院", "Ntype": "090101", "Address": "青海路４４", "Telephone": null }, "geometry": { "type": "Point", "coordinates": [ 121.464103432222217, 31.230528646388887 ] } },
{ "type": "Feature", "properties": { "Name": "复旦大学附属中山医院东院区１７", "Ctype": "三级甲等医院", "Ntype": "090101", "Address": null, "Telephone": null }, "geometry": { "type": "Point", "coordinates": [ 121.455611111111111, 31.197069444444445 ] } },
{ "type": "Feature", "properties": { "Name": "复旦大学附属华东医院４", "Ctype": "三级甲等医院", "Ntype": "090101", "Address": null, "Telephone": null }, "geometry": { "type": "Point", "coordinates": [ 121.442647222222234, 31.219080555555557 ] } },
{ "type": "Feature", "properties": { "Name": "复旦大学附属眼耳鼻喉科医院１１", "Ctype": "三级甲等医院", "Ntype": "090101", "Address": null, "Telephone": null }, "geometry": { "type": "Point", "coordinates": [ 121.45397222222222, 31.208587222222224 ] } },
{ "type": "Feature", "properties": { "Name": "复旦大学附属中山医院东院区（７号门）", "Ctype": "三级甲等医院", "Ntype": "090101", "Address": "清真路１５９９", "Telephone": null }, "geometry": { "type": "Point", "coordinates": [ 121.456298141388885, 31.198194087499999 ] } },
{ "type": "Feature", "properties": { "Name": "瑞金医院（西南门）", "Ctype": "三级甲等医院", "Ntype": "090101", "Address": null, "Telephone": null }, "geometry": { "type": "Point", "coordinates": [ 121.465804, 31.212654 ] } },
{ "type": "Feature", "properties": { "Name": "复旦大学附属中山医院东院区（３号门）", "Ctype": "三级甲等医院", "Ntype": "090101", "Address": null, "Telephone": null }, "geometry": { "type": "Point", "coordinates": [ 121.45686999944445, 31.196404360555555 ] } },
{ "type": "Feature", "properties": { "Name": "复旦大学附属华山医院分部（东北门）", "Ctype": "三级甲等医院", "Ntype": "090101", "Address": "江苏路７９６", "Telephone": null }, "geometry": { "type": "Point", "coordinates": [ 121.433652958611106, 31.212323213333335 ] } },
{ "type": "Feature", "properties": { "Name": "瑞金医院（西２门）", "Ctype": "三级甲等医院", "Ntype": "090101", "Address": null, "Telephone": null }, "geometry": { "type": "Point", "coordinates": [ 121.465677, 31.212625 ] } },
{ "type": "Feature", "properties": { "Name": "上海市第六人民医院住院部（东北门）", "Ctype": "三级甲等医院", "Ntype": "090101", "Address": null, "Telephone": null }, "geometry": { "type": "Point", "coordinates": [ 121.422835, 31.179817 ] } },
{ "type": "Feature", "properties": { "Name": "上海长征医院（西北门）", "Ctype": "三级甲等医院", "Ntype": "090101", "Address": "凤阳路４１５", "Telephone": null }, "geometry": { "type": "Point", "coordinates": [ 121.466941, 31.232911 ] } },
{ "type": "Feature", "properties": { "Name": "瑞金医院九舍病房楼", "Ctype": "三级甲等医院", "Ntype": "090101", "Address": null, "Telephone": null }, "geometry": { "type": "Point", "coordinates": [ 121.468810869722219, 31.212078215277778 ] } },
{ "type": "Feature", "properties": { "Name": "中国人民解放军第四五五医院肿瘤放疗伽玛刀专科", "Ctype": "三级甲等医院", "Ntype": "090101", "Address": null, "Telephone": null }, "geometry": { "type": "Point", "coordinates": [ 121.428411111111117, 31.200211111111109 ] } },
{ "type": "Feature", "properties": { "Name": "复旦大学附属华山医院供应室", "Ctype": "三级甲等医院", "Ntype": "090101", "Address": null, "Telephone": null }, "geometry": { "type": "Point", "coordinates": [ 121.44395, 31.216088888888887 ] } },
{ "type": "Feature", "properties": { "Name": "复旦大学附属华山医院７", "Ctype": "三级甲等医院", "Ntype": "090101", "Address": null, "Telephone": null }, "geometry": { "type": "Point", "coordinates": [ 121.443138888888882, 31.215661111111114 ] } },
{ "type": "Feature", "properties": { "Name": "复旦大学枫林校区附属中山医院２０号楼", "Ctype": "三级甲等医院", "Ntype": "090101", "Address": "医学院路１１１号", "Telephone": null }, "geometry": { "type": "Point", "coordinates": [ 121.453075606111099, 31.198823254166665 ] } },
{ "type": "Feature", "properties": { "Name": "上海长征医院", "Ctype": "三级甲等医院", "Ntype": "090101", "Address": "成都北路４４０号", "Telephone": "021-81886999|51078220|66799217|60531431|60485913" }, "geometry": { "type": "Point", "coordinates": [ 121.467369, 31.232083 ] } },
{ "type": "Feature", "properties": { "Name": "上海市儿童医院ＧＣＰ机构办公室", "Ctype": "三级甲等医院", "Ntype": "090101", "Address": null, "Telephone": null }, "geometry": { "type": "Point", "coordinates": [ 121.448915, 31.229255 ] } },
{ "type": "Feature", "properties": { "Name": "上海市儿童医院ＣＴ核磁共振Ｘ光胃镜室", "Ctype": "三级甲等医院", "Ntype": "090101", "Address": null, "Telephone": null }, "geometry": { "type": "Point", "coordinates": [ 121.44833, 31.229226 ] } },
{ "type": "Feature", "properties": { "Name": "上海中医药大学附属龙华医院６", "Ctype": "三级甲等医院", "Ntype": "090101", "Address": "宛平南路７２５", "Telephone": null }, "geometry": { "type": "Point", "coordinates": [ 121.449995179722222, 31.188717922222224 ] } },
{ "type": "Feature", "properties": { "Name": "上海交通大学附属第六人民医院科研综合楼", "Ctype": "三级甲等医院", "Ntype": "090101", "Address": null, "Telephone": null }, "geometry": { "type": "Point", "coordinates": [ 121.423293, 31.177388 ] } },
{ "type": "Feature", "properties": { "Name": "上海交通大学医学院附属瑞金医院（分部）", "Ctype": "三级甲等医院", "Ntype": "090101", "Address": "徐家汇路５７３", "Telephone": "021-64370045" }, "geometry": { "type": "Point", "coordinates": [ 121.472067, 31.206613 ] } },
{ "type": "Feature", "properties": { "Name": "上海中医药大学附属龙华医院（西北２门）", "Ctype": "三级甲等医院", "Ntype": "090101", "Address": null, "Telephone": null }, "geometry": { "type": "Point", "coordinates": [ 121.450007, 31.188801 ] } },
{ "type": "Feature", "properties": { "Name": "上海中医药大学附属龙华医院（西北２门）", "Ctype": "三级甲等医院", "Ntype": "090101", "Address": "零陵路５３２－３", "Telephone": null }, "geometry": { "type": "Point", "coordinates": [ 121.450262250555554, 31.188885077222221 ] } },
{ "type": "Feature", "properties": { "Name": "上海中医药大学附属岳阳中西医结合医院", "Ctype": "三级甲等医院", "Ntype": "090101", "Address": "青海路４４", "Telephone": null }, "geometry": { "type": "Point", "coordinates": [ 121.463931111111108, 31.230351944444447 ] } },
{ "type": "Feature", "properties": { "Name": "上海市儿童医院ＧＣＰ档案室", "Ctype": "三级甲等医院", "Ntype": "090101", "Address": null, "Telephone": null }, "geometry": { "type": "Point", "coordinates": [ 121.448914, 31.229261 ] } },
{ "type": "Feature", "properties": { "Name": "上海市第六人民医院（东南２门）", "Ctype": "三级甲等医院", "Ntype": "090101", "Address": "宜山路６１８", "Telephone": null }, "geometry": { "type": "Point", "coordinates": [ 121.423707162222229, 31.17793823666667 ] } },
{ "type": "Feature", "properties": { "Name": "上海市第六人民医院感染病房楼", "Ctype": "三级甲等医院", "Ntype": "090101", "Address": null, "Telephone": null }, "geometry": { "type": "Point", "coordinates": [ 121.423225, 31.179496 ] } },
{ "type": "Feature", "properties": { "Name": "上海市儿童医院１号楼", "Ctype": "三级甲等医院", "Ntype": "090101", "Address": null, "Telephone": null }, "geometry": { "type": "Point", "coordinates": [ 121.448339922777777, 31.228885943611111 ] } },
{ "type": "Feature", "properties": { "Name": "上海市儿童医院发热门诊", "Ctype": "三级甲等医院", "Ntype": "090101", "Address": null, "Telephone": null }, "geometry": { "type": "Point", "coordinates": [ 121.44808, 31.228689 ] } },
{ "type": "Feature", "properties": { "Name": "上海市儿童医院特需门诊", "Ctype": "三级甲等医院", "Ntype": "090101", "Address": null, "Telephone": null }, "geometry": { "type": "Point", "coordinates": [ 121.448786, 31.22884 ] } },
{ "type": "Feature", "properties": { "Name": "上海市第六人民医院（西大门）", "Ctype": "三级甲等医院", "Ntype": "090101", "Address": "柳州路５９７号", "Telephone": null }, "geometry": { "type": "Point", "coordinates": [ 121.420689, 31.177973 ] } },
{ "type": "Feature", "properties": { "Name": "瑞金医院（东北２门）", "Ctype": "三级甲等医院", "Ntype": "090101", "Address": "思南路７２－１", "Telephone": null }, "geometry": { "type": "Point", "coordinates": [ 121.46916274611111, 31.212061957222222 ] } },
{ "type": "Feature", "properties": { "Name": "上海长征医院（男科）", "Ctype": "三级甲等医院", "Ntype": "090101", "Address": null, "Telephone": null }, "geometry": { "type": "Point", "coordinates": [ 121.467351, 31.232769 ] } },
{ "type": "Feature", "properties": { "Name": "复旦大学附属肿瘤医院", "Ctype": "三级甲等医院", "Ntype": "090101", "Address": "东安路２７０", "Telephone": "021-64175590" }, "geometry": { "type": "Point", "coordinates": [ 121.453541, 31.191142 ] } },
{ "type": "Feature", "properties": { "Name": "复旦大学附属华山医院（北门）", "Ctype": "三级甲等医院", "Ntype": "090101", "Address": "华山路５５２号附近", "Telephone": null }, "geometry": { "type": "Point", "coordinates": [ 121.443135, 31.216973 ] } },
{ "type": "Feature", "properties": { "Name": "上海交通大学医学院附属瑞金医院分部（西北１门）", "Ctype": "三级甲等医院", "Ntype": "090101", "Address": "徐家汇路５７３", "Telephone": null }, "geometry": { "type": "Point", "coordinates": [ 121.47163888888889, 31.206434444444447 ] } },
{ "type": "Feature", "properties": { "Name": "上海市儿童医院门诊２", "Ctype": "三级甲等医院", "Ntype": "090101", "Address": null, "Telephone": null }, "geometry": { "type": "Point", "coordinates": [ 121.448159, 31.22872 ] } },
{ "type": "Feature", "properties": { "Name": "复旦大学附属肿瘤医院（东北门）", "Ctype": "三级甲等医院", "Ntype": "090101", "Address": "东安路２７０", "Telephone": null }, "geometry": { "type": "Point", "coordinates": [ 121.454113562777778, 31.191503497222225 ] } },
{ "type": "Feature", "properties": { "Name": "复旦大学附属华山医院（东北门）", "Ctype": "三级甲等医院", "Ntype": "090101", "Address": null, "Telephone": null }, "geometry": { "type": "Point", "coordinates": [ 121.443828, 31.216672 ] } },
{ "type": "Feature", "properties": { "Name": "上海长征医院住院部", "Ctype": "三级甲等医院", "Ntype": "090101", "Address": null, "Telephone": null }, "geometry": { "type": "Point", "coordinates": [ 121.467511, 31.232564 ] } },
{ "type": "Feature", "properties": { "Name": "上海中医药大学附属龙华医院住院部", "Ctype": "三级甲等医院", "Ntype": "090101", "Address": "宛平南路７２５", "Telephone": null }, "geometry": { "type": "Point", "coordinates": [ 121.450059, 31.187854 ] } },
{ "type": "Feature", "properties": { "Name": "复旦大学附属中山医院东院区心血管肝脏肿瘤门诊", "Ctype": "三级甲等医院", "Ntype": "090101", "Address": "斜土路１６０９", "Telephone": null }, "geometry": { "type": "Point", "coordinates": [ 121.456698657777778, 31.196667206944444 ] } },
{ "type": "Feature", "properties": { "Name": "武警上海市总队医院风湿科", "Ctype": "三级甲等医院", "Ntype": "090101", "Address": "虹许路８３１号２层", "Telephone": "021-62421722" }, "geometry": { "type": "Point", "coordinates": [ 121.388216, 31.192681 ] } },
{ "type": "Feature", "properties": { "Name": "中国人民解放军第八五医院（分院）", "Ctype": "三级甲等医院", "Ntype": "090101", "Address": "沪闵路９５８５", "Telephone": null }, "geometry": { "type": "Point", "coordinates": [ 121.434684, 31.166747 ] } },
{ "type": "Feature", "properties": { "Name": "光华医院特需门诊部", "Ctype": "三级甲等医院", "Ntype": "090101", "Address": null, "Telephone": null }, "geometry": { "type": "Point", "coordinates": [ 121.422786111111122, 31.204991666666668 ] } },
{ "type": "Feature", "properties": { "Name": "上海交通大学医学院附属第九人民医院肠道门急诊", "Ctype": "三级甲等医院", "Ntype": "090101", "Address": "制造局路", "Telephone": null }, "geometry": { "type": "Point", "coordinates": [ 121.485042, 31.203267 ] } },
{ "type": "Feature", "properties": { "Name": "复旦大学附属妇产科医院", "Ctype": "三级甲等医院", "Ntype": "090101", "Address": "大林路３５８", "Telephone": null }, "geometry": { "type": "Point", "coordinates": [ 121.483366666666669, 31.212122222222224 ] } },
{ "type": "Feature", "properties": { "Name": "上海交通大学医学院附属瑞金医院分部（西北２门）", "Ctype": "三级甲等医院", "Ntype": "090101", "Address": null, "Telephone": null }, "geometry": { "type": "Point", "coordinates": [ 121.471732, 31.2067 ] } },
{ "type": "Feature", "properties": { "Name": "上海市第六人民医院门诊楼", "Ctype": "三级甲等医院", "Ntype": "090101", "Address": "宜山路６００", "Telephone": null }, "geometry": { "type": "Point", "coordinates": [ 121.424111, 31.178853 ] } },
{ "type": "Feature", "properties": { "Name": "复旦大学附属肿瘤医院３病区", "Ctype": "三级甲等医院", "Ntype": "090101", "Address": null, "Telephone": null }, "geometry": { "type": "Point", "coordinates": [ 121.453621, 31.192171 ] } },
{ "type": "Feature", "properties": { "Name": "上海交通大学医学院附属瑞金医院（分部）皮肤科门诊", "Ctype": "三级甲等医院", "Ntype": "090101", "Address": null, "Telephone": null }, "geometry": { "type": "Point", "coordinates": [ 121.471714, 31.206473 ] } },
{ "type": "Feature", "properties": { "Name": "复旦大学附属华山医院放射科", "Ctype": "三级甲等医院", "Ntype": "090101", "Address": null, "Telephone": null }, "geometry": { "type": "Point", "coordinates": [ 121.443694444444446, 31.215958333333333 ] } },
{ "type": "Feature", "properties": { "Name": "复旦大学附属肿瘤医院６号楼东", "Ctype": "三级甲等医院", "Ntype": "090101", "Address": null, "Telephone": null }, "geometry": { "type": "Point", "coordinates": [ 121.453625, 31.192172 ] } },
{ "type": "Feature", "properties": { "Name": "复旦大学附属华东医院门诊部", "Ctype": "三级甲等医院", "Ntype": "090101", "Address": "延安西路３２１", "Telephone": null }, "geometry": { "type": "Point", "coordinates": [ 121.440196, 31.218737 ] } },
{ "type": "Feature", "properties": { "Name": "上海交通大学医学院附属第九人民医院皮肤科", "Ctype": "三级甲等医院", "Ntype": "090101", "Address": null, "Telephone": "021-60643173" }, "geometry": { "type": "Point", "coordinates": [ 121.48547, 31.20279 ] } },
{ "type": "Feature", "properties": { "Name": "复旦大学附属中山医院磁共振", "Ctype": "三级甲等医院", "Ntype": "090101", "Address": null, "Telephone": null }, "geometry": { "type": "Point", "coordinates": [ 121.453219, 31.198613 ] } },
{ "type": "Feature", "properties": { "Name": "上海４５５医院男科", "Ctype": "三级甲等医院", "Ntype": "090101", "Address": null, "Telephone": null }, "geometry": { "type": "Point", "coordinates": [ 121.427853, 31.199488 ] } },
{ "type": "Feature", "properties": { "Name": "瑞金医院呼吸科", "Ctype": "三级甲等医院", "Ntype": "090101", "Address": null, "Telephone": null }, "geometry": { "type": "Point", "coordinates": [ 121.466551, 31.210736 ] } },
{ "type": "Feature", "properties": { "Name": "上海交通大学医学院附属国际和平妇幼保健院（东南门）", "Ctype": "三级甲等医院", "Ntype": "090101", "Address": "衡山路９１０号", "Telephone": null }, "geometry": { "type": "Point", "coordinates": [ 121.439560001388884, 31.195660793333332 ] } },
{ "type": "Feature", "properties": { "Name": "复旦大学附属华山医院", "Ctype": "三级甲等医院", "Ntype": "090101", "Address": "乌鲁木齐中路１２复旦大学附属华山医院", "Telephone": "021-62483986|52179966" }, "geometry": { "type": "Point", "coordinates": [ 121.442947, 31.216125 ] } },
{ "type": "Feature", "properties": { "Name": "复旦大学附属中山医院东院区", "Ctype": "三级甲等医院", "Ntype": "090101", "Address": "斜土路１６０９", "Telephone": null }, "geometry": { "type": "Point", "coordinates": [ 121.456493, 31.197187 ] } },
{ "type": "Feature", "properties": { "Name": "上海交通大学医学院附属瑞金医院泌尿外科", "Ctype": "三级甲等医院", "Ntype": "090101", "Address": null, "Telephone": "021-61527145" }, "geometry": { "type": "Point", "coordinates": [ 121.466904, 31.212267 ] } },
{ "type": "Feature", "properties": { "Name": "中国福利会国际和平妇幼保健院住院部２号楼", "Ctype": "三级甲等医院", "Ntype": "090101", "Address": null, "Telephone": null }, "geometry": { "type": "Point", "coordinates": [ 121.438305, 31.196075 ] } },
{ "type": "Feature", "properties": { "Name": "上海市儿童医院", "Ctype": "三级甲等医院", "Ntype": "090101", "Address": "泸定路３５５号", "Telephone": "021-52976020|62474880" }, "geometry": { "type": "Point", "coordinates": [ 121.386556, 31.226756 ] } },
{ "type": "Feature", "properties": { "Name": "国际和平妇幼保健院", "Ctype": "三级甲等医院", "Ntype": "090101", "Address": "衡山路９１０", "Telephone": "021-64070434|64075328" }, "geometry": { "type": "Point", "coordinates": [ 121.438489444444443, 31.196565 ] } },
{ "type": "Feature", "properties": { "Name": "上海交通大学医学院附属第九人民医院（５号门）", "Ctype": "三级甲等医院", "Ntype": "090101", "Address": null, "Telephone": null }, "geometry": { "type": "Point", "coordinates": [ 121.486277, 31.201751 ] } },
{ "type": "Feature", "properties": { "Name": "武警上海市总队医院（东门）", "Ctype": "三级甲等医院", "Ntype": "090101", "Address": "虹许路８３１", "Telephone": null }, "geometry": { "type": "Point", "coordinates": [ 121.389145, 31.192615 ] } },
{ "type": "Feature", "properties": { "Name": "中国人民解放军第四五五医院甲亢科", "Ctype": "三级甲等医院", "Ntype": "090101", "Address": null, "Telephone": "021-64339067" }, "geometry": { "type": "Point", "coordinates": [ 121.427814, 31.199578 ] } },
{ "type": "Feature", "properties": { "Name": "上海交通大学医学院附属第九人民医院口腔门诊中心", "Ctype": "三级甲等医院", "Ntype": "090101", "Address": null, "Telephone": "021-62523909" }, "geometry": { "type": "Point", "coordinates": [ 121.486739, 31.203187 ] } },
{ "type": "Feature", "properties": { "Name": "复旦大学附属华山医院病房大楼", "Ctype": "三级甲等医院", "Ntype": "090101", "Address": null, "Telephone": null }, "geometry": { "type": "Point", "coordinates": [ 121.44355, 31.216089 ] } },
{ "type": "Feature", "properties": { "Name": "上海中医药大学附属龙华医院血液透析室", "Ctype": "三级甲等医院", "Ntype": "090101", "Address": null, "Telephone": null }, "geometry": { "type": "Point", "coordinates": [ 121.45067, 31.188116 ] } },
{ "type": "Feature", "properties": { "Name": "光华医院", "Ctype": "三级甲等医院", "Ntype": "090101", "Address": "新华路５４０号", "Telephone": "021-62805833" }, "geometry": { "type": "Point", "coordinates": [ 121.422705, 31.20486 ] } },
{ "type": "Feature", "properties": { "Name": "上海市儿童医院（东南１门）", "Ctype": "三级甲等医院", "Ntype": "090101", "Address": "泸定路３５５", "Telephone": null }, "geometry": { "type": "Point", "coordinates": [ 121.387374, 31.226449 ] } },
{ "type": "Feature", "properties": { "Name": "中国人民解放军第八五医院（东南门）", "Ctype": "三级甲等医院", "Ntype": "090101", "Address": "华山路１３２８号", "Telephone": null }, "geometry": { "type": "Point", "coordinates": [ 121.432854888055559, 31.2090882 ] } },
{ "type": "Feature", "properties": { "Name": "中国福利会国际和平妇幼保健院住院部１号楼", "Ctype": "三级甲等医院", "Ntype": "090101", "Address": null, "Telephone": null }, "geometry": { "type": "Point", "coordinates": [ 121.438315, 31.196586 ] } },
{ "type": "Feature", "properties": { "Name": "解放军第八五医院门诊", "Ctype": "三级甲等医院", "Ntype": "090101", "Address": null, "Telephone": "021-33729859|33729869" }, "geometry": { "type": "Point", "coordinates": [ 121.43258, 31.208908 ] } },
{ "type": "Feature", "properties": { "Name": "武警上海市总队医院门诊部", "Ctype": "三级甲等医院", "Ntype": "090101", "Address": null, "Telephone": "021-52261657|51724000|54580800" }, "geometry": { "type": "Point", "coordinates": [ 121.387859, 31.192516 ] } },
{ "type": "Feature", "properties": { "Name": "第九人民医院新门诊楼", "Ctype": "三级甲等医院", "Ntype": "090101", "Address": null, "Telephone": "021-60485797|60643175" }, "geometry": { "type": "Point", "coordinates": [ 121.487349, 31.20169 ] } },
{ "type": "Feature", "properties": { "Name": "上海九院特需门诊", "Ctype": "三级甲等医院", "Ntype": "090101", "Address": null, "Telephone": "021-60643175" }, "geometry": { "type": "Point", "coordinates": [ 121.485513, 31.202574 ] } },
{ "type": "Feature", "properties": { "Name": "中国人民解放军第八五医院", "Ctype": "三级甲等医院", "Ntype": "090101", "Address": "华山路１３２８号", "Telephone": "021-52383901|81818585|52382829|62258381|33538281" }, "geometry": { "type": "Point", "coordinates": [ 121.432476, 31.209323 ] } },
{ "type": "Feature", "properties": { "Name": "武警上海市总队医院急诊部", "Ctype": "三级甲等医院", "Ntype": "090101", "Address": "虹许路８３１", "Telephone": "021-54580800|61993944" }, "geometry": { "type": "Point", "coordinates": [ 121.388946, 31.192656 ] } },
{ "type": "Feature", "properties": { "Name": "上海交通大学医学院附属第九人民医院南院（西南门）", "Ctype": "三级甲等医院", "Ntype": "090101", "Address": "制造局路６３９号", "Telephone": null }, "geometry": { "type": "Point", "coordinates": [ 121.485525, 31.202359 ] } },
{ "type": "Feature", "properties": { "Name": "复旦大学附属华山医院（东北门）", "Ctype": "三级甲等医院", "Ntype": "090101", "Address": "乌鲁木齐中路１２", "Telephone": null }, "geometry": { "type": "Point", "coordinates": [ 121.444063611111119, 31.2163075 ] } },
{ "type": "Feature", "properties": { "Name": "上海市第六人民医院（东门）", "Ctype": "三级甲等医院", "Ntype": "090101", "Address": null, "Telephone": null }, "geometry": { "type": "Point", "coordinates": [ 121.424304, 31.178616 ] } },
{ "type": "Feature", "properties": { "Name": "光华医院（西南门）", "Ctype": "三级甲等医院", "Ntype": "090101", "Address": "新华路５４０号", "Telephone": null }, "geometry": { "type": "Point", "coordinates": [ 121.422333333333341, 31.204680555555559 ] } },
{ "type": "Feature", "properties": { "Name": "上海四四五医院腋臭科", "Ctype": "三级甲等医院", "Ntype": "090101", "Address": null, "Telephone": "021-31001887" }, "geometry": { "type": "Point", "coordinates": [ 121.427743, 31.199537 ] } },
{ "type": "Feature", "properties": { "Name": "武警上海市总队医院", "Ctype": "三级甲等医院", "Ntype": "090101", "Address": "虹许路８３１", "Telephone": "021-62420555|62429837|64332245|51724000|62426088" }, "geometry": { "type": "Point", "coordinates": [ 121.387948, 31.192648 ] } },
{ "type": "Feature", "properties": { "Name": "上海市第六人民医院", "Ctype": "三级甲等医院", "Ntype": "090101", "Address": "宜山路６００", "Telephone": "021-64369181|51078220|54972001" }, "geometry": { "type": "Point", "coordinates": [ 121.422504, 31.178387 ] } },
{ "type": "Feature", "properties": { "Name": "上海交通大学医学院附属第九人民医院", "Ctype": "三级甲等医院", "Ntype": "090101", "Address": "制造局路６３９号", "Telephone": "021-23271699|60643173|62459952|60643175" }, "geometry": { "type": "Point", "coordinates": [ 121.486391, 31.202407 ] } },
{ "type": "Feature", "properties": { "Name": "上海交通大学医学院附属国际和平妇幼保健院", "Ctype": "三级甲等医院", "Ntype": "090101", "Address": "衡山路９１０", "Telephone": "021-64070434|64072452|64073421" }, "geometry": { "type": "Point", "coordinates": [ 121.439006, 31.196016 ] } },
{ "type": "Feature", "properties": { "Name": "上海九院口腔科", "Ctype": "三级甲等医院", "Ntype": "090101", "Address": null, "Telephone": "021-23271699" }, "geometry": { "type": "Point", "coordinates": [ 121.487291, 31.201599 ] } },
{ "type": "Feature", "properties": { "Name": "上海市儿童医院门诊", "Ctype": "三级甲等医院", "Ntype": "090101", "Address": null, "Telephone": "021-62455563" }, "geometry": { "type": "Point", "coordinates": [ 121.387069, 31.226947 ] } },
{ "type": "Feature", "properties": { "Name": "上海交通大学医学院附属国际和平妇幼保健院门诊", "Ctype": "三级甲等医院", "Ntype": "090101", "Address": null, "Telephone": null }, "geometry": { "type": "Point", "coordinates": [ 121.438364, 31.196471 ] } },
{ "type": "Feature", "properties": { "Name": "上海交通大学医学院附属第九人民医院南院８", "Ctype": "三级甲等医院", "Ntype": "090101", "Address": null, "Telephone": null }, "geometry": { "type": "Point", "coordinates": [ 121.485711, 31.203383 ] } },
{ "type": "Feature", "properties": { "Name": "复旦大学附属肿瘤医院１号楼", "Ctype": "三级甲等医院", "Ntype": "090101", "Address": null, "Telephone": null }, "geometry": { "type": "Point", "coordinates": [ 121.453349, 31.191567 ] } },
{ "type": "Feature", "properties": { "Name": "瑞金医院儿科急诊", "Ctype": "三级甲等医院", "Ntype": "090101", "Address": null, "Telephone": null }, "geometry": { "type": "Point", "coordinates": [ 121.466175351944457, 31.211942480277777 ] } },
{ "type": "Feature", "properties": { "Name": "上海中医药大学附属曙光医院（西院）", "Ctype": "三级甲等医院", "Ntype": "090101", "Address": "普安路１８５", "Telephone": "021-53821650|20256666|53827537" }, "geometry": { "type": "Point", "coordinates": [ 121.478671666666671, 31.222934444444444 ] } },
{ "type": "Feature", "properties": { "Name": "上海中医药大学附属曙光医院西院住院部", "Ctype": "三级甲等医院", "Ntype": "090101", "Address": null, "Telephone": null }, "geometry": { "type": "Point", "coordinates": [ 121.479189, 31.222899 ] } },
{ "type": "Feature", "properties": { "Name": "复旦大学附属华东医院急诊", "Ctype": "三级甲等医院", "Ntype": "090101", "Address": null, "Telephone": null }, "geometry": { "type": "Point", "coordinates": [ 121.440529, 31.21891 ] } },
{ "type": "Feature", "properties": { "Name": "瑞金医院二舍", "Ctype": "三级甲等医院", "Ntype": "090101", "Address": null, "Telephone": null }, "geometry": { "type": "Point", "coordinates": [ 121.466172222222212, 31.21286666666667 ] } },
{ "type": "Feature", "properties": { "Name": "光华医院针灸推拿伤科病房", "Ctype": "三级甲等医院", "Ntype": "090101", "Address": null, "Telephone": null }, "geometry": { "type": "Point", "coordinates": [ 121.42239444444445, 31.205041666666666 ] } },
{ "type": "Feature", "properties": { "Name": "复旦大学附属华东医院行政综合楼", "Ctype": "三级甲等医院", "Ntype": "090101", "Address": null, "Telephone": null }, "geometry": { "type": "Point", "coordinates": [ 121.441866666666655, 31.218993055555554 ] } },
{ "type": "Feature", "properties": { "Name": "上海市光华中西医结合医院行政中心", "Ctype": "三级甲等医院", "Ntype": "090101", "Address": null, "Telephone": null }, "geometry": { "type": "Point", "coordinates": [ 121.421053, 31.205061 ] } },
{ "type": "Feature", "properties": { "Name": "上海交通大学医学院附属瑞金医院", "Ctype": "三级甲等医院", "Ntype": "090101", "Address": "瑞金二路１９７号", "Telephone": null }, "geometry": { "type": "Point", "coordinates": [ 121.467595, 31.211811 ] } },
{ "type": "Feature", "properties": { "Name": "上海交通大学医学院附属第九人民医院综合服务部", "Ctype": "三级甲等医院", "Ntype": "090101", "Address": "制造局路６３９", "Telephone": null }, "geometry": { "type": "Point", "coordinates": [ 121.485641595, 31.202912265833334 ] } },
{ "type": "Feature", "properties": { "Name": "上海市第六人民医院住院部", "Ctype": "三级甲等医院", "Ntype": "090101", "Address": "钦州北路１３３", "Telephone": null }, "geometry": { "type": "Point", "coordinates": [ 121.422594, 31.179727 ] } },
{ "type": "Feature", "properties": { "Name": "上海交通大学医学院附属仁济医院西院门诊部", "Ctype": "三级甲等医院", "Ntype": "090101", "Address": null, "Telephone": null }, "geometry": { "type": "Point", "coordinates": [ 121.484213, 31.233339 ] } },
{ "type": "Feature", "properties": { "Name": "复旦大学附属华东医院７号楼", "Ctype": "三级甲等医院", "Ntype": "090101", "Address": null, "Telephone": null }, "geometry": { "type": "Point", "coordinates": [ 121.440495627499999, 31.218790726388889 ] } },
{ "type": "Feature", "properties": { "Name": "复旦大学附属华东医院整形美容科", "Ctype": "三级甲等医院", "Ntype": "090101", "Address": "复旦大学附属华东医院５号楼１层", "Telephone": null }, "geometry": { "type": "Point", "coordinates": [ 121.441333, 31.218867 ] } },
{ "type": "Feature", "properties": { "Name": "上海市儿童医院急诊", "Ctype": "三级甲等医院", "Ntype": "090101", "Address": "泸定路３５５号", "Telephone": null }, "geometry": { "type": "Point", "coordinates": [ 121.387148708888887, 31.227149793888888 ] } },
{ "type": "Feature", "properties": { "Name": "中国人民解放军第四五五医院办公楼", "Ctype": "三级甲等医院", "Ntype": "090101", "Address": null, "Telephone": null }, "geometry": { "type": "Point", "coordinates": [ 121.42815, 31.199758333333335 ] } },
{ "type": "Feature", "properties": { "Name": "复旦大学枫林校区附属中山医院２１号楼", "Ctype": "三级甲等医院", "Ntype": "090101", "Address": "医学院路１１１号", "Telephone": null }, "geometry": { "type": "Point", "coordinates": [ 121.453075606111099, 31.198823254166665 ] } },
{ "type": "Feature", "properties": { "Name": "上海市儿童医院特需门诊", "Ctype": "三级甲等医院", "Ntype": "090101", "Address": "泸定路３５５", "Telephone": null }, "geometry": { "type": "Point", "coordinates": [ 121.387069353333331, 31.226834799722219 ] } },
{ "type": "Feature", "properties": { "Name": "中国人民解放军第四五五医院门诊部", "Ctype": "三级甲等医院", "Ntype": "090101", "Address": null, "Telephone": null }, "geometry": { "type": "Point", "coordinates": [ 121.427861111111113, 31.199763888888889 ] } },
{ "type": "Feature", "properties": { "Name": "复旦大学附属中山医院东院区１９号楼", "Ctype": "三级甲等医院", "Ntype": "090101", "Address": null, "Telephone": null }, "geometry": { "type": "Point", "coordinates": [ 121.456157917777773, 31.197718523611112 ] } },
{ "type": "Feature", "properties": { "Name": "复旦大学附属华东医院５号楼", "Ctype": "三级甲等医院", "Ntype": "090101", "Address": null, "Telephone": null }, "geometry": { "type": "Point", "coordinates": [ 121.441333333333333, 31.218866666666667 ] } },
{ "type": "Feature", "properties": { "Name": "复旦大学附属华东医院门急诊化验室", "Ctype": "三级甲等医院", "Ntype": "090101", "Address": null, "Telephone": null }, "geometry": { "type": "Point", "coordinates": [ 121.441333333333333, 31.218866666666667 ] } },
{ "type": "Feature", "properties": { "Name": "上海交通大学医学院附属第九人民医院南院６", "Ctype": "三级甲等医院", "Ntype": "090101", "Address": null, "Telephone": null }, "geometry": { "type": "Point", "coordinates": [ 121.486712, 31.202718 ] } },
{ "type": "Feature", "properties": { "Name": "上海中医药大学附属龙华医院药剂楼", "Ctype": "三级甲等医院", "Ntype": "090101", "Address": "宛平南路７２５", "Telephone": null }, "geometry": { "type": "Point", "coordinates": [ 121.45006, 31.188712 ] } },
{ "type": "Feature", "properties": { "Name": "上海中医药大学附属曙光医院西院肝科十八病区", "Ctype": "三级甲等医院", "Ntype": "090101", "Address": "普安路１８５", "Telephone": null }, "geometry": { "type": "Point", "coordinates": [ 121.478949876666675, 31.223266339444447 ] } },
{ "type": "Feature", "properties": { "Name": "复旦大学附属华东医院门诊抽血室", "Ctype": "三级甲等医院", "Ntype": "090101", "Address": null, "Telephone": null }, "geometry": { "type": "Point", "coordinates": [ 121.441327777777786, 31.218866666666667 ] } },
{ "type": "Feature", "properties": { "Name": "复旦大学附属眼耳鼻喉科医院７", "Ctype": "三级甲等医院", "Ntype": "090101", "Address": null, "Telephone": null }, "geometry": { "type": "Point", "coordinates": [ 121.453794444444441, 31.209563888888887 ] } },
{ "type": "Feature", "properties": { "Name": "光华医院门急诊", "Ctype": "三级甲等医院", "Ntype": "090101", "Address": null, "Telephone": null }, "geometry": { "type": "Point", "coordinates": [ 121.422291666666666, 31.204895833333332 ] } },
{ "type": "Feature", "properties": { "Name": "上海交通大学医学院附属第九人民医院南院１０", "Ctype": "三级甲等医院", "Ntype": "090101", "Address": "制造局路６３９", "Telephone": null }, "geometry": { "type": "Point", "coordinates": [ 121.485416, 31.20302 ] } },
{ "type": "Feature", "properties": { "Name": "复旦大学附属中山医院东院区１３号楼", "Ctype": "三级甲等医院", "Ntype": "090101", "Address": null, "Telephone": null }, "geometry": { "type": "Point", "coordinates": [ 121.457295953611109, 31.197803357777779 ] } },
{ "type": "Feature", "properties": { "Name": "复旦大学附属华山医院５", "Ctype": "三级甲等医院", "Ntype": "090101", "Address": null, "Telephone": null }, "geometry": { "type": "Point", "coordinates": [ 121.4436888888889, 31.215613888888889 ] } },
{ "type": "Feature", "properties": { "Name": "中国人民解放军第四五五医院骨科二病区", "Ctype": "三级甲等医院", "Ntype": "090101", "Address": null, "Telephone": null }, "geometry": { "type": "Point", "coordinates": [ 121.428555555555548, 31.200808333333335 ] } },
{ "type": "Feature", "properties": { "Name": "复旦大学附属肿瘤医院核医学科", "Ctype": "三级甲等医院", "Ntype": "090101", "Address": null, "Telephone": null }, "geometry": { "type": "Point", "coordinates": [ 121.45349, 31.19212 ] } },
{ "type": "Feature", "properties": { "Name": "上海交通大学医学院附属仁济医院", "Ctype": "三级甲等医院", "Ntype": "090101", "Address": null, "Telephone": null }, "geometry": { "type": "Point", "coordinates": [ 121.484009, 31.233612 ] } },
{ "type": "Feature", "properties": { "Name": "上海市儿童医院影像科", "Ctype": "三级甲等医院", "Ntype": "090101", "Address": null, "Telephone": null }, "geometry": { "type": "Point", "coordinates": [ 121.44821, 31.229192 ] } },
{ "type": "Feature", "properties": { "Name": "上海市儿童医院９号楼", "Ctype": "三级甲等医院", "Ntype": "090101", "Address": null, "Telephone": null }, "geometry": { "type": "Point", "coordinates": [ 121.447861111111109, 31.229916666666664 ] } },
{ "type": "Feature", "properties": { "Name": "复旦大学附属中山医院门诊综合楼", "Ctype": "三级甲等医院", "Ntype": "090101", "Address": "医学院路１１１", "Telephone": null }, "geometry": { "type": "Point", "coordinates": [ 121.453476212500007, 31.199004233888889 ] } },
{ "type": "Feature", "properties": { "Name": "上海交通大学医学院附属第九人民医院（瞿溪路）", "Ctype": "三级甲等医院", "Ntype": "090101", "Address": "瞿溪路５４６、５００、５５０", "Telephone": null }, "geometry": { "type": "Point", "coordinates": [ 121.48728518027778, 31.201681226388889 ] } },
{ "type": "Feature", "properties": { "Name": "上海交通大学医学院附属第九人民医院南院１", "Ctype": "三级甲等医院", "Ntype": "090101", "Address": "制造局路６３９号", "Telephone": null }, "geometry": { "type": "Point", "coordinates": [ 121.485922, 31.2021 ] } },
{ "type": "Feature", "properties": { "Name": "上海交通大学医学院附属第九人民医院南院９", "Ctype": "三级甲等医院", "Ntype": "090101", "Address": "制造局路６３９", "Telephone": null }, "geometry": { "type": "Point", "coordinates": [ 121.486003, 31.203151 ] } },
{ "type": "Feature", "properties": { "Name": "上海交通大学医学院附属第九人民医院南院２", "Ctype": "三级甲等医院", "Ntype": "090101", "Address": "制造局路６３９", "Telephone": null }, "geometry": { "type": "Point", "coordinates": [ 121.486327, 31.20206 ] } },
{ "type": "Feature", "properties": { "Name": "上海交通大学医学院附属瑞金医院核医学科ＰＥＴ／ＣＴ中心", "Ctype": "三级甲等医院", "Ntype": "090101", "Address": null, "Telephone": null }, "geometry": { "type": "Point", "coordinates": [ 121.466682, 31.212115 ] } },
{ "type": "Feature", "properties": { "Name": "光华医院６", "Ctype": "三级甲等医院", "Ntype": "090101", "Address": null, "Telephone": null }, "geometry": { "type": "Point", "coordinates": [ 121.422786111111122, 31.204991666666668 ] } },
{ "type": "Feature", "properties": { "Name": "光华医院３", "Ctype": "三级甲等医院", "Ntype": "090101", "Address": null, "Telephone": null }, "geometry": { "type": "Point", "coordinates": [ 121.422352777777775, 31.204983333333335 ] } },
{ "type": "Feature", "properties": { "Name": "光华医院５", "Ctype": "三级甲等医院", "Ntype": "090101", "Address": null, "Telephone": null }, "geometry": { "type": "Point", "coordinates": [ 121.42239444444445, 31.205041666666666 ] } },
{ "type": "Feature", "properties": { "Name": "复旦大学附属眼耳鼻喉科医院８", "Ctype": "三级甲等医院", "Ntype": "090101", "Address": "汾阳路８３", "Telephone": null }, "geometry": { "type": "Point", "coordinates": [ 121.453688888888891, 31.209130555555554 ] } },
{ "type": "Feature", "properties": { "Name": "复旦大学附属眼耳鼻喉科医院５", "Ctype": "三级甲等医院", "Ntype": "090101", "Address": "汾阳路８３", "Telephone": null }, "geometry": { "type": "Point", "coordinates": [ 121.452666666666659, 31.209016666666667 ] } },
{ "type": "Feature", "properties": { "Name": "复旦大学附属眼耳鼻喉科医院２", "Ctype": "三级甲等医院", "Ntype": "090101", "Address": null, "Telephone": null }, "geometry": { "type": "Point", "coordinates": [ 121.453402777777782, 31.20943611111111 ] } },
{ "type": "Feature", "properties": { "Name": "复旦大学附属眼耳鼻喉科医院１", "Ctype": "三级甲等医院", "Ntype": "090101", "Address": "汾阳路８３", "Telephone": null }, "geometry": { "type": "Point", "coordinates": [ 121.453555555555553, 31.209572222222224 ] } },
{ "type": "Feature", "properties": { "Name": "复旦大学附属眼耳鼻喉科医院３", "Ctype": "三级甲等医院", "Ntype": "090101", "Address": null, "Telephone": null }, "geometry": { "type": "Point", "coordinates": [ 121.453, 31.209355555555554 ] } },
{ "type": "Feature", "properties": { "Name": "中山医院体检中心", "Ctype": "三级甲等医院", "Ntype": "090101", "Address": null, "Telephone": "021-64041990|56810267" }, "geometry": { "type": "Point", "coordinates": [ 121.455615, 31.197092 ] } },
{ "type": "Feature", "properties": { "Name": "上海交通大学医学院附属第九人民医院南院门诊部", "Ctype": "三级甲等医院", "Ntype": "090101", "Address": null, "Telephone": null }, "geometry": { "type": "Point", "coordinates": [ 121.485563, 31.202811 ] } },
{ "type": "Feature", "properties": { "Name": "复旦大学附属华山医院临床医学中心", "Ctype": "三级甲等医院", "Ntype": "090101", "Address": null, "Telephone": null }, "geometry": { "type": "Point", "coordinates": [ 121.443263, 31.216108 ] } },
{ "type": "Feature", "properties": { "Name": "上海九院美容整形外科", "Ctype": "三级甲等医院", "Ntype": "090101", "Address": null, "Telephone": "021-60524967|60643175" }, "geometry": { "type": "Point", "coordinates": [ 121.486493, 31.202036 ] } },
{ "type": "Feature", "properties": { "Name": "上海中山医院门诊部", "Ctype": "三级甲等医院", "Ntype": "090101", "Address": null, "Telephone": "021-64041990" }, "geometry": { "type": "Point", "coordinates": [ 121.453215, 31.198555 ] } },
{ "type": "Feature", "properties": { "Name": "复旦大学附属华东医院６号楼", "Ctype": "三级甲等医院", "Ntype": "090101", "Address": null, "Telephone": null }, "geometry": { "type": "Point", "coordinates": [ 121.440538888888895, 31.218884444444445 ] } },
{ "type": "Feature", "properties": { "Name": "上海市儿童医院５号楼", "Ctype": "三级甲等医院", "Ntype": "090101", "Address": null, "Telephone": null }, "geometry": { "type": "Point", "coordinates": [ 121.448393966388892, 31.229359768888891 ] } },
{ "type": "Feature", "properties": { "Name": "中国人民解放军第八五医院手足显微外科门诊·急诊", "Ctype": "三级甲等医院", "Ntype": "090101", "Address": null, "Telephone": null }, "geometry": { "type": "Point", "coordinates": [ 121.432769444444432, 31.20952777777778 ] } },
{ "type": "Feature", "properties": { "Name": "上海市儿童医院住院部", "Ctype": "三级甲等医院", "Ntype": "090101", "Address": "泸定路３５５号上海市儿童医院内", "Telephone": null }, "geometry": { "type": "Point", "coordinates": [ 121.386888563333343, 31.227359754722222 ] } },
{ "type": "Feature", "properties": { "Name": "中国人民解放军第四五五医院急诊", "Ctype": "三级甲等医院", "Ntype": "090101", "Address": "淮海西路３３８", "Telephone": null }, "geometry": { "type": "Point", "coordinates": [ 121.427943, 31.199648 ] } },
{ "type": "Feature", "properties": { "Name": "上海交通大学医学院附属第九人民医院行政楼", "Ctype": "三级甲等医院", "Ntype": "090101", "Address": "制造局路６３９", "Telephone": null }, "geometry": { "type": "Point", "coordinates": [ 121.485736797777776, 31.20322521 ] } },
{ "type": "Feature", "properties": { "Name": "复旦大学附属眼耳鼻喉科医院９号楼", "Ctype": "三级甲等医院", "Ntype": "090101", "Address": "汾阳路８３", "Telephone": null }, "geometry": { "type": "Point", "coordinates": [ 121.45375, 31.2088 ] } },
{ "type": "Feature", "properties": { "Name": "上海市第六人民医院急诊", "Ctype": "三级甲等医院", "Ntype": "090101", "Address": "宜山路６１８", "Telephone": null }, "geometry": { "type": "Point", "coordinates": [ 121.423284797499988, 31.178120708888887 ] } },
{ "type": "Feature", "properties": { "Name": "中国人民解放军第四五五医院妇科", "Ctype": "三级甲等医院", "Ntype": "090101", "Address": null, "Telephone": null }, "geometry": { "type": "Point", "coordinates": [ 121.428594444444443, 31.200758333333333 ] } },
{ "type": "Feature", "properties": { "Name": "龙华医院科技楼", "Ctype": "三级甲等医院", "Ntype": "090101", "Address": "宛平南路７２５", "Telephone": null }, "geometry": { "type": "Point", "coordinates": [ 121.450854, 31.188966 ] } },
{ "type": "Feature", "properties": { "Name": "光华医院住院部", "Ctype": "三级甲等医院", "Ntype": "090101", "Address": null, "Telephone": null }, "geometry": { "type": "Point", "coordinates": [ 121.422488612222224, 31.204852142500002 ] } },
{ "type": "Feature", "properties": { "Name": "上海中医药大学附属龙华医院肝科门诊病房", "Ctype": "三级甲等医院", "Ntype": "090101", "Address": "宛平南路７２５", "Telephone": null }, "geometry": { "type": "Point", "coordinates": [ 121.450739, 31.188625 ] } },
{ "type": "Feature", "properties": { "Name": "复旦大学附属中山医院东院区１６号楼", "Ctype": "三级甲等医院", "Ntype": "090101", "Address": null, "Telephone": null }, "geometry": { "type": "Point", "coordinates": [ 121.456374088055554, 31.196913540555556 ] } },
{ "type": "Feature", "properties": { "Name": "光华医院手术室", "Ctype": "三级甲等医院", "Ntype": "090101", "Address": null, "Telephone": null }, "geometry": { "type": "Point", "coordinates": [ 121.422488612222224, 31.204852142500002 ] } },
{ "type": "Feature", "properties": { "Name": "上海市第六人民医院儿科门急诊", "Ctype": "三级甲等医院", "Ntype": "090101", "Address": "宜山路６１８", "Telephone": null }, "geometry": { "type": "Point", "coordinates": [ 121.423279534722226, 31.178117645555556 ] } },
{ "type": "Feature", "properties": { "Name": "复旦大学附属华东医院", "Ctype": "三级甲等医院", "Ntype": "090101", "Address": "延安西路２２１", "Telephone": "021-62483180" }, "geometry": { "type": "Point", "coordinates": [ 121.441547, 31.218444 ] } },
{ "type": "Feature", "properties": { "Name": "复旦大学附属华东医院１", "Ctype": "三级甲等医院", "Ntype": "090101", "Address": null, "Telephone": null }, "geometry": { "type": "Point", "coordinates": [ 121.441433333333322, 31.218572222222221 ] } },
{ "type": "Feature", "properties": { "Name": "复旦大学附属华东医院８", "Ctype": "三级甲等医院", "Ntype": "090101", "Address": null, "Telephone": null }, "geometry": { "type": "Point", "coordinates": [ 121.440763888888895, 31.218391666666669 ] } },
{ "type": "Feature", "properties": { "Name": "复旦大学附属华东医院９", "Ctype": "三级甲等医院", "Ntype": "090101", "Address": null, "Telephone": null }, "geometry": { "type": "Point", "coordinates": [ 121.441027777777776, 31.218486111111112 ] } },
{ "type": "Feature", "properties": { "Name": "复旦大学附属眼耳鼻喉科医院放疗科", "Ctype": "三级甲等医院", "Ntype": "090101", "Address": "汾阳路８３", "Telephone": null }, "geometry": { "type": "Point", "coordinates": [ 121.452666666666659, 31.209016666666667 ] } },
{ "type": "Feature", "properties": { "Name": "瑞金医院爱菊楼", "Ctype": "三级甲等医院", "Ntype": "090101", "Address": "瑞金二路１９７号", "Telephone": null }, "geometry": { "type": "Point", "coordinates": [ 121.467205555555552, 31.210566666666665 ] } },
{ "type": "Feature", "properties": { "Name": "复旦大学附属华东医院体疗楼", "Ctype": "三级甲等医院", "Ntype": "090101", "Address": null, "Telephone": null }, "geometry": { "type": "Point", "coordinates": [ 121.442647222222234, 31.219081944444447 ] } },
{ "type": "Feature", "properties": { "Name": "复旦大学附属华东医院特需医疗部", "Ctype": "三级甲等医院", "Ntype": "090101", "Address": "延安西路２２３", "Telephone": null }, "geometry": { "type": "Point", "coordinates": [ 121.44105, 31.219033333333336 ] } },
{ "type": "Feature", "properties": { "Name": "上海中医药大学附属龙华医院特诊部", "Ctype": "三级甲等医院", "Ntype": "090101", "Address": "宛平南路７２５", "Telephone": null }, "geometry": { "type": "Point", "coordinates": [ 121.450144393333332, 31.187286890833331 ] } },
{ "type": "Feature", "properties": { "Name": "中国人民解放军第四五五医院肿瘤放疗三病区", "Ctype": "三级甲等医院", "Ntype": "090101", "Address": null, "Telephone": null }, "geometry": { "type": "Point", "coordinates": [ 121.42831666666666, 31.199902777777776 ] } },
{ "type": "Feature", "properties": { "Name": "复旦大学附属肿瘤医院超声诊断科（Ｂ超室）", "Ctype": "三级甲等医院", "Ntype": "090101", "Address": null, "Telephone": null }, "geometry": { "type": "Point", "coordinates": [ 121.454328, 31.190926 ] } },
{ "type": "Feature", "properties": { "Name": "上海市放射诊断质量控制中心", "Ctype": "三级甲等医院", "Ntype": "090101", "Address": "乌鲁木齐中路１２复旦大学附属华山医院", "Telephone": null }, "geometry": { "type": "Point", "coordinates": [ 121.442947, 31.216125 ] } },
{ "type": "Feature", "properties": { "Name": "上海中医药大学附属龙华医院远志楼", "Ctype": "三级甲等医院", "Ntype": "090101", "Address": "宛平南路７２５", "Telephone": null }, "geometry": { "type": "Point", "coordinates": [ 121.450918, 31.187697 ] } },
{ "type": "Feature", "properties": { "Name": "中国人民解放军第四五五医院", "Ctype": "三级甲等医院", "Ntype": "090101", "Address": "淮海西路３３８号", "Telephone": "021-81815455|64339067|62800669" }, "geometry": { "type": "Point", "coordinates": [ 121.427912777777777, 31.200462777777776 ] } },
{ "type": "Feature", "properties": { "Name": "复旦大学附属华东医院医技楼", "Ctype": "三级甲等医院", "Ntype": "090101", "Address": null, "Telephone": null }, "geometry": { "type": "Point", "coordinates": [ 121.440763888888895, 31.218394444444446 ] } },
{ "type": "Feature", "properties": { "Name": "瑞金医院制剂室", "Ctype": "三级甲等医院", "Ntype": "090101", "Address": null, "Telephone": null }, "geometry": { "type": "Point", "coordinates": [ 121.467693, 31.210385 ] } },
{ "type": "Feature", "properties": { "Name": "复旦大学附属华东医院新医技楼", "Ctype": "三级甲等医院", "Ntype": "090101", "Address": null, "Telephone": null }, "geometry": { "type": "Point", "coordinates": [ 121.441027777777776, 31.2184875 ] } },
{ "type": "Feature", "properties": { "Name": "复旦大学附属肿瘤医院磁共振４机房候诊室", "Ctype": "三级甲等医院", "Ntype": "090101", "Address": null, "Telephone": null }, "geometry": { "type": "Point", "coordinates": [ 121.453156, 31.191858 ] } },
{ "type": "Feature", "properties": { "Name": "上海市儿童医院１０号楼", "Ctype": "三级甲等医院", "Ntype": "090101", "Address": null, "Telephone": null }, "geometry": { "type": "Point", "coordinates": [ 121.448177777777772, 31.230172222222222 ] } },
{ "type": "Feature", "properties": { "Name": "上海长征医院门诊部", "Ctype": "三级甲等医院", "Ntype": "090101", "Address": "成都北路４４０", "Telephone": null }, "geometry": { "type": "Point", "coordinates": [ 121.467412, 31.23174 ] } },
{ "type": "Feature", "properties": { "Name": "复旦大学附属华山医院肠道门诊", "Ctype": "三级甲等医院", "Ntype": "090101", "Address": "长乐路１０４０－１", "Telephone": null }, "geometry": { "type": "Point", "coordinates": [ 121.444138888888901, 31.215608333333336 ] } },
{ "type": "Feature", "properties": { "Name": "上海市儿童医院静脉用药调配中心", "Ctype": "三级甲等医院", "Ntype": "090101", "Address": null, "Telephone": null }, "geometry": { "type": "Point", "coordinates": [ 121.448768501944443, 31.229590397222221 ] } },
{ "type": "Feature", "properties": { "Name": "上海中医药大学附属龙华医院门诊", "Ctype": "三级甲等医院", "Ntype": "090101", "Address": "宛平南路７２５", "Telephone": null }, "geometry": { "type": "Point", "coordinates": [ 121.449501, 31.18801 ] } },
{ "type": "Feature", "properties": { "Name": "复旦大学附属华山医院分部", "Ctype": "三级甲等医院", "Ntype": "090101", "Address": "江苏路７９６", "Telephone": "021-62131110|52410309" }, "geometry": { "type": "Point", "coordinates": [ 121.433141, 31.212091 ] } },
{ "type": "Feature", "properties": { "Name": "同济大学附属第一妇婴保健院", "Ctype": "三级甲等医院", "Ntype": "090101", "Address": "长乐路５３６－２号", "Telephone": "021-54035206|58745823|58838888" }, "geometry": { "type": "Point", "coordinates": [ 121.456257209166665, 31.220156387777777 ] } },
{ "type": "Feature", "properties": { "Name": "复旦大学附属华山医院门诊", "Ctype": "三级甲等医院", "Ntype": "090101", "Address": null, "Telephone": null }, "geometry": { "type": "Point", "coordinates": [ 121.443432, 31.2167 ] } },
{ "type": "Feature", "properties": { "Name": "复旦大学附属华东医院２东楼", "Ctype": "三级甲等医院", "Ntype": "090101", "Address": null, "Telephone": null }, "geometry": { "type": "Point", "coordinates": [ 121.441916666666671, 31.218777777777781 ] } },
{ "type": "Feature", "properties": { "Name": "上海交通大学医学院附属第九人民医院发热门诊", "Ctype": "三级甲等医院", "Ntype": "090101", "Address": "制造局路６５１", "Telephone": null }, "geometry": { "type": "Point", "coordinates": [ 121.48546847027778, 31.202483695555557 ] } },
{ "type": "Feature", "properties": { "Name": "复旦大学附属肿瘤医院门诊", "Ctype": "三级甲等医院", "Ntype": "090101", "Address": "安东路２７０", "Telephone": null }, "geometry": { "type": "Point", "coordinates": [ 121.453772, 31.191663 ] } },
{ "type": "Feature", "properties": { "Name": "复旦大学附属华山医院第三门诊部", "Ctype": "三级甲等医院", "Ntype": "090101", "Address": "江苏路７９６", "Telephone": null }, "geometry": { "type": "Point", "coordinates": [ 121.433530420277776, 31.212490368333334 ] } },
{ "type": "Feature", "properties": { "Name": "复旦大学附属华山医院肝病门诊", "Ctype": "三级甲等医院", "Ntype": "090101", "Address": "长乐路１０４０", "Telephone": null }, "geometry": { "type": "Point", "coordinates": [ 121.443855555555558, 31.215563888888887 ] } },
{ "type": "Feature", "properties": { "Name": "上海中医药大学附属龙华医院急诊", "Ctype": "三级甲等医院", "Ntype": "090101", "Address": "零陵路５３２", "Telephone": null }, "geometry": { "type": "Point", "coordinates": [ 121.44935, 31.188477 ] } },
{ "type": "Feature", "properties": { "Name": "中山医院外科大楼", "Ctype": "三级甲等医院", "Ntype": "090101", "Address": null, "Telephone": null }, "geometry": { "type": "Point", "coordinates": [ 121.454090440555561, 31.197501898888888 ] } },
{ "type": "Feature", "properties": { "Name": "复旦大学附属中山医院（放疗科）", "Ctype": "三级甲等医院", "Ntype": "090101", "Address": null, "Telephone": null }, "geometry": { "type": "Point", "coordinates": [ 121.453169, 31.197898 ] } },
{ "type": "Feature", "properties": { "Name": "上海中医药大学附属龙华医院１０", "Ctype": "三级甲等医院", "Ntype": "090101", "Address": "宛平南路７２５", "Telephone": null }, "geometry": { "type": "Point", "coordinates": [ 121.450916666666657, 31.187697222222223 ] } },
{ "type": "Feature", "properties": { "Name": "光华医院通风科病房", "Ctype": "三级甲等医院", "Ntype": "090101", "Address": null, "Telephone": null }, "geometry": { "type": "Point", "coordinates": [ 121.42239444444445, 31.205041666666666 ] } },
{ "type": "Feature", "properties": { "Name": "上海长征医院门诊部（西南１门）", "Ctype": "三级甲等医院", "Ntype": "090101", "Address": "成都北路４４０", "Telephone": null }, "geometry": { "type": "Point", "coordinates": [ 121.467180277777771, 31.2315825 ] } },
{ "type": "Feature", "properties": { "Name": "上海交通大学医学院附属第九人民医院（２号门）", "Ctype": "三级甲等医院", "Ntype": "090101", "Address": "制造局路６３９号", "Telephone": null }, "geometry": { "type": "Point", "coordinates": [ 121.485276179166675, 31.202694838611112 ] } },
{ "type": "Feature", "properties": { "Name": "上海长征医院门诊部（西南２门）", "Ctype": "三级甲等医院", "Ntype": "090101", "Address": null, "Telephone": null }, "geometry": { "type": "Point", "coordinates": [ 121.467155109166669, 31.231864628888889 ] } },
{ "type": "Feature", "properties": { "Name": "上海交通大学医学院附属仁济医院西院（东门）", "Ctype": "三级甲等医院", "Ntype": "090101", "Address": null, "Telephone": null }, "geometry": { "type": "Point", "coordinates": [ 121.484463655555558, 31.233966005 ] } },
{ "type": "Feature", "properties": { "Name": "复旦大学附属华东医院（西北１门）", "Ctype": "三级甲等医院", "Ntype": "090101", "Address": "延安西路２５７", "Telephone": null }, "geometry": { "type": "Point", "coordinates": [ 121.440764, 31.218991 ] } },
{ "type": "Feature", "properties": { "Name": "复旦大学附属华东医院（西北２门）", "Ctype": "三级甲等医院", "Ntype": "090101", "Address": "延安西路２２１", "Telephone": null }, "geometry": { "type": "Point", "coordinates": [ 121.441679, 31.219217 ] } },
{ "type": "Feature", "properties": { "Name": "上海市儿童医院（东北１门）", "Ctype": "三级甲等医院", "Ntype": "090101", "Address": null, "Telephone": null }, "geometry": { "type": "Point", "coordinates": [ 121.386293445277772, 31.227590238888887 ] } },
{ "type": "Feature", "properties": { "Name": "中国福利会国际和平妇幼保健院（西１门）", "Ctype": "三级甲等医院", "Ntype": "090101", "Address": "华山路１９６１号", "Telephone": null }, "geometry": { "type": "Point", "coordinates": [ 121.438107228611102, 31.196196298333334 ] } },
{ "type": "Feature", "properties": { "Name": "上海交通大学医学院附属第九人民医院（西北门）", "Ctype": "三级甲等医院", "Ntype": "090101", "Address": "瞿溪路５５０", "Telephone": null }, "geometry": { "type": "Point", "coordinates": [ 121.48708, 31.201899 ] } },
{ "type": "Feature", "properties": { "Name": "复旦大学附属华东医院（东北门）", "Ctype": "三级甲等医院", "Ntype": "090101", "Address": "延安西路１３９号", "Telephone": null }, "geometry": { "type": "Point", "coordinates": [ 121.443228, 31.219503 ] } },
{ "type": "Feature", "properties": { "Name": "复旦大学附属华山医院０", "Ctype": "三级甲等医院", "Ntype": "090101", "Address": null, "Telephone": null }, "geometry": { "type": "Point", "coordinates": [ 121.443972222222214, 31.216136111111108 ] } },
{ "type": "Feature", "properties": { "Name": "复旦大学附属华山医院１４", "Ctype": "三级甲等医院", "Ntype": "090101", "Address": null, "Telephone": null }, "geometry": { "type": "Point", "coordinates": [ 121.443186111111103, 31.215875 ] } },
{ "type": "Feature", "properties": { "Name": "复旦大学附属华山医院８", "Ctype": "三级甲等医院", "Ntype": "090101", "Address": null, "Telephone": null }, "geometry": { "type": "Point", "coordinates": [ 121.442672222222214, 31.215405555555556 ] } },
{ "type": "Feature", "properties": { "Name": "中国人民解放军第四五五医院儿科", "Ctype": "三级甲等医院", "Ntype": "090101", "Address": null, "Telephone": null }, "geometry": { "type": "Point", "coordinates": [ 121.428594444444443, 31.200758333333333 ] } },
{ "type": "Feature", "properties": { "Name": "复旦大学附属华东医院配电房", "Ctype": "三级甲等医院", "Ntype": "090101", "Address": null, "Telephone": null }, "geometry": { "type": "Point", "coordinates": [ 121.442277777777775, 31.218208333333333 ] } },
{ "type": "Feature", "properties": { "Name": "中国人民解放军第八五医院分院（西北门）", "Ctype": "三级甲等医院", "Ntype": "090101", "Address": "沪闵路９５８５", "Telephone": null }, "geometry": { "type": "Point", "coordinates": [ 121.434625, 31.166738 ] } },
{ "type": "Feature", "properties": { "Name": "上海交通大学医学院附属仁济医院西院（东北门）", "Ctype": "三级甲等医院", "Ntype": "090101", "Address": "山东中路１４５号", "Telephone": null }, "geometry": { "type": "Point", "coordinates": [ 121.484473, 31.233627 ] } },
{ "type": "Feature", "properties": { "Name": "中国人民解放军第八五医院头部伽玛刀", "Ctype": "三级甲等医院", "Ntype": "090101", "Address": null, "Telephone": null }, "geometry": { "type": "Point", "coordinates": [ 121.432283333333331, 31.209386111111108 ] } },
{ "type": "Feature", "properties": { "Name": "复旦大学附属华山医院９", "Ctype": "三级甲等医院", "Ntype": "090101", "Address": null, "Telephone": null }, "geometry": { "type": "Point", "coordinates": [ 121.442594444444453, 31.21563888888889 ] } },
{ "type": "Feature", "properties": { "Name": "上海长征医院（南２门）", "Ctype": "三级甲等医院", "Ntype": "090101", "Address": null, "Telephone": null }, "geometry": { "type": "Point", "coordinates": [ 121.46778, 31.231017 ] } },
{ "type": "Feature", "properties": { "Name": "瑞金医院（东南门）", "Ctype": "三级甲等医院", "Ntype": "090101", "Address": "思南路７２", "Telephone": null }, "geometry": { "type": "Point", "coordinates": [ 121.469637296666676, 31.210537923333334 ] } },
{ "type": "Feature", "properties": { "Name": "上海交通大学医学院附属第九人民医院（６号门）", "Ctype": "三级甲等医院", "Ntype": "090101", "Address": null, "Telephone": null }, "geometry": { "type": "Point", "coordinates": [ 121.486084461666664, 31.2018276475 ] } },
{ "type": "Feature", "properties": { "Name": "复旦大学附属中山医院西院区（１号门）", "Ctype": "三级甲等医院", "Ntype": "090101", "Address": "枫林路１８０号", "Telephone": null }, "geometry": { "type": "Point", "coordinates": [ 121.454935833333323, 31.197498055555556 ] } },
{ "type": "Feature", "properties": { "Name": "复旦大学附属中山医院东院区（东南门）", "Ctype": "三级甲等医院", "Ntype": "090101", "Address": null, "Telephone": null }, "geometry": { "type": "Point", "coordinates": [ 121.457443628055557, 31.196661865555555 ] } },
{ "type": "Feature", "properties": { "Name": "复旦大学附属中山医院东院区（６号门）", "Ctype": "三级甲等医院", "Ntype": "090101", "Address": "清真路１６９９", "Telephone": null }, "geometry": { "type": "Point", "coordinates": [ 121.455698320277776, 31.19793807138889 ] } },
{ "type": "Feature", "properties": { "Name": "上海中医药大学附属龙华医院１３", "Ctype": "三级甲等医院", "Ntype": "090101", "Address": "宛平南路７２５", "Telephone": null }, "geometry": { "type": "Point", "coordinates": [ 121.450937, 31.188223 ] } },
{ "type": "Feature", "properties": { "Name": "复旦大学附属华东医院１３", "Ctype": "三级甲等医院", "Ntype": "090101", "Address": null, "Telephone": null }, "geometry": { "type": "Point", "coordinates": [ 121.442405555555553, 31.217858333333332 ] } },
{ "type": "Feature", "properties": { "Name": "复旦大学附属华东医院３", "Ctype": "三级甲等医院", "Ntype": "090101", "Address": null, "Telephone": null }, "geometry": { "type": "Point", "coordinates": [ 121.441866666666655, 31.218993055555554 ] } },
{ "type": "Feature", "properties": { "Name": "复旦大学附属华东医院１２", "Ctype": "三级甲等医院", "Ntype": "090101", "Address": null, "Telephone": null }, "geometry": { "type": "Point", "coordinates": [ 121.442277777777775, 31.218205555555553 ] } },
{ "type": "Feature", "properties": { "Name": "复旦大学附属中山医院东院区１４", "Ctype": "三级甲等医院", "Ntype": "090101", "Address": null, "Telephone": null }, "geometry": { "type": "Point", "coordinates": [ 121.457630555555554, 31.197877777777776 ] } },
{ "type": "Feature", "properties": { "Name": "上海市儿童医院（东２门）", "Ctype": "三级甲等医院", "Ntype": "090101", "Address": "泸定路３５５", "Telephone": null }, "geometry": { "type": "Point", "coordinates": [ 121.387277885277769, 31.225911323333332 ] } },
{ "type": "Feature", "properties": { "Name": "上海中医药大学附属龙华医院１２", "Ctype": "三级甲等医院", "Ntype": "090101", "Address": "宛平南路７２５", "Telephone": null }, "geometry": { "type": "Point", "coordinates": [ 121.451064, 31.188304 ] } },
{ "type": "Feature", "properties": { "Name": "上海交通大学医学院附属第九人民医院南院（３号门）", "Ctype": "三级甲等医院", "Ntype": "090101", "Address": "制造局路６３９号", "Telephone": null }, "geometry": { "type": "Point", "coordinates": [ 121.485059, 31.203185 ] } },
{ "type": "Feature", "properties": { "Name": "瑞金医院（西南２门）", "Ctype": "三级甲等医院", "Ntype": "090101", "Address": "瑞金二路１９７号", "Telephone": null }, "geometry": { "type": "Point", "coordinates": [ 121.466274875, 31.21085526638889 ] } },
{ "type": "Feature", "properties": { "Name": "上海市第六人民医院住院部（西北门）", "Ctype": "三级甲等医院", "Ntype": "090101", "Address": "钦州北路１３３", "Telephone": null }, "geometry": { "type": "Point", "coordinates": [ 121.422820487222225, 31.179742535833331 ] } },
{ "type": "Feature", "properties": { "Name": "上海中医药大学附属龙华医院（西南门）", "Ctype": "三级甲等医院", "Ntype": "090101", "Address": "宛平南路７２５", "Telephone": null }, "geometry": { "type": "Point", "coordinates": [ 121.449655, 31.187412 ] } },
{ "type": "Feature", "properties": { "Name": "中国人民解放军第四五五医院（东南门）", "Ctype": "三级甲等医院", "Ntype": "090101", "Address": "淮海西路３３８", "Telephone": null }, "geometry": { "type": "Point", "coordinates": [ 121.428147529166665, 31.199491952500001 ] } },
{ "type": "Feature", "properties": { "Name": "复旦大学附属华山医院（西北门）", "Ctype": "三级甲等医院", "Ntype": "090101", "Address": "华山路４９３", "Telephone": null }, "geometry": { "type": "Point", "coordinates": [ 121.443138888888882, 31.216958333333334 ] } },
{ "type": "Feature", "properties": { "Name": "瑞金医院（１号门）", "Ctype": "三级甲等医院", "Ntype": "090101", "Address": "瑞金二路１９７号", "Telephone": null }, "geometry": { "type": "Point", "coordinates": [ 121.465988402222223, 31.211682007777778 ] } },
{ "type": "Feature", "properties": { "Name": "复旦大学附属中山医院东院区（４号门）", "Ctype": "三级甲等医院", "Ntype": "090101", "Address": "枫林路１９９", "Telephone": null }, "geometry": { "type": "Point", "coordinates": [ 121.455616628055566, 31.196371622500003 ] } },
{ "type": "Feature", "properties": { "Name": "复旦大学附属中山医院东院区（９号门）", "Ctype": "三级甲等医院", "Ntype": "090101", "Address": "小木桥路２６０", "Telephone": null }, "geometry": { "type": "Point", "coordinates": [ 121.458053825277787, 31.19750067888889 ] } },
{ "type": "Feature", "properties": { "Name": "上海中医药大学附属龙华医院（西北１门）", "Ctype": "三级甲等医院", "Ntype": "090101", "Address": "零陵路５３２－１", "Telephone": null }, "geometry": { "type": "Point", "coordinates": [ 121.44955655527778, 31.18862052 ] } },
{ "type": "Feature", "properties": { "Name": "复旦大学附属肿瘤医院（南门）", "Ctype": "三级甲等医院", "Ntype": "090101", "Address": "零陵路３９９", "Telephone": null }, "geometry": { "type": "Point", "coordinates": [ 121.453035698888883, 31.190227590833334 ] } },
{ "type": "Feature", "properties": { "Name": "同济大学附属第一妇婴保健院（东南门）", "Ctype": "三级甲等医院", "Ntype": "090101", "Address": "长乐路５３６", "Telephone": null }, "geometry": { "type": "Point", "coordinates": [ 121.456144444444448, 31.21992777777778 ] } },
{ "type": "Feature", "properties": { "Name": "光华医院康复科病房", "Ctype": "三级甲等医院", "Ntype": "090101", "Address": null, "Telephone": null }, "geometry": { "type": "Point", "coordinates": [ 121.42239444444445, 31.205041666666666 ] } },
{ "type": "Feature", "properties": { "Name": "国际和平妇幼保健院（西南２门）", "Ctype": "三级甲等医院", "Ntype": "090101", "Address": "华山路１９６１", "Telephone": null }, "geometry": { "type": "Point", "coordinates": [ 121.437962146388884, 31.196483556666667 ] } },
{ "type": "Feature", "properties": { "Name": "复旦大学附属华山医院６", "Ctype": "三级甲等医院", "Ntype": "090101", "Address": null, "Telephone": null }, "geometry": { "type": "Point", "coordinates": [ 121.443202777777785, 31.215622222222223 ] } },
{ "type": "Feature", "properties": { "Name": "瑞金医院（东北门）", "Ctype": "三级甲等医院", "Ntype": "090101", "Address": null, "Telephone": null }, "geometry": { "type": "Point", "coordinates": [ 121.468477188333324, 31.213473660277778 ] } },
{ "type": "Feature", "properties": { "Name": "上海长征医院（南１门）", "Ctype": "三级甲等医院", "Ntype": "090101", "Address": null, "Telephone": null }, "geometry": { "type": "Point", "coordinates": [ 121.467561, 31.231006 ] } },
{ "type": "Feature", "properties": { "Name": "上海交通大学附属第六人民医院（东南１门）", "Ctype": "三级甲等医院", "Ntype": "090101", "Address": "宜山路６００", "Telephone": null }, "geometry": { "type": "Point", "coordinates": [ 121.424153720555552, 31.178635841388889 ] } },
{ "type": "Feature", "properties": { "Name": "复旦大学附属华山医院（东南门）", "Ctype": "三级甲等医院", "Ntype": "090101", "Address": "长乐路１０６８", "Telephone": null }, "geometry": { "type": "Point", "coordinates": [ 121.443463888888886, 31.215375 ] } },
{ "type": "Feature", "properties": { "Name": "复旦大学附属华山医院肝病门诊（东南门）", "Ctype": "三级甲等医院", "Ntype": "090101", "Address": "长乐路１０４０", "Telephone": null }, "geometry": { "type": "Point", "coordinates": [ 121.443930927499991, 31.215451315277779 ] } },
{ "type": "Feature", "properties": { "Name": "复旦大学附属华山医院肠道门诊（东南门）", "Ctype": "三级甲等医院", "Ntype": "090101", "Address": "长乐路１０４０－１", "Telephone": null }, "geometry": { "type": "Point", "coordinates": [ 121.444156214722213, 31.215501274444446 ] } },
{ "type": "Feature", "properties": { "Name": "上海中医药大学附属岳阳中西医结合医院（东北２门）", "Ctype": "三级甲等医院", "Ntype": "090101", "Address": "青海路４４", "Telephone": null }, "geometry": { "type": "Point", "coordinates": [ 121.464205233333345, 31.230130868055554 ] } },
{ "type": "Feature", "properties": { "Name": "上海中医药大学附属龙华医院（西南２门）", "Ctype": "三级甲等医院", "Ntype": "090101", "Address": null, "Telephone": null }, "geometry": { "type": "Point", "coordinates": [ 121.4495, 31.187746 ] } },
{ "type": "Feature", "properties": { "Name": "上海市红十字儿童医院（新闸路）", "Ctype": "三级甲等医院", "Ntype": "090101", "Address": null, "Telephone": "021-62474880" }, "geometry": { "type": "Point", "coordinates": [ 121.44833238166666, 31.229224031111112 ] } },
{ "type": "Feature", "properties": { "Name": "中国人民解放军第四五五医院整形外科", "Ctype": "三级甲等医院", "Ntype": "090101", "Address": null, "Telephone": null }, "geometry": { "type": "Point", "coordinates": [ 121.427845267777769, 31.199412695277779 ] } },
{ "type": "Feature", "properties": { "Name": "上海交通大学医学院附属第九人民医院南院急诊", "Ctype": "三级甲等医院", "Ntype": "090101", "Address": "制造局路６３９", "Telephone": null }, "geometry": { "type": "Point", "coordinates": [ 121.485416, 31.20302 ] } },
{ "type": "Feature", "properties": { "Name": "上海中医药大学附属龙华医院尚庭", "Ctype": "三级甲等医院", "Ntype": "090101", "Address": "宛平南路７２５", "Telephone": null }, "geometry": { "type": "Point", "coordinates": [ 121.451319, 31.188086 ] } },
{ "type": "Feature", "properties": { "Name": "上海交通大学医学院附属仁济医院西院住院部", "Ctype": "三级甲等医院", "Ntype": "090101", "Address": null, "Telephone": null }, "geometry": { "type": "Point", "coordinates": [ 121.484007, 31.23361 ] } },
{ "type": "Feature", "properties": { "Name": "复旦大学附属眼耳鼻喉科医院１０", "Ctype": "三级甲等医院", "Ntype": "090101", "Address": null, "Telephone": null }, "geometry": { "type": "Point", "coordinates": [ 121.453472222222217, 31.208645833333332 ] } },
{ "type": "Feature", "properties": { "Name": "光华医院关节内科门诊", "Ctype": "三级甲等医院", "Ntype": "090101", "Address": null, "Telephone": null }, "geometry": { "type": "Point", "coordinates": [ 121.422488612222224, 31.204852142500002 ] } },
{ "type": "Feature", "properties": { "Name": "上海长征医院急诊部", "Ctype": "三级甲等医院", "Ntype": "090101", "Address": "凤阳路４１５号", "Telephone": "021-66799217|81886999" }, "geometry": { "type": "Point", "coordinates": [ 121.467251097500011, 31.232744784444442 ] } },
{ "type": "Feature", "properties": { "Name": "上海交通大学医学院附属第九人民医院临床转化医学中心办公室", "Ctype": "三级甲等医院", "Ntype": "090101", "Address": null, "Telephone": null }, "geometry": { "type": "Point", "coordinates": [ 121.48540814361111, 31.20335654583333 ] } },
{ "type": "Feature", "properties": { "Name": "复旦大学附属中山医院东院区１５", "Ctype": "三级甲等医院", "Ntype": "090101", "Address": null, "Telephone": null }, "geometry": { "type": "Point", "coordinates": [ 121.457630577777778, 31.197493555555557 ] } },
{ "type": "Feature", "properties": { "Name": "复旦大学附属华山医院", "Ctype": "三级甲等医院", "Ntype": "090101", "Address": "乌鲁木齐中路１２", "Telephone": "021-62339097|52919963|62498522|60531421|52889999" }, "geometry": { "type": "Point", "coordinates": [ 121.443198384166678, 31.216762873055554 ] } },
{ "type": "Feature", "properties": { "Name": "复旦大学附属华山医院２", "Ctype": "三级甲等医院", "Ntype": "090101", "Address": null, "Telephone": null }, "geometry": { "type": "Point", "coordinates": [ 121.443577777777776, 31.216136111111108 ] } },
{ "type": "Feature", "properties": { "Name": "上海市临床药事质量控制中心", "Ctype": "三级甲等医院", "Ntype": "090101", "Address": null, "Telephone": null }, "geometry": { "type": "Point", "coordinates": [ 121.442947, 31.216125 ] } },
{ "type": "Feature", "properties": { "Name": "复旦大学附属肿瘤医院营养科办公室", "Ctype": "三级甲等医院", "Ntype": "090101", "Address": null, "Telephone": null }, "geometry": { "type": "Point", "coordinates": [ 121.452756, 31.191587 ] } },
{ "type": "Feature", "properties": { "Name": "上海中医药大学附属龙华医院９", "Ctype": "三级甲等医院", "Ntype": "090101", "Address": "宛平南路７２５", "Telephone": null }, "geometry": { "type": "Point", "coordinates": [ 121.450750518888881, 31.188327684722225 ] } },
{ "type": "Feature", "properties": { "Name": "上海中医药大学附属龙华医院", "Ctype": "三级甲等医院", "Ntype": "090101", "Address": "宛平南路７２５", "Telephone": "021-64385700|64398310" }, "geometry": { "type": "Point", "coordinates": [ 121.450497, 31.18799 ] } },
{ "type": "Feature", "properties": { "Name": "上海中医药大学附属龙华医院２", "Ctype": "三级甲等医院", "Ntype": "090101", "Address": null, "Telephone": null }, "geometry": { "type": "Point", "coordinates": [ 121.450222222222223, 31.1878 ] } },
{ "type": "Feature", "properties": { "Name": "上海中医药大学附属龙华医院３", "Ctype": "三级甲等医院", "Ntype": "090101", "Address": "宛平南路７２５", "Telephone": null }, "geometry": { "type": "Point", "coordinates": [ 121.450408333333328, 31.187891666666669 ] } },
{ "type": "Feature", "properties": { "Name": "上海中医药大学附属龙华医院８", "Ctype": "三级甲等医院", "Ntype": "090101", "Address": "宛平南路７２５", "Telephone": null }, "geometry": { "type": "Point", "coordinates": [ 121.4506, 31.188597222222221 ] } },
{ "type": "Feature", "properties": { "Name": "上海中医药大学附属龙华医院肠道门诊", "Ctype": "三级甲等医院", "Ntype": "090101", "Address": "宛平南路７２５", "Telephone": null }, "geometry": { "type": "Point", "coordinates": [ 121.450739, 31.188625 ] } },
{ "type": "Feature", "properties": { "Name": "上海中医药大学附属龙华医院４", "Ctype": "三级甲等医院", "Ntype": "090101", "Address": "宛平南路７２５", "Telephone": null }, "geometry": { "type": "Point", "coordinates": [ 121.450359653055557, 31.188272385277777 ] } },
{ "type": "Feature", "properties": { "Name": "上海中医药大学附属龙华医院１", "Ctype": "三级甲等医院", "Ntype": "090101", "Address": "宛平南路７２５", "Telephone": null }, "geometry": { "type": "Point", "coordinates": [ 121.449869444444445, 31.187411111111111 ] } },
{ "type": "Feature", "properties": { "Name": "上海交通大学医学院附属仁济医院西院儿科", "Ctype": "三级甲等医院", "Ntype": "090101", "Address": null, "Telephone": null }, "geometry": { "type": "Point", "coordinates": [ 121.484342, 31.233707 ] } },
{ "type": "Feature", "properties": { "Name": "上海交通大学医学院附属仁济医院西院２", "Ctype": "三级甲等医院", "Ntype": "090101", "Address": null, "Telephone": null }, "geometry": { "type": "Point", "coordinates": [ 121.484218, 31.233806 ] } },
{ "type": "Feature", "properties": { "Name": "上海交通大学医学院附属仁济医院西院３", "Ctype": "三级甲等医院", "Ntype": "090101", "Address": null, "Telephone": null }, "geometry": { "type": "Point", "coordinates": [ 121.48434, 31.233709 ] } },
{ "type": "Feature", "properties": { "Name": "上海交通大学医学院附属仁济医院西院６", "Ctype": "三级甲等医院", "Ntype": "090101", "Address": null, "Telephone": null }, "geometry": { "type": "Point", "coordinates": [ 121.484323, 31.233515 ] } },
{ "type": "Feature", "properties": { "Name": "上海交通大学医学院附属仁济医院西院", "Ctype": "三级甲等医院", "Ntype": "090101", "Address": "山东中路１４５号", "Telephone": "021-58752345|53882113" }, "geometry": { "type": "Point", "coordinates": [ 121.484103, 31.233506 ] } },
{ "type": "Feature", "properties": { "Name": "上海交通大学医学院附属仁济医院西院４", "Ctype": "三级甲等医院", "Ntype": "090101", "Address": null, "Telephone": null }, "geometry": { "type": "Point", "coordinates": [ 121.484215, 31.23333 ] } },
{ "type": "Feature", "properties": { "Name": "瑞金医院病理科", "Ctype": "三级甲等医院", "Ntype": "090101", "Address": null, "Telephone": null }, "geometry": { "type": "Point", "coordinates": [ 121.468068, 31.213586 ] } },
{ "type": "Feature", "properties": { "Name": "复旦大学附属眼耳鼻喉科医院急诊", "Ctype": "三级甲等医院", "Ntype": "090101", "Address": "汾阳路８３", "Telephone": null }, "geometry": { "type": "Point", "coordinates": [ 121.453341666666674, 31.209522222222223 ] } },
{ "type": "Feature", "properties": { "Name": "上海九院２４小时门诊自助服务", "Ctype": "三级甲等医院", "Ntype": "090101", "Address": null, "Telephone": null }, "geometry": { "type": "Point", "coordinates": [ 121.486997, 31.202038 ] } },
{ "type": "Feature", "properties": { "Name": "上海市儿童医院８号楼", "Ctype": "三级甲等医院", "Ntype": "090101", "Address": null, "Telephone": null }, "geometry": { "type": "Point", "coordinates": [ 121.447833333333335, 31.229505555555555 ] } },
{ "type": "Feature", "properties": { "Name": "复旦大学附属眼耳鼻喉科医院６号楼", "Ctype": "三级甲等医院", "Ntype": "090101", "Address": "汾阳路８３", "Telephone": null }, "geometry": { "type": "Point", "coordinates": [ 121.453377777777774, 31.209044444444444 ] } },
{ "type": "Feature", "properties": { "Name": "上海中医药大学附属龙华医院住院", "Ctype": "三级甲等医院", "Ntype": "090101", "Address": "宛平南路７２５", "Telephone": null }, "geometry": { "type": "Point", "coordinates": [ 121.451326135, 31.187980806944445 ] } },
{ "type": "Feature", "properties": { "Name": "上海中医药大学附属龙华医院门诊住院", "Ctype": "三级甲等医院", "Ntype": "090101", "Address": null, "Telephone": null }, "geometry": { "type": "Point", "coordinates": [ 121.451264, 31.18803 ] } },
{ "type": "Feature", "properties": { "Name": "复旦大学附属华山医院磁供振室", "Ctype": "三级甲等医院", "Ntype": "090101", "Address": null, "Telephone": null }, "geometry": { "type": "Point", "coordinates": [ 121.443186111111103, 31.215875 ] } },
{ "type": "Feature", "properties": { "Name": "复旦大学附属中山医院东院区１８（枫林路）", "Ctype": "三级甲等医院", "Ntype": "090101", "Address": null, "Telephone": null }, "geometry": { "type": "Point", "coordinates": [ 121.455339065, 31.197361367222225 ] } },
{ "type": "Feature", "properties": { "Name": "复旦大学附属华东医院发热门诊", "Ctype": "三级甲等医院", "Ntype": "090101", "Address": null, "Telephone": null }, "geometry": { "type": "Point", "coordinates": [ 121.442733, 31.219321 ] } },
{ "type": "Feature", "properties": { "Name": "中国人民解放军第四五五医院住院部", "Ctype": "三级甲等医院", "Ntype": "090101", "Address": null, "Telephone": null }, "geometry": { "type": "Point", "coordinates": [ 121.428333333333327, 31.200470833333334 ] } },
{ "type": "Feature", "properties": { "Name": "复旦大学附属中山医院东院区急诊", "Ctype": "三级甲等医院", "Ntype": "090101", "Address": "斜土路１６０９", "Telephone": null }, "geometry": { "type": "Point", "coordinates": [ 121.456139, 31.196428 ] } },
{ "type": "Feature", "properties": { "Name": "瑞金医院三舍", "Ctype": "三级甲等医院", "Ntype": "090101", "Address": null, "Telephone": null }, "geometry": { "type": "Point", "coordinates": [ 121.466583333333332, 31.212944444444446 ] } },
{ "type": "Feature", "properties": { "Name": "上海市神经外科质量控制中心", "Ctype": "三级甲等医院", "Ntype": "090101", "Address": null, "Telephone": null }, "geometry": { "type": "Point", "coordinates": [ 121.442947, 31.216125 ] } },
{ "type": "Feature", "properties": { "Name": "复旦大学附属肿瘤医院５号楼", "Ctype": "三级甲等医院", "Ntype": "090101", "Address": null, "Telephone": null }, "geometry": { "type": "Point", "coordinates": [ 121.45336, 31.191288 ] } },
{ "type": "Feature", "properties": { "Name": "上海市神经内科质量控制中心", "Ctype": "三级甲等医院", "Ntype": "090101", "Address": null, "Telephone": null }, "geometry": { "type": "Point", "coordinates": [ 121.442947, 31.216125 ] } },
{ "type": "Feature", "properties": { "Name": "上海市职业病诊断质量控制中心", "Ctype": "三级甲等医院", "Ntype": "090101", "Address": null, "Telephone": null }, "geometry": { "type": "Point", "coordinates": [ 121.442947, 31.216125 ] } },
{ "type": "Feature", "properties": { "Name": "上海市激光治疗质量控制中心", "Ctype": "三级甲等医院", "Ntype": "090101", "Address": null, "Telephone": null }, "geometry": { "type": "Point", "coordinates": [ 121.442947, 31.216125 ] } },
{ "type": "Feature", "properties": { "Name": "复旦大学附属华山医院急诊", "Ctype": "三级甲等医院", "Ntype": "090101", "Address": "乌鲁木齐中路１２复旦大学附属华山医院", "Telephone": "021-60531421" }, "geometry": { "type": "Point", "coordinates": [ 121.442854, 31.216758 ] } },
{ "type": "Feature", "properties": { "Name": "复旦大学附属中山医院东院区营养科", "Ctype": "三级甲等医院", "Ntype": "090101", "Address": null, "Telephone": null }, "geometry": { "type": "Point", "coordinates": [ 121.457210491111113, 31.197787019444444 ] } },
{ "type": "Feature", "properties": { "Name": "复旦大学附属肿瘤医院５－１８病区", "Ctype": "三级甲等医院", "Ntype": "090101", "Address": null, "Telephone": null }, "geometry": { "type": "Point", "coordinates": [ 121.45348, 31.190685 ] } },
{ "type": "Feature", "properties": { "Name": "上海中医药大学附属龙华医院行政", "Ctype": "三级甲等医院", "Ntype": "090101", "Address": "宛平南路７２５", "Telephone": null }, "geometry": { "type": "Point", "coordinates": [ 121.450286, 31.187522 ] } },
{ "type": "Feature", "properties": { "Name": "上海中医药大学附属龙华医院１１", "Ctype": "三级甲等医院", "Ntype": "090101", "Address": null, "Telephone": null }, "geometry": { "type": "Point", "coordinates": [ 121.45131, 31.18795 ] } },
{ "type": "Feature", "properties": { "Name": "上海中医药大学附属龙华医院５号楼", "Ctype": "三级甲等医院", "Ntype": "090101", "Address": "宛平南路７２５", "Telephone": null }, "geometry": { "type": "Point", "coordinates": [ 121.449284084166678, 31.188023185277778 ] } },
{ "type": "Feature", "properties": { "Name": "上海市核医学质量控制中心", "Ctype": "三级甲等医院", "Ntype": "090101", "Address": "乌鲁木齐中路１２", "Telephone": null }, "geometry": { "type": "Point", "coordinates": [ 121.442947, 31.216125 ] } },
{ "type": "Feature", "properties": { "Name": "中国人民解放军第八五医院住院部", "Ctype": "三级甲等医院", "Ntype": "090101", "Address": null, "Telephone": null }, "geometry": { "type": "Point", "coordinates": [ 121.432769444444432, 31.20952777777778 ] } },
{ "type": "Feature", "properties": { "Name": "中国人民解放军第八五医院门急诊大楼", "Ctype": "三级甲等医院", "Ntype": "090101", "Address": null, "Telephone": null }, "geometry": { "type": "Point", "coordinates": [ 121.432483333333337, 31.209325 ] } },
{ "type": "Feature", "properties": { "Name": "复旦大学附属眼耳鼻喉科医院门诊大楼", "Ctype": "三级甲等医院", "Ntype": "090101", "Address": "汾阳路８３", "Telephone": null }, "geometry": { "type": "Point", "coordinates": [ 121.453101370555558, 31.209524546666664 ] } },
{ "type": "Feature", "properties": { "Name": "上海市儿童医院２号楼", "Ctype": "三级甲等医院", "Ntype": "090101", "Address": null, "Telephone": null }, "geometry": { "type": "Point", "coordinates": [ 121.448655865277786, 31.228845437222223 ] } },
{ "type": "Feature", "properties": { "Name": "复旦大学枫林校区附属中山医院", "Ctype": "三级甲等医院", "Ntype": "090101", "Address": "枫林路１１１号", "Telephone": "021-64041990|51078220|64037245" }, "geometry": { "type": "Point", "coordinates": [ 121.45348333, 31.199006901944443 ] } },
{ "type": "Feature", "properties": { "Name": "复旦大学附属中山医院西院区", "Ctype": "三级甲等医院", "Ntype": "090101", "Address": "枫林路１８０号", "Telephone": null }, "geometry": { "type": "Point", "coordinates": [ 121.453897222222224, 31.197622222222222 ] } },
{ "type": "Feature", "properties": { "Name": "瑞金医院急诊", "Ctype": "三级甲等医院", "Ntype": "090101", "Address": null, "Telephone": null }, "geometry": { "type": "Point", "coordinates": [ 121.466131363611112, 31.212157393888887 ] } },
{ "type": "Feature", "properties": { "Name": "上海市儿童医院７号楼", "Ctype": "三级甲等医院", "Ntype": "090101", "Address": null, "Telephone": null }, "geometry": { "type": "Point", "coordinates": [ 121.448157682222231, 31.229932883611113 ] } },
{ "type": "Feature", "properties": { "Name": "瑞金医院九舍门诊", "Ctype": "三级甲等医院", "Ntype": "090101", "Address": "瑞金二路１９７", "Telephone": null }, "geometry": { "type": "Point", "coordinates": [ 121.468366666666668, 31.212345833333334 ] } },
{ "type": "Feature", "properties": { "Name": "瑞金医院门诊部", "Ctype": "三级甲等医院", "Ntype": "090101", "Address": "瑞金二路", "Telephone": "021-64678970|64370045" }, "geometry": { "type": "Point", "coordinates": [ 121.466401105277782, 31.210370375833332 ] } },
{ "type": "Feature", "properties": { "Name": "复旦大学附属华东医院住院部", "Ctype": "三级甲等医院", "Ntype": "090101", "Address": "延安西路３２１", "Telephone": null }, "geometry": { "type": "Point", "coordinates": [ 121.44025, 31.218745555555554 ] } },
{ "type": "Feature", "properties": { "Name": "瑞金医院静脉药物配置中心", "Ctype": "三级甲等医院", "Ntype": "090101", "Address": null, "Telephone": null }, "geometry": { "type": "Point", "coordinates": [ 121.467134, 31.212187 ] } },
{ "type": "Feature", "properties": { "Name": "上海中医药大学附属龙华医院门诊住院（西南门）", "Ctype": "三级甲等医院", "Ntype": "090101", "Address": null, "Telephone": null }, "geometry": { "type": "Point", "coordinates": [ 121.451241, 31.188012 ] } },
{ "type": "Feature", "properties": { "Name": "上海中医药大学附属龙华医院（东南３门）", "Ctype": "三级甲等医院", "Ntype": "090101", "Address": null, "Telephone": null }, "geometry": { "type": "Point", "coordinates": [ 121.449374, 31.187949 ] } },
{ "type": "Feature", "properties": { "Name": "复旦大学附属华东医院药库", "Ctype": "三级甲等医院", "Ntype": "090101", "Address": null, "Telephone": null }, "geometry": { "type": "Point", "coordinates": [ 121.442405555555553, 31.217861111111112 ] } },
{ "type": "Feature", "properties": { "Name": "上海交通大学医学院附属第九人民医院７号楼", "Ctype": "三级甲等医院", "Ntype": "090101", "Address": "制造局路６３９", "Telephone": null }, "geometry": { "type": "Point", "coordinates": [ 121.48617636499999, 31.202710548611112 ] } },
{ "type": "Feature", "properties": { "Name": "同济大学附属上海市肺科医院药剂科", "Ctype": "三级甲等医院", "Ntype": "090101", "Address": null, "Telephone": null }, "geometry": { "type": "Point", "coordinates": [ 121.50137269527778, 31.304062358055553 ] } },
{ "type": "Feature", "properties": { "Name": "上海中医药大学附属岳阳中西医结合医院儿科门急诊", "Ctype": "三级甲等医院", "Ntype": "090101", "Address": null, "Telephone": null }, "geometry": { "type": "Point", "coordinates": [ 121.488276091666663, 31.289042608611108 ] } },
{ "type": "Feature", "properties": { "Name": "上海中医药大学附属岳阳中西医结合医院９", "Ctype": "三级甲等医院", "Ntype": "090101", "Address": null, "Telephone": null }, "geometry": { "type": "Point", "coordinates": [ 121.489374852222227, 31.289923628055558 ] } },
{ "type": "Feature", "properties": { "Name": "同济大学附属同济医院（西南门）", "Ctype": "三级甲等医院", "Ntype": "090101", "Address": "新村路３５１号", "Telephone": null }, "geometry": { "type": "Point", "coordinates": [ 121.432005822777782, 31.266007106388891 ] } },
{ "type": "Feature", "properties": { "Name": "上海市第一人民医院北院眼科楼", "Ctype": "三级甲等医院", "Ntype": "090101", "Address": null, "Telephone": null }, "geometry": { "type": "Point", "coordinates": [ 121.489665566666659, 31.252943115833332 ] } },
{ "type": "Feature", "properties": { "Name": "上海市同济医院（东南门）", "Ctype": "三级甲等医院", "Ntype": "090101", "Address": null, "Telephone": null }, "geometry": { "type": "Point", "coordinates": [ 121.431209, 31.265906 ] } },
{ "type": "Feature", "properties": { "Name": "上海市中医医院９号楼", "Ctype": "三级甲等医院", "Ntype": "090101", "Address": null, "Telephone": null }, "geometry": { "type": "Point", "coordinates": [ 121.4721, 31.259198 ] } },
{ "type": "Feature", "properties": { "Name": "同济大学附属口腔医院科教楼", "Ctype": "三级甲等医院", "Ntype": "090101", "Address": null, "Telephone": null }, "geometry": { "type": "Point", "coordinates": [ 121.452654, 31.271563 ] } },
{ "type": "Feature", "properties": { "Name": "上海市第一人民医院肠道门诊", "Ctype": "三级甲等医院", "Ntype": "090101", "Address": null, "Telephone": null }, "geometry": { "type": "Point", "coordinates": [ 121.488797, 31.253222 ] } },
{ "type": "Feature", "properties": { "Name": "上海市同济医院行政楼", "Ctype": "三级甲等医院", "Ntype": "090101", "Address": "新村路３８９", "Telephone": null }, "geometry": { "type": "Point", "coordinates": [ 121.430850443055547, 31.267471140555557 ] } },
{ "type": "Feature", "properties": { "Name": "上海市同济医院科研楼", "Ctype": "三级甲等医院", "Ntype": "090101", "Address": null, "Telephone": null }, "geometry": { "type": "Point", "coordinates": [ 121.431257490277787, 31.267647093055555 ] } },
{ "type": "Feature", "properties": { "Name": "上海市同济医院（西南门）", "Ctype": "三级甲等医院", "Ntype": "090101", "Address": "志丹路３１８", "Telephone": null }, "geometry": { "type": "Point", "coordinates": [ 121.430311, 31.266709 ] } },
{ "type": "Feature", "properties": { "Name": "上海市中医医院１０号楼", "Ctype": "三级甲等医院", "Ntype": "090101", "Address": null, "Telephone": null }, "geometry": { "type": "Point", "coordinates": [ 121.472264, 31.259099 ] } },
{ "type": "Feature", "properties": { "Name": "同济大学附属同济医院", "Ctype": "三级甲等医院", "Ntype": "090101", "Address": "新村路３８９", "Telephone": "021-56051080|56050502|56069019" }, "geometry": { "type": "Point", "coordinates": [ 121.431327, 31.266763 ] } },
{ "type": "Feature", "properties": { "Name": "上海中医药大学附属岳阳中西医结合医院门诊", "Ctype": "三级甲等医院", "Ntype": "090101", "Address": null, "Telephone": null }, "geometry": { "type": "Point", "coordinates": [ 121.488189, 31.289154 ] } },
{ "type": "Feature", "properties": { "Name": "中国人民解放军第四一一医院行政大楼", "Ctype": "三级甲等医院", "Ntype": "090101", "Address": null, "Telephone": null }, "geometry": { "type": "Point", "coordinates": [ 121.480659, 31.264963 ] } },
{ "type": "Feature", "properties": { "Name": "上海中医药大学附属岳阳中西医结合医院７号楼", "Ctype": "三级甲等医院", "Ntype": "090101", "Address": null, "Telephone": null }, "geometry": { "type": "Point", "coordinates": [ 121.488409, 31.289505 ] } },
{ "type": "Feature", "properties": { "Name": "上海市同济医院同康楼", "Ctype": "三级甲等医院", "Ntype": "090101", "Address": "新村路３８９", "Telephone": null }, "geometry": { "type": "Point", "coordinates": [ 121.430777777777777, 31.267022777777779 ] } },
{ "type": "Feature", "properties": { "Name": "上海市中医医院３号楼", "Ctype": "三级甲等医院", "Ntype": "090101", "Address": null, "Telephone": null }, "geometry": { "type": "Point", "coordinates": [ 121.471137, 31.259466 ] } },
{ "type": "Feature", "properties": { "Name": "中国人民解放军第四一一医院（东北门）", "Ctype": "三级甲等医院", "Ntype": "090101", "Address": "东江湾路１５号", "Telephone": null }, "geometry": { "type": "Point", "coordinates": [ 121.480821751944447, 31.265388380833333 ] } },
{ "type": "Feature", "properties": { "Name": "中国人民解放军第四一一医院", "Ctype": "三级甲等医院", "Ntype": "090101", "Address": "东江湾路１５号", "Telephone": null }, "geometry": { "type": "Point", "coordinates": [ 121.480518, 31.265138 ] } },
{ "type": "Feature", "properties": { "Name": "上海市同济医院急诊", "Ctype": "三级甲等医院", "Ntype": "090101", "Address": "新村路３８９", "Telephone": null }, "geometry": { "type": "Point", "coordinates": [ 121.430702768611113, 31.266353841944447 ] } },
{ "type": "Feature", "properties": { "Name": "上海市同济医院中药房", "Ctype": "三级甲等医院", "Ntype": "090101", "Address": null, "Telephone": null }, "geometry": { "type": "Point", "coordinates": [ 121.430906685, 31.266140499444447 ] } },
{ "type": "Feature", "properties": { "Name": "上海市第十人民医院６", "Ctype": "三级甲等医院", "Ntype": "090101", "Address": null, "Telephone": null }, "geometry": { "type": "Point", "coordinates": [ 121.452696051388884, 31.272122571666667 ] } },
{ "type": "Feature", "properties": { "Name": "上海市同济医院５", "Ctype": "三级甲等医院", "Ntype": "090101", "Address": null, "Telephone": null }, "geometry": { "type": "Point", "coordinates": [ 121.431694229722225, 31.267331635277777 ] } },
{ "type": "Feature", "properties": { "Name": "上海市第一人民医院住院部（西北门）", "Ctype": "三级甲等医院", "Ntype": "090101", "Address": "九龙路５８５", "Telephone": null }, "geometry": { "type": "Point", "coordinates": [ 121.490010952222221, 31.253888075277779 ] } },
{ "type": "Feature", "properties": { "Name": "上海市中医医院（西北２门）", "Ctype": "三级甲等医院", "Ntype": "090101", "Address": "芷江中路２７４", "Telephone": null }, "geometry": { "type": "Point", "coordinates": [ 121.471384097222227, 31.259771959722222 ] } },
{ "type": "Feature", "properties": { "Name": "上海市第一人民医院北院（西北门）", "Ctype": "三级甲等医院", "Ntype": "090101", "Address": "武进路８５号", "Telephone": null }, "geometry": { "type": "Point", "coordinates": [ 121.488410255277785, 31.253306567777781 ] } },
{ "type": "Feature", "properties": { "Name": "上海中医药大学附属岳阳中西医结合医院（３号门）", "Ctype": "三级甲等医院", "Ntype": "090101", "Address": "东体育会路１０６０", "Telephone": null }, "geometry": { "type": "Point", "coordinates": [ 121.48993055555556, 31.288269444444445 ] } },