{
"type": "FeatureCollection",
"crs": { "type": "name", "properties": { "name": "urn:ogc:def:crs:OGC:1.3:CRS84" } },
"features": [
{ "type": "Feature", "properties": { "Name": "华医养生度假酒店", "Ctype": "五星级宾馆", "Ntype": "100102", "Address": "金商公路２１２１号", "Telephone": "021-59280000" }, "geometry": { "type": "Point", "coordinates": [ 120.914218055555551, 31.09832 ] } },
{ "type": "Feature", "properties": { "Name": "朱家角安麓酒店", "Ctype": "五星级宾馆", "Ntype": "100102", "Address": null, "Telephone": "021-59237777" }, "geometry": { "type": "Point", "coordinates": [ 121.048801, 31.114612 ] } },
{ "type": "Feature", "properties": { "Name": "上海朱家角皇家郁金香花园酒店", "Ctype": "五星级宾馆", "Ntype": "100102", "Address": "浦祥路７９号", "Telephone": "021-39233333|39233338" }, "geometry": { "type": "Point", "coordinates": [ 121.046095833333339, 31.105645833333334 ] } },
{ "type": "Feature", "properties": { "Name": "中信泰富朱家角锦江酒店", "Ctype": "五星级宾馆", "Ntype": "100102", "Address": "朱家角镇珠湖路６６６号", "Telephone": "021-39277888" }, "geometry": { "type": "Point", "coordinates": [ 121.050000277777769, 31.120830833333333 ] } },
{ "type": "Feature", "properties": { "Name": "上海朱家角皇家郁金香花园酒店（东北门）", "Ctype": "五星级宾馆", "Ntype": "100102", "Address": "浦祥路７９号", "Telephone": null }, "geometry": { "type": "Point", "coordinates": [ 121.045170157222231, 31.106107573055557 ] } },
{ "type": "Feature", "properties": { "Name": "上海松江开元名都大酒店", "Ctype": "五星级宾馆", "Ntype": "100102", "Address": "人民北路１７９９号", "Telephone": "021-37668888|37668988" }, "geometry": { "type": "Point", "coordinates": [ 121.220742, 31.037276 ] } },
{ "type": "Feature", "properties": { "Name": "上海富悦大酒店", "Ctype": "五星级宾馆", "Ntype": "100102", "Address": null, "Telephone": null }, "geometry": { "type": "Point", "coordinates": [ 121.24657, 31.059857 ] } },
{ "type": "Feature", "properties": { "Name": "上海松江假日酒店", "Ctype": "五星级宾馆", "Ntype": "100102", "Address": "中山中路８３号", "Telephone": "021-37859999" }, "geometry": { "type": "Point", "coordinates": [ 121.235144, 31.006109 ] } },
{ "type": "Feature", "properties": { "Name": "菲堤酒店", "Ctype": "五星级宾馆", "Ntype": "100102", "Address": "三新北路９００弄－１０６１号", "Telephone": "021-37723366" }, "geometry": { "type": "Point", "coordinates": [ 121.195383046111104, 31.035440002777779 ] } },
{ "type": "Feature", "properties": { "Name": "上海松江开元名都大酒店（东门）", "Ctype": "五星级宾馆", "Ntype": "100102", "Address": "人民北路１７９９号", "Telephone": null }, "geometry": { "type": "Point", "coordinates": [ 121.221378851944451, 31.03769883888889 ] } },
{ "type": "Feature", "properties": { "Name": "上海世茂佘山艾美酒店", "Ctype": "五星级宾馆", "Ntype": "100102", "Address": "林荫新路１２８８号", "Telephone": "021-57799999" }, "geometry": { "type": "Point", "coordinates": [ 121.204479, 31.095241 ] } },
{ "type": "Feature", "properties": { "Name": "月湖会馆", "Ctype": "五星级宾馆", "Ntype": "100102", "Address": "佘山国际旅游度假区佘北路１５８号", "Telephone": "021-33558888|33553333" }, "geometry": { "type": "Point", "coordinates": [ 121.20032479527778, 31.09928526 ] } },
{ "type": "Feature", "properties": { "Name": "上海世茂佘山艾美酒店（东南门）", "Ctype": "五星级宾馆", "Ntype": "100102", "Address": null, "Telephone": null }, "geometry": { "type": "Point", "coordinates": [ 121.207218, 31.092863 ] } },
{ "type": "Feature", "properties": { "Name": "上海夏阳湖皇冠假日酒店", "Ctype": "五星级宾馆", "Ntype": "100102", "Address": "青舟路３０３号", "Telephone": "021-22130000" }, "geometry": { "type": "Point", "coordinates": [ 121.137051388888892, 31.151216666666667 ] } },
{ "type": "Feature", "properties": { "Name": "上海东方佘山索菲特大酒店", "Ctype": "五星级宾馆", "Ntype": "100102", "Address": "泗泾镇泗陈公路３３８８弄", "Telephone": "021-37618888" }, "geometry": { "type": "Point", "coordinates": [ 121.224571, 31.113986 ] } },
{ "type": "Feature", "properties": { "Name": "上海夏阳湖皇冠假日酒店（西门）", "Ctype": "五星级宾馆", "Ntype": "100102", "Address": null, "Telephone": null }, "geometry": { "type": "Point", "coordinates": [ 121.136649064722221, 31.151319365555558 ] } },
{ "type": "Feature", "properties": { "Name": "上海夏阳湖皇冠假日酒店（东北门）", "Ctype": "五星级宾馆", "Ntype": "100102", "Address": "青舟路３０３号", "Telephone": null }, "geometry": { "type": "Point", "coordinates": [ 121.137402125833333, 31.15174259416667 ] } },
{ "type": "Feature", "properties": { "Name": "上海夏阳湖皇冠假日酒店（西南门）", "Ctype": "五星级宾馆", "Ntype": "100102", "Address": null, "Telephone": null }, "geometry": { "type": "Point", "coordinates": [ 121.13730048194445, 31.150819000555554 ] } },
{ "type": "Feature", "properties": { "Name": "上海东方佘山索菲特大酒店（南门）", "Ctype": "五星级宾馆", "Ntype": "100102", "Address": "泗泾镇泗陈公路３３８８弄", "Telephone": null }, "geometry": { "type": "Point", "coordinates": [ 121.224546, 31.112616 ] } },
{ "type": "Feature", "properties": { "Name": "月湖会馆（西北门）", "Ctype": "五星级宾馆", "Ntype": "100102", "Address": "佘山国际旅游度假区佘北路１５８号", "Telephone": null }, "geometry": { "type": "Point", "coordinates": [ 121.199852865277776, 31.099700005277779 ] } },
{ "type": "Feature", "properties": { "Name": "上海夏阳湖皇冠假日酒店宴会厅", "Ctype": "五星级宾馆", "Ntype": "100102", "Address": null, "Telephone": null }, "geometry": { "type": "Point", "coordinates": [ 121.138292100277781, 31.151248827500002 ] } },
{ "type": "Feature", "properties": { "Name": "上海青浦福朋喜来登酒店", "Ctype": "五星级宾馆", "Ntype": "100102", "Address": null, "Telephone": null }, "geometry": { "type": "Point", "coordinates": [ 121.195921, 31.193931 ] } },
{ "type": "Feature", "properties": { "Name": "上海颖奕皇冠假日酒店", "Ctype": "五星级宾馆", "Ntype": "100102", "Address": "博园路６５５５号", "Telephone": "021-60568888|60713288" }, "geometry": { "type": "Point", "coordinates": [ 121.192449444444449, 31.272622777777777 ] } },
{ "type": "Feature", "properties": { "Name": "唐朝酒店（东北门）", "Ctype": "五星级宾馆", "Ntype": "100102", "Address": "安亭宝安公路４３３９号", "Telephone": null }, "geometry": { "type": "Point", "coordinates": [ 121.22762855, 31.317384558055558 ] } },
{ "type": "Feature", "properties": { "Name": "唐朝酒店", "Ctype": "五星级宾馆", "Ntype": "100102", "Address": "安亭宝安公路４３３９号", "Telephone": "021-39586666|59506666" }, "geometry": { "type": "Point", "coordinates": [ 121.226716424444447, 31.316825515833333 ] } },
{ "type": "Feature", "properties": { "Name": "上海嘉定喜来登酒店", "Ctype": "五星级宾馆", "Ntype": "100102", "Address": "嘉唐公路６６号", "Telephone": "021-39928888" }, "geometry": { "type": "Point", "coordinates": [ 121.245663888888899, 31.39450888888889 ] } },
{ "type": "Feature", "properties": { "Name": "上海滨海皇家金煦大酒店（西北门）", "Ctype": "五星级宾馆", "Ntype": "100102", "Address": null, "Telephone": null }, "geometry": { "type": "Point", "coordinates": [ 121.343347009722223, 30.704981743333335 ] } },
{ "type": "Feature", "properties": { "Name": "上海滨海皇家金煦大酒店", "Ctype": "五星级宾馆", "Ntype": "100102", "Address": "新城路１号", "Telephone": "021-37999999" }, "geometry": { "type": "Point", "coordinates": [ 121.343481059444443, 30.704987461111109 ] } },
{ "type": "Feature", "properties": { "Name": "锦江海鸥大厦", "Ctype": "五星级宾馆", "Ntype": "100102", "Address": "龙胜路５８号", "Telephone": "021-37991888" }, "geometry": { "type": "Point", "coordinates": [ 121.35180583333333, 30.729335 ] } },
{ "type": "Feature", "properties": { "Name": "维也纳酒店（上海松江叶榭镇店）", "Ctype": "五星级宾馆", "Ntype": "100102", "Address": "叶榭镇叶政路４８７号", "Telephone": "021-67623333" }, "geometry": { "type": "Point", "coordinates": [ 121.318025173611105, 30.942224935 ] } },
{ "type": "Feature", "properties": { "Name": "上海绿城玫瑰园度假酒店", "Ctype": "五星级宾馆", "Ntype": "100102", "Address": null, "Telephone": "021-33586666" }, "geometry": { "type": "Point", "coordinates": [ 121.347118, 31.037793 ] } },
{ "type": "Feature", "properties": { "Name": "上海富建酒店（东北１门）", "Ctype": "五星级宾馆", "Ntype": "100102", "Address": "七莘路１８８５号", "Telephone": null }, "geometry": { "type": "Point", "coordinates": [ 121.361050833333337, 31.13833 ] } },
{ "type": "Feature", "properties": { "Name": "上海富建酒店", "Ctype": "五星级宾馆", "Ntype": "100102", "Address": "七莘路１８８５号", "Telephone": "021-33238888" }, "geometry": { "type": "Point", "coordinates": [ 121.360377, 31.137742 ] } },
{ "type": "Feature", "properties": { "Name": "宝龙艾美酒店", "Ctype": "五星级宾馆", "Ntype": "100102", "Address": null, "Telephone": null }, "geometry": { "type": "Point", "coordinates": [ 121.356437, 31.157716 ] } },
{ "type": "Feature", "properties": { "Name": "乐享国际大酒店", "Ctype": "五星级宾馆", "Ntype": "100102", "Address": null, "Telephone": null }, "geometry": { "type": "Point", "coordinates": [ 121.339283, 31.161714 ] } },
{ "type": "Feature", "properties": { "Name": "上海悦隆酒店（东北门）", "Ctype": "五星级宾馆", "Ntype": "100102", "Address": "中春路６６９９号", "Telephone": null }, "geometry": { "type": "Point", "coordinates": [ 121.349913394722222, 31.133429602777777 ] } },
{ "type": "Feature", "properties": { "Name": "富建酒店（东南门）", "Ctype": "五星级宾馆", "Ntype": "100102", "Address": "七莘路１８８５号", "Telephone": null }, "geometry": { "type": "Point", "coordinates": [ 121.360954, 31.137551 ] } },
{ "type": "Feature", "properties": { "Name": "安纳塔拉酒店", "Ctype": "五星级宾馆", "Ntype": "100102", "Address": null, "Telephone": null }, "geometry": { "type": "Point", "coordinates": [ 121.36576, 31.125549 ] } },
{ "type": "Feature", "properties": { "Name": "上海悦隆酒店", "Ctype": "五星级宾馆", "Ntype": "100102", "Address": "中春路６６９９号", "Telephone": "021-54886699" }, "geometry": { "type": "Point", "coordinates": [ 121.349861864722214, 31.133027416944444 ] } },
{ "type": "Feature", "properties": { "Name": "富建酒店（西北门）", "Ctype": "五星级宾馆", "Ntype": "100102", "Address": null, "Telephone": null }, "geometry": { "type": "Point", "coordinates": [ 121.359238, 31.137675 ] } },
{ "type": "Feature", "properties": { "Name": "新桥绿地铂骊酒店", "Ctype": "五星级宾馆", "Ntype": "100102", "Address": "新桥明兴路６２８号", "Telephone": "021-23098888" }, "geometry": { "type": "Point", "coordinates": [ 121.339693055555557, 31.08721361111111 ] } },
{ "type": "Feature", "properties": { "Name": "ＫＥｍｏｔｅｌ全新概念酒店", "Ctype": "五星级宾馆", "Ntype": "100102", "Address": "沪星路２８９弄３６号", "Telephone": "021-33581111" }, "geometry": { "type": "Point", "coordinates": [ 121.341603611111111, 31.163156666666666 ] } },
{ "type": "Feature", "properties": { "Name": "上海虹桥金古源豪生大酒店", "Ctype": "五星级宾馆", "Ntype": "100102", "Address": "华翔路１９８９号", "Telephone": "021-52278888" }, "geometry": { "type": "Point", "coordinates": [ 121.30323, 31.199776 ] } },
{ "type": "Feature", "properties": { "Name": "帝璟丽致大酒店（西南门）", "Ctype": "五星级宾馆", "Ntype": "100102", "Address": "虹莘路３９８８", "Telephone": null }, "geometry": { "type": "Point", "coordinates": [ 121.372141204722226, 31.169838842500003 ] } },
{ "type": "Feature", "properties": { "Name": "上海万豪虹桥大酒店", "Ctype": "五星级宾馆", "Ntype": "100102", "Address": "虹桥路２２７０号", "Telephone": "021-62376000|60106000" }, "geometry": { "type": "Point", "coordinates": [ 121.376731, 31.191668 ] } },
{ "type": "Feature", "properties": { "Name": "希尔顿花园酒店", "Ctype": "五星级宾馆", "Ntype": "100102", "Address": null, "Telephone": null }, "geometry": { "type": "Point", "coordinates": [ 121.276845, 31.166355 ] } },
{ "type": "Feature", "properties": { "Name": "帝璟丽致大酒店（东南门）", "Ctype": "五星级宾馆", "Ntype": "100102", "Address": "虹莘路３９８８", "Telephone": null }, "geometry": { "type": "Point", "coordinates": [ 121.372918216388882, 31.169422956388889 ] } },
{ "type": "Feature", "properties": { "Name": "西郊宾馆", "Ctype": "五星级宾馆", "Ntype": "100102", "Address": "虹桥路１９２１号", "Telephone": "021-62198800" }, "geometry": { "type": "Point", "coordinates": [ 121.38046, 31.200594 ] } },
{ "type": "Feature", "properties": { "Name": "帝璟丽致大酒店", "Ctype": "五星级宾馆", "Ntype": "100102", "Address": "虹莘路３９８８", "Telephone": "021-51578888" }, "geometry": { "type": "Point", "coordinates": [ 121.372523901666668, 31.169659747777775 ] } },
{ "type": "Feature", "properties": { "Name": "西郊宾馆四季厅", "Ctype": "五星级宾馆", "Ntype": "100102", "Address": "虹桥路１９２１西郊宾馆内", "Telephone": "021-62198800" }, "geometry": { "type": "Point", "coordinates": [ 121.37779107, 31.202354329444443 ] } },
{ "type": "Feature", "properties": { "Name": "上海中航泊悦酒店", "Ctype": "五星级宾馆", "Ntype": "100102", "Address": "申达三路１８１号", "Telephone": "021-22366666|23366666" }, "geometry": { "type": "Point", "coordinates": [ 121.327915632777774, 31.192702791666665 ] } },
{ "type": "Feature", "properties": { "Name": "上海虹桥逸郡酒店", "Ctype": "五星级宾馆", "Ntype": "100102", "Address": "徐泾镇沪青平公路１３５８号康虹花园", "Telephone": "021-59768855" }, "geometry": { "type": "Point", "coordinates": [ 121.31448694444444, 31.174371388888886 ] } },
{ "type": "Feature", "properties": { "Name": "上海虹桥金古源豪生大酒店（西门）", "Ctype": "五星级宾馆", "Ntype": "100102", "Address": null, "Telephone": null }, "geometry": { "type": "Point", "coordinates": [ 121.303772, 31.200239 ] } },
{ "type": "Feature", "properties": { "Name": "圣诺亚皇冠假日酒店", "Ctype": "五星级宾馆", "Ntype": "100102", "Address": "金沙江路１６９９号", "Telephone": "021-22138888" }, "geometry": { "type": "Point", "coordinates": [ 121.377502808888892, 31.232479913055556 ] } },
{ "type": "Feature", "properties": { "Name": "西郊宾馆（西北门）", "Ctype": "五星级宾馆", "Ntype": "100102", "Address": "青溪路５８０", "Telephone": null }, "geometry": { "type": "Point", "coordinates": [ 121.37529, 31.203586 ] } },
{ "type": "Feature", "properties": { "Name": "上海万豪虹桥大酒店（西北门）", "Ctype": "五星级宾馆", "Ntype": "100102", "Address": "虹桥路２２７０号", "Telephone": null }, "geometry": { "type": "Point", "coordinates": [ 121.376200681388895, 31.191964875277776 ] } },
{ "type": "Feature", "properties": { "Name": "上海虹桥逸郡酒店（北门）", "Ctype": "五星级宾馆", "Ntype": "100102", "Address": "徐泾镇沪青平公路１３５８号康虹花园", "Telephone": null }, "geometry": { "type": "Point", "coordinates": [ 121.314481452500004, 31.175280807500002 ] } },
{ "type": "Feature", "properties": { "Name": "上海南翔假日酒店（东北门）", "Ctype": "五星级宾馆", "Ntype": "100102", "Address": "槎溪路７８９号", "Telephone": null }, "geometry": { "type": "Point", "coordinates": [ 121.320036628333327, 31.290284645 ] } },
{ "type": "Feature", "properties": { "Name": "上海南翔假日酒店", "Ctype": "五星级宾馆", "Ntype": "100102", "Address": "槎溪路７８９号", "Telephone": "021-39925888" }, "geometry": { "type": "Point", "coordinates": [ 121.320080555555549, 31.28967861111111 ] } },
{ "type": "Feature", "properties": { "Name": "美兰湖国际会议中心", "Ctype": "五星级宾馆", "Ntype": "100102", "Address": "沪太公路６６５５号", "Telephone": "021-61851388" }, "geometry": { "type": "Point", "coordinates": [ 121.35456088, 31.401207770833331 ] } },
{ "type": "Feature", "properties": { "Name": "上海美兰湖皇冠假日酒店（西北门）", "Ctype": "五星级宾馆", "Ntype": "100102", "Address": "沪太公路６６５５号", "Telephone": null }, "geometry": { "type": "Point", "coordinates": [ 121.364483498611108, 31.402214972777777 ] } },
{ "type": "Feature", "properties": { "Name": "上海美兰湖皇冠假日酒店", "Ctype": "五星级宾馆", "Ntype": "100102", "Address": "美兰湖路９号", "Telephone": "021-56590888" }, "geometry": { "type": "Point", "coordinates": [ 121.36910602333333, 31.403529589722222 ] } },
{ "type": "Feature", "properties": { "Name": "鸿华度假酒店（东北门）", "Ctype": "五星级宾馆", "Ntype": "100102", "Address": "陈海公路４８９７号鸿华度假酒店", "Telephone": null }, "geometry": { "type": "Point", "coordinates": [ 121.378414537500007, 31.673570102500001 ] } },
{ "type": "Feature", "properties": { "Name": "鸿华度假酒店", "Ctype": "五星级宾馆", "Ntype": "100102", "Address": "陈海公路４８９７号", "Telephone": "021-59679888" }, "geometry": { "type": "Point", "coordinates": [ 121.377459581111111, 31.672788628611112 ] } },
{ "type": "Feature", "properties": { "Name": "华美达酒店（环华路店）", "Ctype": "五星级宾馆", "Ntype": "100102", "Address": "上海化学工业园区环华路９号", "Telephone": "021-67120550" }, "geometry": { "type": "Point", "coordinates": [ 121.464526638333339, 30.814386664444445 ] } },
{ "type": "Feature", "properties": { "Name": "圣淘沙大酒店宴会厅", "Ctype": "五星级宾馆", "Ntype": "100102", "Address": "南桥路１号圣淘沙大酒店６层近江海路", "Telephone": "021-57429999" }, "geometry": { "type": "Point", "coordinates": [ 121.456516384444456, 30.910903591666667 ] } },
{ "type": "Feature", "properties": { "Name": "新发展圣淘沙大酒店", "Ctype": "五星级宾馆", "Ntype": "100102", "Address": "南桥路１号", "Telephone": "021-57429999" }, "geometry": { "type": "Point", "coordinates": [ 121.456572977222223, 30.910824753055554 ] } },
{ "type": "Feature", "properties": { "Name": "悦华大酒店（西门）", "Ctype": "五星级宾馆", "Ntype": "100102", "Address": "江海路８８号", "Telephone": null }, "geometry": { "type": "Point", "coordinates": [ 121.457635633611105, 30.905228135833333 ] } },
{ "type": "Feature", "properties": { "Name": "悦华大酒店（东南门）", "Ctype": "五星级宾馆", "Ntype": "100102", "Address": null, "Telephone": null }, "geometry": { "type": "Point", "coordinates": [ 121.458474392499994, 30.904134385833334 ] } },
{ "type": "Feature", "properties": { "Name": "悦华大酒店", "Ctype": "五星级宾馆", "Ntype": "100102", "Address": "南桥镇江海路８８号", "Telephone": "021-57181888" }, "geometry": { "type": "Point", "coordinates": [ 121.458631111111103, 30.904473333333335 ] } },
{ "type": "Feature", "properties": { "Name": "上海大船酒店", "Ctype": "五星级宾馆", "Ntype": "100102", "Address": null, "Telephone": "021-33650888" }, "geometry": { "type": "Point", "coordinates": [ 121.472713, 30.933782 ] } },
{ "type": "Feature", "properties": { "Name": "南郊宾馆", "Ctype": "五星级宾馆", "Ntype": "100102", "Address": "南桥新城望园路８号", "Telephone": "021-67105888" }, "geometry": { "type": "Point", "coordinates": [ 121.48361629916667, 30.924991147222219 ] } },
{ "type": "Feature", "properties": { "Name": "上海曼哈顿酒店（闵行店）", "Ctype": "五星级宾馆", "Ntype": "100102", "Address": "鹤庆路９００号碧江广场５、６号楼", "Telephone": "021-67281666" }, "geometry": { "type": "Point", "coordinates": [ 121.405664, 31.007622 ] } },
{ "type": "Feature", "properties": { "Name": "星河湾酒店（闵行店）", "Ctype": "五星级宾馆", "Ntype": "100102", "Address": "都会路３７９９号", "Telephone": "021-33887656" }, "geometry": { "type": "Point", "coordinates": [ 121.408216, 31.088055 ] } },
{ "type": "Feature", "properties": { "Name": "上海中星铂尔曼大酒店", "Ctype": "五星级宾馆", "Ntype": "100102", "Address": "浦北路１号", "Telephone": null }, "geometry": { "type": "Point", "coordinates": [ 121.429738888888892, 31.159475 ] } },
{ "type": "Feature", "properties": { "Name": "上海世茂皇家艾美酒店（南门）", "Ctype": "五星级宾馆", "Ntype": "100102", "Address": null, "Telephone": null }, "geometry": { "type": "Point", "coordinates": [ 121.47599, 31.233998888888888 ] } },
{ "type": "Feature", "properties": { "Name": "上海外滩华尔道夫酒店（正门）", "Ctype": "五星级宾馆", "Ntype": "100102", "Address": null, "Telephone": null }, "geometry": { "type": "Point", "coordinates": [ 121.489693546666658, 31.233460442222224 ] } },
{ "type": "Feature", "properties": { "Name": "思南公馆酒店（西南门）", "Ctype": "五星级宾馆", "Ntype": "100102", "Address": "思南路５３", "Telephone": null }, "geometry": { "type": "Point", "coordinates": [ 121.468293, 31.214307 ] } },
{ "type": "Feature", "properties": { "Name": "瑞金宾馆（西北１门）", "Ctype": "五星级宾馆", "Ntype": "100102", "Address": "瑞金二路１１８号", "Telephone": null }, "geometry": { "type": "Point", "coordinates": [ 121.463011111111115, 31.21416111111111 ] } },
{ "type": "Feature", "properties": { "Name": "上海四季酒店（南１门）", "Ctype": "五星级宾馆", "Ntype": "100102", "Address": null, "Telephone": null }, "geometry": { "type": "Point", "coordinates": [ 121.462031979166667, 31.226974944444446 ] } },
{ "type": "Feature", "properties": { "Name": "思南公馆酒店（东１门）", "Ctype": "五星级宾馆", "Ntype": "100102", "Address": null, "Telephone": null }, "geometry": { "type": "Point", "coordinates": [ 121.470245496944443, 31.214747721388889 ] } },
{ "type": "Feature", "properties": { "Name": "绅公馆（东南门）", "Ctype": "五星级宾馆", "Ntype": "100102", "Address": "华山路１２２０弄６号", "Telephone": null }, "geometry": { "type": "Point", "coordinates": [ 121.433456, 31.210719 ] } },
{ "type": "Feature", "properties": { "Name": "浦东香格里拉大酒店（东门）", "Ctype": "五星级宾馆", "Ntype": "100102", "Address": null, "Telephone": null }, "geometry": { "type": "Point", "coordinates": [ 121.500495, 31.236085 ] } },
{ "type": "Feature", "properties": { "Name": "上海大酒店（西门）", "Ctype": "五星级宾馆", "Ntype": "100102", "Address": null, "Telephone": null }, "geometry": { "type": "Point", "coordinates": [ 121.480977222222222, 31.234855555555555 ] } },
{ "type": "Feature", "properties": { "Name": "上海威斯汀大饭店（西南门）", "Ctype": "五星级宾馆", "Ntype": "100102", "Address": null, "Telephone": null }, "geometry": { "type": "Point", "coordinates": [ 121.48663352749999, 31.232034925833336 ] } },
{ "type": "Feature", "properties": { "Name": "新锦江大酒店（东北门）", "Ctype": "五星级宾馆", "Ntype": "100102", "Address": "长乐路１６１号", "Telephone": null }, "geometry": { "type": "Point", "coordinates": [ 121.463292479444448, 31.220963111944442 ] } },
{ "type": "Feature", "properties": { "Name": "新锦江大酒店（东北门）", "Ctype": "五星级宾馆", "Ntype": "100102", "Address": null, "Telephone": null }, "geometry": { "type": "Point", "coordinates": [ 121.462905771944449, 31.221192517777776 ] } },
{ "type": "Feature", "properties": { "Name": "上海四季酒店（东北门）", "Ctype": "五星级宾馆", "Ntype": "100102", "Address": null, "Telephone": null }, "geometry": { "type": "Point", "coordinates": [ 121.46269895361111, 31.227625429444444 ] } },
{ "type": "Feature", "properties": { "Name": "上海半岛酒店（西南门）", "Ctype": "五星级宾馆", "Ntype": "100102", "Address": null, "Telephone": null }, "geometry": { "type": "Point", "coordinates": [ 121.489013, 31.240803 ] } },
{ "type": "Feature", "properties": { "Name": "上海漕河泾万丽酒店", "Ctype": "五星级宾馆", "Ntype": "100102", "Address": "田林路３９７号", "Telephone": "021-33258888" }, "geometry": { "type": "Point", "coordinates": [ 121.396992, 31.165401 ] } },
{ "type": "Feature", "properties": { "Name": "上海外滩茂悦大酒店", "Ctype": "五星级宾馆", "Ntype": "100102", "Address": "黄浦路１９９号", "Telephone": "021-63931234" }, "geometry": { "type": "Point", "coordinates": [ 121.49294, 31.245468 ] } },
{ "type": "Feature", "properties": { "Name": "上海浦西洲际酒店", "Ctype": "五星级宾馆", "Ntype": "100102", "Address": "恒丰路５００号", "Telephone": "021-52539999" }, "geometry": { "type": "Point", "coordinates": [ 121.453209, 31.244426 ] } },
{ "type": "Feature", "properties": { "Name": "贝轩大公馆（北门）", "Ctype": "五星级宾馆", "Ntype": "100102", "Address": "南京西路１３０１", "Telephone": null }, "geometry": { "type": "Point", "coordinates": [ 121.45044256777777, 31.228541678333332 ] } },
{ "type": "Feature", "properties": { "Name": "兴国宾馆（东北１门）", "Ctype": "五星级宾馆", "Ntype": "100102", "Address": null, "Telephone": null }, "geometry": { "type": "Point", "coordinates": [ 121.435376822222224, 31.210272423611112 ] } },
{ "type": "Feature", "properties": { "Name": "上海虹桥迎宾馆", "Ctype": "五星级宾馆", "Ntype": "100102", "Address": "虹桥路１５９１号", "Telephone": "021-62198855" }, "geometry": { "type": "Point", "coordinates": [ 121.395611, 31.202218 ] } },
{ "type": "Feature", "properties": { "Name": "御锦轩凯宾斯基全套房酒店", "Ctype": "五星级宾馆", "Ntype": "100102", "Address": "凤阳路６０１号", "Telephone": "021-61571688" }, "geometry": { "type": "Point", "coordinates": [ 121.465053, 31.232278 ] } },
{ "type": "Feature", "properties": { "Name": "上海龙之梦大酒店", "Ctype": "五星级宾馆", "Ntype": "100102", "Address": "延安西路１１１６号", "Telephone": "021-61159988" }, "geometry": { "type": "Point", "coordinates": [ 121.430375, 31.210844 ] } },
{ "type": "Feature", "properties": { "Name": "上海威斯汀大饭店", "Ctype": "五星级宾馆", "Ntype": "100102", "Address": "河南中路８８号", "Telephone": "021-63351888" }, "geometry": { "type": "Point", "coordinates": [ 121.487221, 31.232519 ] } },
{ "type": "Feature", "properties": { "Name": "新时空国际商务广场（东南门）", "Ctype": "五星级宾馆", "Ntype": "100102", "Address": "汇川路９９号", "Telephone": null }, "geometry": { "type": "Point", "coordinates": [ 121.417230555555562, 31.217044444444443 ] } },
{ "type": "Feature", "properties": { "Name": "雅诗阁服务公寓（东北门）", "Ctype": "五星级宾馆", "Ntype": "100102", "Address": "衡山路９９号", "Telephone": null }, "geometry": { "type": "Point", "coordinates": [ 121.447355, 31.205603 ] } },
{ "type": "Feature", "properties": { "Name": "汾阳花园酒店", "Ctype": "五星级宾馆", "Ntype": "100102", "Address": "汾阳路４５", "Telephone": "021-54569888" }, "geometry": { "type": "Point", "coordinates": [ 121.455673105555547, 31.213150504444446 ] } },
{ "type": "Feature", "properties": { "Name": "雅诗阁服务公寓", "Ctype": "五星级宾馆", "Ntype": "100102", "Address": "衡山路９９号", "Telephone": "021-33395588" }, "geometry": { "type": "Point", "coordinates": [ 121.447776, 31.205154 ] } },
{ "type": "Feature", "properties": { "Name": "兴国宾馆（东北２门）", "Ctype": "五星级宾馆", "Ntype": "100102", "Address": "兴国路７８", "Telephone": null }, "geometry": { "type": "Point", "coordinates": [ 121.435572019722215, 31.209677169722223 ] } },
{ "type": "Feature", "properties": { "Name": "西郊宾馆３号贵宾楼", "Ctype": "五星级宾馆", "Ntype": "100102", "Address": "虹桥路１９２１号", "Telephone": null }, "geometry": { "type": "Point", "coordinates": [ 121.38165833333332, 31.201200555555555 ] } },
{ "type": "Feature", "properties": { "Name": "璞丽酒店", "Ctype": "五星级宾馆", "Ntype": "100102", "Address": "常德路１号", "Telephone": "021-32039999" }, "geometry": { "type": "Point", "coordinates": [ 121.4483525, 31.222284444444444 ] } },
{ "type": "Feature", "properties": { "Name": "上海雅居乐万豪酒店", "Ctype": "五星级宾馆", "Ntype": "100102", "Address": "西藏中路５５５号", "Telephone": "021-23129888" }, "geometry": { "type": "Point", "coordinates": [ 121.473014800277781, 31.236371527777777 ] } },
{ "type": "Feature", "properties": { "Name": "上海日航饭店", "Ctype": "五星级宾馆", "Ntype": "100102", "Address": "延安西路４８８", "Telephone": "021-32119999" }, "geometry": { "type": "Point", "coordinates": [ 121.436683, 31.217415 ] } },
{ "type": "Feature", "properties": { "Name": "兴国宾馆（西北门）", "Ctype": "五星级宾馆", "Ntype": "100102", "Address": "华山路１２４５", "Telephone": null }, "geometry": { "type": "Point", "coordinates": [ 121.43348077638889, 31.209879436666665 ] } },
{ "type": "Feature", "properties": { "Name": "兴国宾馆（东南门）", "Ctype": "五星级宾馆", "Ntype": "100102", "Address": "湖南路５８６号", "Telephone": null }, "geometry": { "type": "Point", "coordinates": [ 121.434234701666668, 31.208203410277779 ] } },
{ "type": "Feature", "properties": { "Name": "上海雅诗阁淮海路服务公寓", "Ctype": "五星级宾馆", "Ntype": "100102", "Address": "淮海中路２８２号香港广场北座", "Telephone": "021-23298888" }, "geometry": { "type": "Point", "coordinates": [ 121.474732777777774, 31.223715 ] } },
{ "type": "Feature", "properties": { "Name": "上海安达仕酒店", "Ctype": "五星级宾馆", "Ntype": "100102", "Address": "嵩山路８８号", "Telephone": "021-23101234" }, "geometry": { "type": "Point", "coordinates": [ 121.475525, 31.222103 ] } },
{ "type": "Feature", "properties": { "Name": "斯沃琪和平饭店艺术中心", "Ctype": "五星级宾馆", "Ntype": "100102", "Address": "南京东路２３号", "Telephone": "021-23298500" }, "geometry": { "type": "Point", "coordinates": [ 121.489416666666671, 31.2386725 ] } },
{ "type": "Feature", "properties": { "Name": "浦东香格里拉大酒店（东南门）", "Ctype": "五星级宾馆", "Ntype": "100102", "Address": null, "Telephone": null }, "geometry": { "type": "Point", "coordinates": [ 121.500276, 31.235917 ] } },
{ "type": "Feature", "properties": { "Name": "兴国宾馆", "Ctype": "五星级宾馆", "Ntype": "100102", "Address": "兴国路７８", "Telephone": "021-62129998|62129996" }, "geometry": { "type": "Point", "coordinates": [ 121.435017, 31.210586 ] } },
{ "type": "Feature", "properties": { "Name": "天禧嘉福·璞缇客酒店（西南门）", "Ctype": "五星级宾馆", "Ntype": "100102", "Address": null, "Telephone": null }, "geometry": { "type": "Point", "coordinates": [ 121.395213, 31.181929 ] } },
{ "type": "Feature", "properties": { "Name": "西郊宾馆（东南门）", "Ctype": "五星级宾馆", "Ntype": "100102", "Address": "虹桥路１９２１号", "Telephone": null }, "geometry": { "type": "Point", "coordinates": [ 121.387283333333329, 31.197958333333332 ] } },
{ "type": "Feature", "properties": { "Name": "上海中亚雅高美爵酒店", "Ctype": "五星级宾馆", "Ntype": "100102", "Address": "梅园路３３０号", "Telephone": "021-63535555" }, "geometry": { "type": "Point", "coordinates": [ 121.456595833333338, 31.246548888888888 ] } },
{ "type": "Feature", "properties": { "Name": "上海静安铂尔曼酒店", "Ctype": "五星级宾馆", "Ntype": "100102", "Address": null, "Telephone": "021-63535555" }, "geometry": { "type": "Point", "coordinates": [ 121.456601315833325, 31.246563258333332 ] } },
{ "type": "Feature", "properties": { "Name": "上海巴黎春天新世界酒店", "Ctype": "五星级宾馆", "Ntype": "100102", "Address": "定西路１５５５号", "Telephone": "021-62408888" }, "geometry": { "type": "Point", "coordinates": [ 121.421075, 31.218369 ] } },
{ "type": "Feature", "properties": { "Name": "虹桥喜来登上海太平洋大饭店", "Ctype": "五星级宾馆", "Ntype": "100102", "Address": "遵义南路５号", "Telephone": "021-62758888" }, "geometry": { "type": "Point", "coordinates": [ 121.405418, 31.203559 ] } },
{ "type": "Feature", "properties": { "Name": "上海半岛酒店", "Ctype": "五星级宾馆", "Ntype": "100102", "Address": "中山东一路３２号", "Telephone": "021-23272888" }, "geometry": { "type": "Point", "coordinates": [ 121.48911, 31.241319 ] } },
{ "type": "Feature", "properties": { "Name": "香格里拉大酒店宴会中心（上海静安嘉里中心店）", "Ctype": "五星级宾馆", "Ntype": "100102", "Address": null, "Telephone": null }, "geometry": { "type": "Point", "coordinates": [ 121.449433593888884, 31.222650824722223 ] } },
{ "type": "Feature", "properties": { "Name": "锦江饭店（西南１门）", "Ctype": "五星级宾馆", "Ntype": "100102", "Address": "茂名南路５９", "Telephone": null }, "geometry": { "type": "Point", "coordinates": [ 121.46078107083332, 31.219504276666665 ] } },
{ "type": "Feature", "properties": { "Name": "虹桥喜来登上海太平洋大饭店（东北门）", "Ctype": "五星级宾馆", "Ntype": "100102", "Address": "遵义南路５号", "Telephone": null }, "geometry": { "type": "Point", "coordinates": [ 121.405226881666664, 31.203980864444443 ] } },
{ "type": "Feature", "properties": { "Name": "上海四季酒店", "Ctype": "五星级宾馆", "Ntype": "100102", "Address": "威海路５００号", "Telephone": "021-62568888" }, "geometry": { "type": "Point", "coordinates": [ 121.461899156666675, 31.227329801944446 ] } },
{ "type": "Feature", "properties": { "Name": "虹桥喜来登上海太平洋大饭店（东北１门）", "Ctype": "五星级宾馆", "Ntype": "100102", "Address": "遵义南路５号", "Telephone": null }, "geometry": { "type": "Point", "coordinates": [ 121.406072082500003, 31.203738928333333 ] } },
{ "type": "Feature", "properties": { "Name": "御锦轩酒店公寓（正门）", "Ctype": "五星级宾馆", "Ntype": "100102", "Address": null, "Telephone": null }, "geometry": { "type": "Point", "coordinates": [ 121.464726, 31.232358 ] } },
{ "type": "Feature", "properties": { "Name": "上海扬子江万丽大酒店（西南门）", "Ctype": "五星级宾馆", "Ntype": "100102", "Address": null, "Telephone": null }, "geometry": { "type": "Point", "coordinates": [ 121.406354, 31.20261 ] } },
{ "type": "Feature", "properties": { "Name": "东方滨江大酒店（南门）", "Ctype": "五星级宾馆", "Ntype": "100102", "Address": "滨江大道２７２７号", "Telephone": null }, "geometry": { "type": "Point", "coordinates": [ 121.496680833333329, 31.238841944444445 ] } },
{ "type": "Feature", "properties": { "Name": "虹桥喜来登上海太平洋大饭店（东北２门）", "Ctype": "五星级宾馆", "Ntype": "100102", "Address": "遵义南路５号", "Telephone": null }, "geometry": { "type": "Point", "coordinates": [ 121.406312132222226, 31.203510190277779 ] } },
{ "type": "Feature", "properties": { "Name": "御锦轩酒店公寓（北门）", "Ctype": "五星级宾馆", "Ntype": "100102", "Address": null, "Telephone": null }, "geometry": { "type": "Point", "coordinates": [ 121.465332, 31.232504 ] } },
{ "type": "Feature", "properties": { "Name": "上海凯宾斯基大酒店（南门）", "Ctype": "五星级宾馆", "Ntype": "100102", "Address": null, "Telephone": null }, "geometry": { "type": "Point", "coordinates": [ 121.504389981944442, 31.242084814166663 ] } },
{ "type": "Feature", "properties": { "Name": "上海扬子江万丽大酒店（正门）", "Ctype": "五星级宾馆", "Ntype": "100102", "Address": null, "Telephone": null }, "geometry": { "type": "Point", "coordinates": [ 121.406097, 31.202873 ] } },
{ "type": "Feature", "properties": { "Name": "贝轩大公馆", "Ctype": "五星级宾馆", "Ntype": "100102", "Address": "南阳路１７０", "Telephone": "021-62538030|62897878" }, "geometry": { "type": "Point", "coordinates": [ 121.450503, 31.228184 ] } },
{ "type": "Feature", "properties": { "Name": "丽都太平洋酒店公寓", "Ctype": "五星级宾馆", "Ntype": "100102", "Address": "新闸路８３１丽都新贵", "Telephone": "021-52281818" }, "geometry": { "type": "Point", "coordinates": [ 121.459861944444455, 31.234594166666668 ] } },
{ "type": "Feature", "properties": { "Name": "上海斯格威铂尔曼大酒店", "Ctype": "五星级宾馆", "Ntype": "100102", "Address": "打浦路１５号", "Telephone": "021-33189988" }, "geometry": { "type": "Point", "coordinates": [ 121.470655555555552, 31.204183333333333 ] } },
{ "type": "Feature", "properties": { "Name": "上海凯宾斯基大酒店", "Ctype": "五星级宾馆", "Ntype": "100102", "Address": "陆家嘴环路１２８８号", "Telephone": "021-38678888" }, "geometry": { "type": "Point", "coordinates": [ 121.504199, 31.24253 ] } },
{ "type": "Feature", "properties": { "Name": "纽约曼哈顿五星级酒店", "Ctype": "五星级宾馆", "Ntype": "100102", "Address": "中山南二路１００７", "Telephone": null }, "geometry": { "type": "Point", "coordinates": [ 121.445957697222212, 31.181090379444445 ] } },
{ "type": "Feature", "properties": { "Name": "上海豫园万丽酒店", "Ctype": "五星级宾馆", "Ntype": "100102", "Address": "河南南路１５９号", "Telephone": "021-23218888" }, "geometry": { "type": "Point", "coordinates": [ 121.488008, 31.227453 ] } },
{ "type": "Feature", "properties": { "Name": "上海衡山路十二号豪华精选酒店", "Ctype": "五星级宾馆", "Ntype": "100102", "Address": "衡山路１２号", "Telephone": "021-33383888|33383871" }, "geometry": { "type": "Point", "coordinates": [ 121.44634, 31.20506 ] } },
{ "type": "Feature", "properties": { "Name": "天禧嘉福·璞缇客酒店（西南门）", "Ctype": "五星级宾馆", "Ntype": "100102", "Address": "虹许路３５８号", "Telephone": null }, "geometry": { "type": "Point", "coordinates": [ 121.394949, 31.181869 ] } },
{ "type": "Feature", "properties": { "Name": "上海银星皇冠假日酒店（北１门）", "Ctype": "五星级宾馆", "Ntype": "100102", "Address": "番禺路４００号", "Telephone": null }, "geometry": { "type": "Point", "coordinates": [ 121.429310141666662, 31.203492869722222 ] } },
{ "type": "Feature", "properties": { "Name": "贝轩大公馆（东南门）", "Ctype": "五星级宾馆", "Ntype": "100102", "Address": "南阳路１７０", "Telephone": null }, "geometry": { "type": "Point", "coordinates": [ 121.450735, 31.227937 ] } },
{ "type": "Feature", "properties": { "Name": "上海瑞金洲际酒店（西门）", "Ctype": "五星级宾馆", "Ntype": "100102", "Address": "茂名南路２０７－４", "Telephone": null }, "geometry": { "type": "Point", "coordinates": [ 121.462984876666667, 31.212678888888888 ] } },
{ "type": "Feature", "properties": { "Name": "上海希尔顿酒店华山路店（东北２门）", "Ctype": "五星级宾馆", "Ntype": "100102", "Address": null, "Telephone": null }, "geometry": { "type": "Point", "coordinates": [ 121.446041270833319, 31.21899394722222 ] } },
{ "type": "Feature", "properties": { "Name": "希尔顿酒店（华山路店）", "Ctype": "五星级宾馆", "Ntype": "100102", "Address": "华山路２５０号", "Telephone": "021-62480000" }, "geometry": { "type": "Point", "coordinates": [ 121.445371, 31.219276 ] } },
{ "type": "Feature", "properties": { "Name": "天禧嘉福·璞缇客酒店", "Ctype": "五星级宾馆", "Ntype": "100102", "Address": "虹许路３５８号", "Telephone": "021-34059898" }, "geometry": { "type": "Point", "coordinates": [ 121.395614, 31.181602 ] } },
{ "type": "Feature", "properties": { "Name": "衡山宾馆", "Ctype": "五星级宾馆", "Ntype": "100102", "Address": "衡山路５３４号", "Telephone": "021-64377050" }, "geometry": { "type": "Point", "coordinates": [ 121.443161, 31.200919 ] } },
{ "type": "Feature", "properties": { "Name": "上海瑞金洲际酒店（北１门）", "Ctype": "五星级宾馆", "Ntype": "100102", "Address": null, "Telephone": null }, "geometry": { "type": "Point", "coordinates": [ 121.462987, 31.214213 ] } },
{ "type": "Feature", "properties": { "Name": "东方滨江大酒店", "Ctype": "五星级宾馆", "Ntype": "100102", "Address": "滨江大道２７２７号", "Telephone": "021-50370000" }, "geometry": { "type": "Point", "coordinates": [ 121.496848888888891, 31.239510833333334 ] } },
{ "type": "Feature", "properties": { "Name": "上海扬子江万丽大酒店（东北门）", "Ctype": "五星级宾馆", "Ntype": "100102", "Address": null, "Telephone": null }, "geometry": { "type": "Point", "coordinates": [ 121.406694, 31.203242 ] } },
{ "type": "Feature", "properties": { "Name": "上海银星皇冠假日酒店（东门）", "Ctype": "五星级宾馆", "Ntype": "100102", "Address": "番禺路４００号", "Telephone": null }, "geometry": { "type": "Point", "coordinates": [ 121.43015653, 31.202972592222221 ] } },
{ "type": "Feature", "properties": { "Name": "优帕克服务式公寓（永新城）", "Ctype": "五星级宾馆", "Ntype": "100102", "Address": null, "Telephone": null }, "geometry": { "type": "Point", "coordinates": [ 121.444504, 31.193373 ] } },
{ "type": "Feature", "properties": { "Name": "上海银星皇冠假日酒店", "Ctype": "五星级宾馆", "Ntype": "100102", "Address": "番禺路４００号", "Telephone": "021-61458888" }, "geometry": { "type": "Point", "coordinates": [ 121.429599, 31.202783 ] } },
{ "type": "Feature", "properties": { "Name": "上海万达瑞华酒店", "Ctype": "五星级宾馆", "Ntype": "100102", "Address": null, "Telephone": null }, "geometry": { "type": "Point", "coordinates": [ 121.496602, 31.227978 ] } },
{ "type": "Feature", "properties": { "Name": "上海希尔顿酒店华山路店（东北１门）", "Ctype": "五星级宾馆", "Ntype": "100102", "Address": "华山路２５０号", "Telephone": null }, "geometry": { "type": "Point", "coordinates": [ 121.445711111111109, 31.2197 ] } },
{ "type": "Feature", "properties": { "Name": "上海外滩华尔道夫酒店", "Ctype": "五星级宾馆", "Ntype": "100102", "Address": "四川中路８８号", "Telephone": "021-63229988" }, "geometry": { "type": "Point", "coordinates": [ 121.48977, 31.233593 ] } },
{ "type": "Feature", "properties": { "Name": "上海瑞金洲际酒店", "Ctype": "五星级宾馆", "Ntype": "100102", "Address": "瑞金二路１１８号", "Telephone": "021-60435222|64725222" }, "geometry": { "type": "Point", "coordinates": [ 121.464161, 31.213136 ] } },
{ "type": "Feature", "properties": { "Name": "新时空国际商务广场", "Ctype": "五星级宾馆", "Ntype": "100102", "Address": "汇川路９９号", "Telephone": null }, "geometry": { "type": "Point", "coordinates": [ 121.416937, 31.217278 ] } },
{ "type": "Feature", "properties": { "Name": "上海优帕克服务式公寓（静安枫景店）", "Ctype": "五星级宾馆", "Ntype": "100102", "Address": null, "Telephone": "021-62085765" }, "geometry": { "type": "Point", "coordinates": [ 121.446527, 31.230368 ] } },
{ "type": "Feature", "properties": { "Name": "御锦轩酒店公寓（东门）", "Ctype": "五星级宾馆", "Ntype": "100102", "Address": null, "Telephone": null }, "geometry": { "type": "Point", "coordinates": [ 121.465386, 31.232124 ] } },
{ "type": "Feature", "properties": { "Name": "上海东方商旅精品酒店", "Ctype": "五星级宾馆", "Ntype": "100102", "Address": "金陵东路１号", "Telephone": "021-63200088" }, "geometry": { "type": "Point", "coordinates": [ 121.492857777777772, 31.231728888888888 ] } },
{ "type": "Feature", "properties": { "Name": "思南公馆酒店", "Ctype": "五星级宾馆", "Ntype": "100102", "Address": "思南路５３", "Telephone": "021-34019998" }, "geometry": { "type": "Point", "coordinates": [ 121.468854822499992, 31.214354259166669 ] } },
{ "type": "Feature", "properties": { "Name": "首席公馆酒店", "Ctype": "五星级宾馆", "Ntype": "100102", "Address": "新乐路８２", "Telephone": "021-54039888" }, "geometry": { "type": "Point", "coordinates": [ 121.455271111111117, 31.217926111111112 ] } },
{ "type": "Feature", "properties": { "Name": "浦东香格里拉大酒店", "Ctype": "五星级宾馆", "Ntype": "100102", "Address": "富城路３３号", "Telephone": "021-68828888" }, "geometry": { "type": "Point", "coordinates": [ 121.499491574722228, 31.235820203055553 ] } },
{ "type": "Feature", "properties": { "Name": "静安香格里拉大酒店", "Ctype": "五星级宾馆", "Ntype": "100102", "Address": "延安中路１２１８号", "Telephone": "021-22038888" }, "geometry": { "type": "Point", "coordinates": [ 121.450461388888897, 31.222925277777779 ] } },
{ "type": "Feature", "properties": { "Name": "古象大酒店", "Ctype": "五星级宾馆", "Ntype": "100102", "Address": "九江路５９５", "Telephone": "021-33134888" }, "geometry": { "type": "Point", "coordinates": [ 121.479577, 31.234418 ] } },
{ "type": "Feature", "properties": { "Name": "上海新发展亚太万豪酒店", "Ctype": "五星级宾馆", "Ntype": "100102", "Address": "大渡河路１５８号", "Telephone": "021-22156666|22156250" }, "geometry": { "type": "Point", "coordinates": [ 121.396014, 31.221509 ] } },
{ "type": "Feature", "properties": { "Name": "花园饭店", "Ctype": "五星级宾馆", "Ntype": "100102", "Address": "茂名南路５８号", "Telephone": "021-64151111" }, "geometry": { "type": "Point", "coordinates": [ 121.459762, 31.21992 ] } },
{ "type": "Feature", "properties": { "Name": "上海国丰酒店", "Ctype": "五星级宾馆", "Ntype": "100102", "Address": "大渡河路３８８号", "Telephone": "021-60958888" }, "geometry": { "type": "Point", "coordinates": [ 121.394484, 31.224393 ] } },
{ "type": "Feature", "properties": { "Name": "绅公馆", "Ctype": "五星级宾馆", "Ntype": "100102", "Address": "华山路１２２０弄６号", "Telephone": "021-52569977" }, "geometry": { "type": "Point", "coordinates": [ 121.43284, 31.211169 ] } },
{ "type": "Feature", "properties": { "Name": "中福世福汇大酒店", "Ctype": "五星级宾馆", "Ntype": "100102", "Address": "广东路３３９号", "Telephone": "021-53524888" }, "geometry": { "type": "Point", "coordinates": [ 121.484560807222209, 31.232261739722222 ] } },
{ "type": "Feature", "properties": { "Name": "上海璞邸精品酒店", "Ctype": "五星级宾馆", "Ntype": "100102", "Address": "雁荡路９９号", "Telephone": "021-51585888" }, "geometry": { "type": "Point", "coordinates": [ 121.470014166666658, 31.219046666666667 ] } },
{ "type": "Feature", "properties": { "Name": "上海浦东丽思卡尔顿酒店", "Ctype": "五星级宾馆", "Ntype": "100102", "Address": "世纪大道８号上海国金中心", "Telephone": "021-20201888" }, "geometry": { "type": "Point", "coordinates": [ 121.501242777777776, 31.236327777777777 ] } },
{ "type": "Feature", "properties": { "Name": "天禧嘉福·璞缇客酒店（东北门）", "Ctype": "五星级宾馆", "Ntype": "100102", "Address": "虹许路３５８号", "Telephone": null }, "geometry": { "type": "Point", "coordinates": [ 121.396269, 31.181428 ] } },
{ "type": "Feature", "properties": { "Name": "嘉豪淮海国际豪生酒店", "Ctype": "五星级宾馆", "Ntype": "100102", "Address": "汾阳路１号", "Telephone": "021-54619898" }, "geometry": { "type": "Point", "coordinates": [ 121.455952587500008, 31.214631412222221 ] } },
{ "type": "Feature", "properties": { "Name": "上海波特曼丽思卡尔顿酒店", "Ctype": "五星级宾馆", "Ntype": "100102", "Address": "南京西路１３７６号上海商城", "Telephone": "021-62798888" }, "geometry": { "type": "Point", "coordinates": [ 121.451673611111119, 31.2271425 ] } },
{ "type": "Feature", "properties": { "Name": "上海绿地万豪酒店", "Ctype": "五星级宾馆", "Ntype": "100102", "Address": "江滨路９９号", "Telephone": "021-53188888" }, "geometry": { "type": "Point", "coordinates": [ 121.472943, 31.192066 ] } },
{ "type": "Feature", "properties": { "Name": "上海豫园万丽酒店（北门）", "Ctype": "五星级宾馆", "Ntype": "100102", "Address": "河南南路１５９号", "Telephone": null }, "geometry": { "type": "Point", "coordinates": [ 121.488348888888879, 31.227485 ] } },
{ "type": "Feature", "properties": { "Name": "上海世茂皇家艾美酒店", "Ctype": "五星级宾馆", "Ntype": "100102", "Address": "南京东路７８９号", "Telephone": "021-33189999" }, "geometry": { "type": "Point", "coordinates": [ 121.475824, 31.23446 ] } },
{ "type": "Feature", "properties": { "Name": "锦江饭店锦北楼", "Ctype": "五星级宾馆", "Ntype": "100102", "Address": "茂名南路５９号", "Telephone": "021-32189888|62582582" }, "geometry": { "type": "Point", "coordinates": [ 121.460834444444444, 31.220577777777777 ] } },
{ "type": "Feature", "properties": { "Name": "上海千禧海鸥大酒店（东北门）", "Ctype": "五星级宾馆", "Ntype": "100102", "Address": "农工路７７号", "Telephone": null }, "geometry": { "type": "Point", "coordinates": [ 121.397747777777781, 31.198393333333332 ] } },
{ "type": "Feature", "properties": { "Name": "上海外滩英迪格酒店", "Ctype": "五星级宾馆", "Ntype": "100102", "Address": "中山东二路５８５号", "Telephone": "021-33029999" }, "geometry": { "type": "Point", "coordinates": [ 121.499807, 31.226412 ] } },
{ "type": "Feature", "properties": { "Name": "上海新世界丽笙大酒店", "Ctype": "五星级宾馆", "Ntype": "100102", "Address": "南京西路８８", "Telephone": "021-63599999" }, "geometry": { "type": "Point", "coordinates": [ 121.472906005555558, 31.234671229444444 ] } },
{ "type": "Feature", "properties": { "Name": "锦江饭店锦北楼（西南２门）", "Ctype": "五星级宾馆", "Ntype": "100102", "Address": "茂名南路５９号", "Telephone": null }, "geometry": { "type": "Point", "coordinates": [ 121.460482265833335, 31.220284751944444 ] } },
{ "type": "Feature", "properties": { "Name": "上海千禧海鸥大酒店（西北门）", "Ctype": "五星级宾馆", "Ntype": "100102", "Address": "延安西路２５８８", "Telephone": null }, "geometry": { "type": "Point", "coordinates": [ 121.394735554166658, 31.197988579166669 ] } },
{ "type": "Feature", "properties": { "Name": "天鹅湖温泉酒店（紫秀路）", "Ctype": "五星级宾馆", "Ntype": "100102", "Address": null, "Telephone": null }, "geometry": { "type": "Point", "coordinates": [ 121.380727, 31.179292 ] } },
{ "type": "Feature", "properties": { "Name": "上海虹桥迎宾馆（北门）", "Ctype": "五星级宾馆", "Ntype": "100102", "Address": "虹古路２２１", "Telephone": null }, "geometry": { "type": "Point", "coordinates": [ 121.394529351111103, 31.203740505555555 ] } },
{ "type": "Feature", "properties": { "Name": "上海巴黎春天新世界酒店（东门）", "Ctype": "五星级宾馆", "Ntype": "100102", "Address": "定西路１５５５号", "Telephone": null }, "geometry": { "type": "Point", "coordinates": [ 121.421605555555558, 31.218258333333331 ] } },
{ "type": "Feature", "properties": { "Name": "上海千禧海鸥大酒店", "Ctype": "五星级宾馆", "Ntype": "100102", "Address": "延安西路２５８８号", "Telephone": "021-52554620|62085888" }, "geometry": { "type": "Point", "coordinates": [ 121.395519, 31.197036 ] } },
{ "type": "Feature", "properties": { "Name": "上海瑞金洲际酒店贵宾楼", "Ctype": "五星级宾馆", "Ntype": "100102", "Address": "瑞金二路１１８号", "Telephone": "021-64725222" }, "geometry": { "type": "Point", "coordinates": [ 121.463953179166666, 31.212861870555553 ] } },
{ "type": "Feature", "properties": { "Name": "上海国际会议中心（东门）", "Ctype": "五星级宾馆", "Ntype": "100102", "Address": "滨江大道２７２７号", "Telephone": null }, "geometry": { "type": "Point", "coordinates": [ 121.497801944444447, 31.239497777777778 ] } },
{ "type": "Feature", "properties": { "Name": "东方滨江大酒店（东门）", "Ctype": "五星级宾馆", "Ntype": "100102", "Address": "滨江大道２７２７号", "Telephone": null }, "geometry": { "type": "Point", "coordinates": [ 121.497801944444447, 31.239497777777778 ] } },
{ "type": "Feature", "properties": { "Name": "丽都太平洋酒店公寓（东门）", "Ctype": "五星级宾馆", "Ntype": "100102", "Address": "石门二路２１９丽都太平洋全套房酒店", "Telephone": null }, "geometry": { "type": "Point", "coordinates": [ 121.46044206944444, 31.234354205833334 ] } },
{ "type": "Feature", "properties": { "Name": "富豪环球东亚酒店", "Ctype": "五星级宾馆", "Ntype": "100102", "Address": "衡山路５１６号", "Telephone": "021-64155588" }, "geometry": { "type": "Point", "coordinates": [ 121.444067, 31.201902 ] } },
{ "type": "Feature", "properties": { "Name": "锦江饭店", "Ctype": "五星级宾馆", "Ntype": "100102", "Address": "茂名南路５９号", "Telephone": "021-32189888" }, "geometry": { "type": "Point", "coordinates": [ 121.461792, 31.21937 ] } },
{ "type": "Feature", "properties": { "Name": "上海大酒店", "Ctype": "五星级宾馆", "Ntype": "100102", "Address": "九江路５０５号", "Telephone": "021-53538888" }, "geometry": { "type": "Point", "coordinates": [ 121.48141, 31.235111 ] } },
{ "type": "Feature", "properties": { "Name": "上海扬子江万丽大酒店", "Ctype": "五星级宾馆", "Ntype": "100102", "Address": "延安西路２０９９号", "Telephone": "021-62750000" }, "geometry": { "type": "Point", "coordinates": [ 121.40598, 31.203031 ] } },
{ "type": "Feature", "properties": { "Name": "上海大酒店（北１门）", "Ctype": "五星级宾馆", "Ntype": "100102", "Address": null, "Telephone": null }, "geometry": { "type": "Point", "coordinates": [ 121.481665833333324, 31.23558 ] } },
{ "type": "Feature", "properties": { "Name": "上海大酒店（北门）", "Ctype": "五星级宾馆", "Ntype": "100102", "Address": null, "Telephone": null }, "geometry": { "type": "Point", "coordinates": [ 121.481025, 31.235306944444442 ] } },
{ "type": "Feature", "properties": { "Name": "上海虹桥雅高美爵酒店", "Ctype": "五星级宾馆", "Ntype": "100102", "Address": "仙霞路３６９", "Telephone": "021-51533300" }, "geometry": { "type": "Point", "coordinates": [ 121.396521464444447, 31.206282398888892 ] } },
{ "type": "Feature", "properties": { "Name": "虹桥锦江大酒店", "Ctype": "五星级宾馆", "Ntype": "100102", "Address": null, "Telephone": null }, "geometry": { "type": "Point", "coordinates": [ 121.405416, 31.20358 ] } },
{ "type": "Feature", "properties": { "Name": "上海四季酒店（东南２门）", "Ctype": "五星级宾馆", "Ntype": "100102", "Address": null, "Telephone": null }, "geometry": { "type": "Point", "coordinates": [ 121.461525555555568, 31.226973055555558 ] } },
{ "type": "Feature", "properties": { "Name": "新锦江大酒店（西北门）", "Ctype": "五星级宾馆", "Ntype": "100102", "Address": "长乐路１６１号", "Telephone": null }, "geometry": { "type": "Point", "coordinates": [ 121.462412222222227, 31.221101666666666 ] } },
{ "type": "Feature", "properties": { "Name": "上海雅居乐万豪酒店（北门）", "Ctype": "五星级宾馆", "Ntype": "100102", "Address": "西藏中路５５５号", "Telephone": null }, "geometry": { "type": "Point", "coordinates": [ 121.472845833333338, 31.236622777777779 ] } },
{ "type": "Feature", "properties": { "Name": "上海明天广场ＪＷ万豪酒店", "Ctype": "五星级宾馆", "Ntype": "100102", "Address": "南京西路３９９号", "Telephone": "021-53594969" }, "geometry": { "type": "Point", "coordinates": [ 121.469692, 31.230377 ] } },
{ "type": "Feature", "properties": { "Name": "新锦江大酒店", "Ctype": "五星级宾馆", "Ntype": "100102", "Address": "长乐路１６１号", "Telephone": "021-64151188" }, "geometry": { "type": "Point", "coordinates": [ 121.462903888888903, 31.220746944444443 ] } },
{ "type": "Feature", "properties": { "Name": "上海虹桥迎宾馆（南门）", "Ctype": "五星级宾馆", "Ntype": "100102", "Address": "虹桥路１５９１号", "Telephone": null }, "geometry": { "type": "Point", "coordinates": [ 121.395519, 31.200913 ] } },
{ "type": "Feature", "properties": { "Name": "上海利园国际大酒店", "Ctype": "五星级宾馆", "Ntype": "100102", "Address": "东安路２５５", "Telephone": "021-33988888" }, "geometry": { "type": "Point", "coordinates": [ 121.453912637499997, 31.192516612222224 ] } },
{ "type": "Feature", "properties": { "Name": "上海龙之梦万丽酒店", "Ctype": "五星级宾馆", "Ntype": "100102", "Address": "长宁路１０１８", "Telephone": "021-61158888|61158987" }, "geometry": { "type": "Point", "coordinates": [ 121.417181, 31.218763 ] } },
{ "type": "Feature", "properties": { "Name": "中福世福汇大酒店（西北门）", "Ctype": "五星级宾馆", "Ntype": "100102", "Address": "广东路３３９号", "Telephone": null }, "geometry": { "type": "Point", "coordinates": [ 121.48437, 31.232514 ] } },
{ "type": "Feature", "properties": { "Name": "瑞金宾馆（西北２门）", "Ctype": "五星级宾馆", "Ntype": "100102", "Address": "复兴中路５９５", "Telephone": null }, "geometry": { "type": "Point", "coordinates": [ 121.46379833333333, 31.214469444444443 ] } },
{ "type": "Feature", "properties": { "Name": "上海斯格威铂尔曼大酒店（西南门）", "Ctype": "五星级宾馆", "Ntype": "100102", "Address": "打浦路１５号", "Telephone": null }, "geometry": { "type": "Point", "coordinates": [ 121.470347, 31.204375 ] } },
{ "type": "Feature", "properties": { "Name": "上海瑞金洲际酒店（东北门）", "Ctype": "五星级宾馆", "Ntype": "100102", "Address": "瑞金二路１１８号", "Telephone": null }, "geometry": { "type": "Point", "coordinates": [ 121.465336590277772, 31.213070711111111 ] } },
{ "type": "Feature", "properties": { "Name": "思南公馆酒店（北２门）", "Ctype": "五星级宾馆", "Ntype": "100102", "Address": null, "Telephone": null }, "geometry": { "type": "Point", "coordinates": [ 121.46931667749999, 31.214914550833335 ] } },
{ "type": "Feature", "properties": { "Name": "上海外滩华尔道夫酒店（北门）", "Ctype": "五星级宾馆", "Ntype": "100102", "Address": null, "Telephone": null }, "geometry": { "type": "Point", "coordinates": [ 121.489745833333345, 31.233925833333334 ] } },
{ "type": "Feature", "properties": { "Name": "古象大酒店（东门）", "Ctype": "五星级宾馆", "Ntype": "100102", "Address": null, "Telephone": null }, "geometry": { "type": "Point", "coordinates": [ 121.480040833333334, 31.234452777777779 ] } },
{ "type": "Feature", "properties": { "Name": "上海浦西洲际酒店（北门）", "Ctype": "五星级宾馆", "Ntype": "100102", "Address": "恒丰路５００号", "Telephone": null }, "geometry": { "type": "Point", "coordinates": [ 121.45277744444445, 31.245561522222221 ] } },
{ "type": "Feature", "properties": { "Name": "南华亭宾馆（西１门）", "Ctype": "五星级宾馆", "Ntype": "100102", "Address": "中山西路２５２５号", "Telephone": null }, "geometry": { "type": "Point", "coordinates": [ 121.434200073055564, 31.180937173888889 ] } },
{ "type": "Feature", "properties": { "Name": "上海世茂皇家艾美酒店（东门）", "Ctype": "五星级宾馆", "Ntype": "100102", "Address": null, "Telephone": null }, "geometry": { "type": "Point", "coordinates": [ 121.476585, 31.234556 ] } },
{ "type": "Feature", "properties": { "Name": "汾阳花园酒店（西北１门）", "Ctype": "五星级宾馆", "Ntype": "100102", "Address": "汾阳路４５", "Telephone": null }, "geometry": { "type": "Point", "coordinates": [ 121.455116734166666, 31.212849971388888 ] } },
{ "type": "Feature", "properties": { "Name": "联艺·凯文公寓（西北门）", "Ctype": "五星级宾馆", "Ntype": "100102", "Address": "衡山路５２５", "Telephone": null }, "geometry": { "type": "Point", "coordinates": [ 121.443818067222224, 31.200863596666665 ] } },
{ "type": "Feature", "properties": { "Name": "首席公馆酒店（东南门）", "Ctype": "五星级宾馆", "Ntype": "100102", "Address": "新乐路８２号", "Telephone": null }, "geometry": { "type": "Point", "coordinates": [ 121.455523, 31.217809 ] } },
{ "type": "Feature", "properties": { "Name": "和平饭店艺术中心", "Ctype": "五星级宾馆", "Ntype": "100102", "Address": null, "Telephone": "021-23298500" }, "geometry": { "type": "Point", "coordinates": [ 121.489217, 31.238656 ] } },
{ "type": "Feature", "properties": { "Name": "上海虹桥元一希尔顿酒店（东南门）", "Ctype": "五星级宾馆", "Ntype": "100102", "Address": "红松东路１１１６号", "Telephone": null }, "geometry": { "type": "Point", "coordinates": [ 121.39511111111112, 31.187497222222223 ] } },
{ "type": "Feature", "properties": { "Name": "思南公馆酒店（北１门）", "Ctype": "五星级宾馆", "Ntype": "100102", "Address": null, "Telephone": null }, "geometry": { "type": "Point", "coordinates": [ 121.468891059166666, 31.214828559166669 ] } },
{ "type": "Feature", "properties": { "Name": "东方滨江大酒店（西门）", "Ctype": "五星级宾馆", "Ntype": "100102", "Address": null, "Telephone": null }, "geometry": { "type": "Point", "coordinates": [ 121.495917777777777, 31.238573888888887 ] } },
{ "type": "Feature", "properties": { "Name": "上海虹桥迎宾馆（南１门）", "Ctype": "五星级宾馆", "Ntype": "100102", "Address": null, "Telephone": null }, "geometry": { "type": "Point", "coordinates": [ 121.397628851944447, 31.200865614166666 ] } },
{ "type": "Feature", "properties": { "Name": "汾阳花园酒店（西北２门）", "Ctype": "五星级宾馆", "Ntype": "100102", "Address": "汾阳路１７", "Telephone": null }, "geometry": { "type": "Point", "coordinates": [ 121.455285668611111, 31.213430625833332 ] } },
{ "type": "Feature", "properties": { "Name": "国金汇", "Ctype": "五星级宾馆", "Ntype": "100102", "Address": "陆家嘴世纪大道８号", "Telephone": "021-20338970" }, "geometry": { "type": "Point", "coordinates": [ 121.5030325, 31.235418055555556 ] } },
{ "type": "Feature", "properties": { "Name": "新锦江大酒店（东２门）", "Ctype": "五星级宾馆", "Ntype": "100102", "Address": null, "Telephone": null }, "geometry": { "type": "Point", "coordinates": [ 121.463368333333335, 31.220493611111113 ] } },
{ "type": "Feature", "properties": { "Name": "思南公馆酒店（东２门）", "Ctype": "五星级宾馆", "Ntype": "100102", "Address": "复兴中路５０７弄２号", "Telephone": null }, "geometry": { "type": "Point", "coordinates": [ 121.470171038333334, 31.213680755 ] } },
{ "type": "Feature", "properties": { "Name": "上海虹桥雅高美爵酒店（南２门）", "Ctype": "五星级宾馆", "Ntype": "100102", "Address": "仙霞路３６９", "Telephone": null }, "geometry": { "type": "Point", "coordinates": [ 121.396281020833328, 31.205860754722224 ] } },
{ "type": "Feature", "properties": { "Name": "上海新天地朗廷酒店", "Ctype": "五星级宾馆", "Ntype": "100102", "Address": "新天地马当路９９号", "Telephone": "021-23302288" }, "geometry": { "type": "Point", "coordinates": [ 121.474303888888898, 31.221805 ] } },
{ "type": "Feature", "properties": { "Name": "南新雅大酒店", "Ctype": "五星级宾馆", "Ntype": "100102", "Address": "九江路７００号", "Telephone": "021-63500000" }, "geometry": { "type": "Point", "coordinates": [ 121.477000277777776, 31.23455361111111 ] } },
{ "type": "Feature", "properties": { "Name": "上海扬子精品酒店", "Ctype": "五星级宾馆", "Ntype": "100102", "Address": "汉口路７４０", "Telephone": "021-60800800" }, "geometry": { "type": "Point", "coordinates": [ 121.476448, 31.233365 ] } },
{ "type": "Feature", "properties": { "Name": "上海宏安瑞士大酒店", "Ctype": "五星级宾馆", "Ntype": "100102", "Address": "愚园路１号", "Telephone": "021-53559898" }, "geometry": { "type": "Point", "coordinates": [ 121.446996, 31.224708 ] } },
{ "type": "Feature", "properties": { "Name": "花园饭店上海（东北门）", "Ctype": "五星级宾馆", "Ntype": "100102", "Address": "茂名南路５８", "Telephone": null }, "geometry": { "type": "Point", "coordinates": [ 121.46044322638889, 31.219696253611108 ] } },
{ "type": "Feature", "properties": { "Name": "上海虹桥雅高美爵酒店（南１门）", "Ctype": "五星级宾馆", "Ntype": "100102", "Address": "仙霞路３６９", "Telephone": null }, "geometry": { "type": "Point", "coordinates": [ 121.396982431666657, 31.205903120277778 ] } },
{ "type": "Feature", "properties": { "Name": "上海银星皇冠假日酒店（东北２门）", "Ctype": "五星级宾馆", "Ntype": "100102", "Address": "番禺路４００号", "Telephone": null }, "geometry": { "type": "Point", "coordinates": [ 121.430088034166658, 31.203286479166668 ] } },
{ "type": "Feature", "properties": { "Name": "华亭宾馆（东门）", "Ctype": "五星级宾馆", "Ntype": "100102", "Address": "漕溪北路１２００号", "Telephone": null }, "geometry": { "type": "Point", "coordinates": [ 121.435783, 31.18176 ] } },
{ "type": "Feature", "properties": { "Name": "联艺·凯文公寓", "Ctype": "五星级宾馆", "Ntype": "100102", "Address": "衡山路５２５", "Telephone": "021-51795000" }, "geometry": { "type": "Point", "coordinates": [ 121.443775, 31.20066388888889 ] } },
{ "type": "Feature", "properties": { "Name": "东方滨江大酒店（５号门）", "Ctype": "五星级宾馆", "Ntype": "100102", "Address": "滨江大道２７２７号", "Telephone": null }, "geometry": { "type": "Point", "coordinates": [ 121.496420833333332, 31.239806944444442 ] } },
{ "type": "Feature", "properties": { "Name": "华亭宾馆", "Ctype": "五星级宾馆", "Ntype": "100102", "Address": "漕溪北路１２００号", "Telephone": "021-64391000|64396000" }, "geometry": { "type": "Point", "coordinates": [ 121.435399, 31.181476 ] } },
{ "type": "Feature", "properties": { "Name": "上海大酒店（东南门）", "Ctype": "五星级宾馆", "Ntype": "100102", "Address": "九江路５０５号", "Telephone": null }, "geometry": { "type": "Point", "coordinates": [ 121.48204, 31.235053 ] } },
{ "type": "Feature", "properties": { "Name": "上海虹桥元一希尔顿酒店", "Ctype": "五星级宾馆", "Ntype": "100102", "Address": "红松东路１１１６号上海虹桥元一大厦", "Telephone": "021-33236666|33236571" }, "geometry": { "type": "Point", "coordinates": [ 121.394734, 31.188243 ] } },
{ "type": "Feature", "properties": { "Name": "上海巴黎春天新世界酒店（北门）", "Ctype": "五星级宾馆", "Ntype": "100102", "Address": "定西路１５５５号", "Telephone": null }, "geometry": { "type": "Point", "coordinates": [ 121.420950878888888, 31.218777046388887 ] } },
{ "type": "Feature", "properties": { "Name": "锦江饭店锦北楼（北门）", "Ctype": "五星级宾馆", "Ntype": "100102", "Address": "长乐路１７５", "Telephone": null }, "geometry": { "type": "Point", "coordinates": [ 121.461393055555561, 31.220851944444444 ] } },
{ "type": "Feature", "properties": { "Name": "宝御酒店（东北２门）", "Ctype": "五星级宾馆", "Ntype": "100102", "Address": "吴淞路２９９号", "Telephone": null }, "geometry": { "type": "Point", "coordinates": [ 121.489362441388877, 31.248765813611111 ] } },
{ "type": "Feature", "properties": { "Name": "宝御酒店（东北１门）", "Ctype": "五星级宾馆", "Ntype": "100102", "Address": "吴淞路２９９号", "Telephone": null }, "geometry": { "type": "Point", "coordinates": [ 121.489224193055563, 31.249232480833335 ] } },
{ "type": "Feature", "properties": { "Name": "上海宝华万豪酒店", "Ctype": "五星级宾馆", "Ntype": "100102", "Address": "广中西路３３３号", "Telephone": "021-36698888" }, "geometry": { "type": "Point", "coordinates": [ 121.44607, 31.279671 ] } },
{ "type": "Feature", "properties": { "Name": "上海财大豪生大酒店", "Ctype": "五星级宾馆", "Ntype": "100102", "Address": "武东路１８８号", "Telephone": "021-55579999" }, "geometry": { "type": "Point", "coordinates": [ 121.492104, 31.30444 ] } },
{ "type": "Feature", "properties": { "Name": "上海复旦皇冠假日酒店", "Ctype": "五星级宾馆", "Ntype": "100102", "Address": "邯郸路１９９号", "Telephone": "021-55529999" }, "geometry": { "type": "Point", "coordinates": [ 121.502132, 31.295072 ] } },
{ "type": "Feature", "properties": { "Name": "上海品尊名致精品酒店公寓", "Ctype": "五星级宾馆", "Ntype": "100102", "Address": "铜川路５８弄１号", "Telephone": "021-61478888" }, "geometry": { "type": "Point", "coordinates": [ 121.420051, 31.256062 ] } },
{ "type": "Feature", "properties": { "Name": "北上海大酒店（市北高新商务中心）", "Ctype": "五星级宾馆", "Ntype": "100102", "Address": "江场西路２７７号", "Telephone": "021-56653333" }, "geometry": { "type": "Point", "coordinates": [ 121.443198, 31.297009 ] } },
{ "type": "Feature", "properties": { "Name": "上海虹口三至喜来登酒店", "Ctype": "五星级宾馆", "Ntype": "100102", "Address": "四平路５９号", "Telephone": "021-26010088|26010099" }, "geometry": { "type": "Point", "coordinates": [ 121.487890151666662, 31.257864637499999 ] } },
{ "type": "Feature", "properties": { "Name": "中环国际酒店", "Ctype": "五星级宾馆", "Ntype": "100102", "Address": "富平路８００号", "Telephone": "021-61815888" }, "geometry": { "type": "Point", "coordinates": [ 121.404565833333322, 31.26700388888889 ] } },
{ "type": "Feature", "properties": { "Name": "上海复旦皇冠假日酒店（西北门）", "Ctype": "五星级宾馆", "Ntype": "100102", "Address": "邯郸路１９９号", "Telephone": null }, "geometry": { "type": "Point", "coordinates": [ 121.501499, 31.295363 ] } },
{ "type": "Feature", "properties": { "Name": "上海虹口三至喜来登酒店（东北门）", "Ctype": "五星级宾馆", "Ntype": "100102", "Address": "四平路５９号", "Telephone": null }, "geometry": { "type": "Point", "coordinates": [ 121.487737, 31.258278 ] } },
{ "type": "Feature", "properties": { "Name": "中环国际酒店（南门）", "Ctype": "五星级宾馆", "Ntype": "100102", "Address": "富平路８７０", "Telephone": null }, "geometry": { "type": "Point", "coordinates": [ 121.4040002375, 31.266373883611109 ] } },
{ "type": "Feature", "properties": { "Name": "上海外滩浦华大酒店", "Ctype": "五星级宾馆", "Ntype": "100102", "Address": "高阳路１６８海轻商务", "Telephone": "021-55589999" }, "geometry": { "type": "Point", "coordinates": [ 121.502803, 31.251267 ] } },
{ "type": "Feature", "properties": { "Name": "上海铭德大酒店", "Ctype": "五星级宾馆", "Ntype": "100102", "Address": "西藏北路５５８号", "Telephone": "021-56720666" }, "geometry": { "type": "Point", "coordinates": [ 121.469857, 31.250633 ] } },
{ "type": "Feature", "properties": { "Name": "上海复旦皇冠假日酒店（东北门）", "Ctype": "五星级宾馆", "Ntype": "100102", "Address": null, "Telephone": null }, "geometry": { "type": "Point", "coordinates": [ 121.502718, 31.295253 ] } },
{ "type": "Feature", "properties": { "Name": "上海法莱德大酒店", "Ctype": "五星级宾馆", "Ntype": "100102", "Address": "逸仙路１６００弄－６１号", "Telephone": "021-66186666" }, "geometry": { "type": "Point", "coordinates": [ 121.483328211666674, 31.324064549166668 ] } },
{ "type": "Feature", "properties": { "Name": "上海法莱德大酒店（北１门）", "Ctype": "五星级宾馆", "Ntype": "100102", "Address": null, "Telephone": null }, "geometry": { "type": "Point", "coordinates": [ 121.483264229444444, 31.324156171666665 ] } },
{ "type": "Feature", "properties": { "Name": "上海明捷万丽酒店", "Ctype": "五星级宾馆", "Ntype": "100102", "Address": "铜川路５０号", "Telephone": "021-22195888" }, "geometry": { "type": "Point", "coordinates": [ 121.420782, 31.256231 ] } },
{ "type": "Feature", "properties": { "Name": "上海宏泉丽笙酒店（东南门）", "Ctype": "五星级宾馆", "Ntype": "100102", "Address": "桃浦路２１０号", "Telephone": null }, "geometry": { "type": "Point", "coordinates": [ 121.398366666666661, 31.260716666666667 ] } },
{ "type": "Feature", "properties": { "Name": "上海大宁福朋喜来登集团酒店", "Ctype": "五星级宾馆", "Ntype": "100102", "Address": "共和新路１９２８号", "Telephone": "021-26022222|26022233" }, "geometry": { "type": "Point", "coordinates": [ 121.452041944444446, 31.273743611111112 ] } },
{ "type": "Feature", "properties": { "Name": "上海宏泉丽笙酒店（东北门）", "Ctype": "五星级宾馆", "Ntype": "100102", "Address": "桃浦路２１０号", "Telephone": null }, "geometry": { "type": "Point", "coordinates": [ 121.398050795555562, 31.261235614722221 ] } },
{ "type": "Feature", "properties": { "Name": "宝御酒店", "Ctype": "五星级宾馆", "Ntype": "100102", "Address": "吴淞路２９９号", "Telephone": "021-63938689" }, "geometry": { "type": "Point", "coordinates": [ 121.489236, 31.24901 ] } },
{ "type": "Feature", "properties": { "Name": "上海宏泉丽笙酒店", "Ctype": "五星级宾馆", "Ntype": "100102", "Address": "桃浦路２１０号", "Telephone": "021-53559999" }, "geometry": { "type": "Point", "coordinates": [ 121.397861111111112, 31.260808333333333 ] } },
{ "type": "Feature", "properties": { "Name": "维也纳国际酒店（西南门）", "Ctype": "五星级宾馆", "Ntype": "100102", "Address": null, "Telephone": null }, "geometry": { "type": "Point", "coordinates": [ 121.466935328055555, 31.401704824166668 ] } },
{ "type": "Feature", "properties": { "Name": "豪生", "Ctype": "五星级宾馆", "Ntype": "100102", "Address": null, "Telephone": "021-51683177" }, "geometry": { "type": "Point", "coordinates": [ 121.45393, 31.393587 ] } },
{ "type": "Feature", "properties": { "Name": "维也纳国际酒店", "Ctype": "五星级宾馆", "Ntype": "100102", "Address": null, "Telephone": null }, "geometry": { "type": "Point", "coordinates": [ 121.466989210833333, 31.401730317777776 ] } },
{ "type": "Feature", "properties": { "Name": "瀛通大酒店", "Ctype": "五星级宾馆", "Ntype": "100102", "Address": "城桥镇北门路１９０", "Telephone": "021-69696969|69698888|59617979" }, "geometry": { "type": "Point", "coordinates": [ 121.397263458055548, 31.627100551944444 ] } },
{ "type": "Feature", "properties": { "Name": "恒悦轩", "Ctype": "五星级宾馆", "Ntype": "100102", "Address": "江帆路３７９号", "Telephone": "021-69699778" }, "geometry": { "type": "Point", "coordinates": [ 121.424531075833329, 31.620293701944444 ] } },
{ "type": "Feature", "properties": { "Name": "上海豪生棕榈滩大酒店", "Ctype": "五星级宾馆", "Ntype": "100102", "Address": "海湾旅游区海鸥路１８８８号", "Telephone": "021-57121777" }, "geometry": { "type": "Point", "coordinates": [ 121.521182183055558, 30.814642740833332 ] } },
{ "type": "Feature", "properties": { "Name": "桔子水晶酒店", "Ctype": "五星级宾馆", "Ntype": "100102", "Address": "康桥路１７８９", "Telephone": "021-60570600" }, "geometry": { "type": "Point", "coordinates": [ 121.586364, 31.150697 ] } },
{ "type": "Feature", "properties": { "Name": "上海浦东绿地假日酒店", "Ctype": "五星级宾馆", "Ntype": "100102", "Address": "秀沿路１０８８号", "Telephone": "021-38291888" }, "geometry": { "type": "Point", "coordinates": [ 121.581372222222228, 31.134930555555556 ] } },
{ "type": "Feature", "properties": { "Name": "上海和平豪生大酒店", "Ctype": "五星级宾馆", "Ntype": "100102", "Address": null, "Telephone": null }, "geometry": { "type": "Point", "coordinates": [ 121.568489, 31.146968 ] } },
{ "type": "Feature", "properties": { "Name": "上海锦江汤臣洲际大酒店（西南门）", "Ctype": "五星级宾馆", "Ntype": "100102", "Address": null, "Telephone": null }, "geometry": { "type": "Point", "coordinates": [ 121.521371806666679, 31.229458064722223 ] } },
{ "type": "Feature", "properties": { "Name": "裕景大饭店（南门）", "Ctype": "五星级宾馆", "Ntype": "100102", "Address": "浦东大道５３５号裕景大饭店", "Telephone": null }, "geometry": { "type": "Point", "coordinates": [ 121.520823, 31.240633 ] } },
{ "type": "Feature", "properties": { "Name": "上海佳友维景大酒店（西北门）", "Ctype": "五星级宾馆", "Ntype": "100102", "Address": "新金桥路１５９", "Telephone": null }, "geometry": { "type": "Point", "coordinates": [ 121.596765, 31.247631 ] } },
{ "type": "Feature", "properties": { "Name": "卓美亚喜玛拉雅酒店（北门）", "Ctype": "五星级宾馆", "Ntype": "100102", "Address": null, "Telephone": null }, "geometry": { "type": "Point", "coordinates": [ 121.561356, 31.21051 ] } },
{ "type": "Feature", "properties": { "Name": "大华锦绣假日酒店", "Ctype": "五星级宾馆", "Ntype": "100102", "Address": "锦尊路３９９", "Telephone": "021-50559888" }, "geometry": { "type": "Point", "coordinates": [ 121.532848, 31.18089 ] } },
{ "type": "Feature", "properties": { "Name": "上海佳友唯景大酒店", "Ctype": "五星级宾馆", "Ntype": "100102", "Address": "新金桥路１５９号", "Telephone": "021-51909000" }, "geometry": { "type": "Point", "coordinates": [ 121.59674, 31.247101 ] } },
{ "type": "Feature", "properties": { "Name": "上海金桥红枫万豪酒店", "Ctype": "五星级宾馆", "Ntype": "100102", "Address": "新金桥路１５号", "Telephone": "021-60368888" }, "geometry": { "type": "Point", "coordinates": [ 121.591653, 31.243935 ] } },
{ "type": "Feature", "properties": { "Name": "张江美居酒店", "Ctype": "五星级宾馆", "Ntype": "100102", "Address": null, "Telephone": null }, "geometry": { "type": "Point", "coordinates": [ 121.591081, 31.185585 ] } },
{ "type": "Feature", "properties": { "Name": "上海明悦大酒店", "Ctype": "五星级宾馆", "Ntype": "100102", "Address": "崮山路５００明悦大厦", "Telephone": "021-50933333" }, "geometry": { "type": "Point", "coordinates": [ 121.556389, 31.242944 ] } },
{ "type": "Feature", "properties": { "Name": "卓美亚喜玛拉雅酒店", "Ctype": "五星级宾馆", "Ntype": "100102", "Address": "梅花路１１０８", "Telephone": "021-38580888" }, "geometry": { "type": "Point", "coordinates": [ 121.561613741666662, 31.210181855277778 ] } },
{ "type": "Feature", "properties": { "Name": "上海浦东嘉里大酒店", "Ctype": "五星级宾馆", "Ntype": "100102", "Address": "花木路１３８８号", "Telephone": "021-61698888" }, "geometry": { "type": "Point", "coordinates": [ 121.563839, 31.213118 ] } },
{ "type": "Feature", "properties": { "Name": "文华东方酒店", "Ctype": "五星级宾馆", "Ntype": "100102", "Address": "浦东南路１１１号", "Telephone": "021-20829988|20829888" }, "geometry": { "type": "Point", "coordinates": [ 121.50741540833333, 31.243576784722222 ] } },
{ "type": "Feature", "properties": { "Name": "喜来登由由酒店", "Ctype": "五星级宾馆", "Ntype": "100102", "Address": "浦建路３８号", "Telephone": "021-50899999" }, "geometry": { "type": "Point", "coordinates": [ 121.518244, 31.208593 ] } },
{ "type": "Feature", "properties": { "Name": "证大丽笙酒店", "Ctype": "五星级宾馆", "Ntype": "100102", "Address": "迎春路１１９９号", "Telephone": "021-51300000" }, "geometry": { "type": "Point", "coordinates": [ 121.560491, 31.226348 ] } },
{ "type": "Feature", "properties": { "Name": "上海柏悦酒店", "Ctype": "五星级宾馆", "Ntype": "100102", "Address": "世纪大道１００号上海环球金融中心７９－９３层", "Telephone": "021-68881234|68883400" }, "geometry": { "type": "Point", "coordinates": [ 121.507491944444453, 31.234328888888889 ] } },
{ "type": "Feature", "properties": { "Name": "东郊宾馆北楼", "Ctype": "五星级宾馆", "Ntype": "100102", "Address": null, "Telephone": "021-58958888" }, "geometry": { "type": "Point", "coordinates": [ 121.592445, 31.225097 ] } },
{ "type": "Feature", "properties": { "Name": "上海世纪皇冠假日酒店世纪厅", "Ctype": "五星级宾馆", "Ntype": "100102", "Address": null, "Telephone": "021-51908888" }, "geometry": { "type": "Point", "coordinates": [ 121.5512, 31.223572 ] } },
{ "type": "Feature", "properties": { "Name": "上海浦东嘉里大酒店（北２门）", "Ctype": "五星级宾馆", "Ntype": "100102", "Address": null, "Telephone": null }, "geometry": { "type": "Point", "coordinates": [ 121.56352, 31.213647 ] } },
{ "type": "Feature", "properties": { "Name": "上海中油阳光大酒店", "Ctype": "五星级宾馆", "Ntype": "100102", "Address": "东方路９６９", "Telephone": "021-68758888" }, "geometry": { "type": "Point", "coordinates": [ 121.528764, 31.22236 ] } },
{ "type": "Feature", "properties": { "Name": "上海浦东嘉里大酒店（北１门）", "Ctype": "五星级宾馆", "Ntype": "100102", "Address": null, "Telephone": null }, "geometry": { "type": "Point", "coordinates": [ 121.5632, 31.213595 ] } },
{ "type": "Feature", "properties": { "Name": "蓝海博龙国际大酒店（东南门）", "Ctype": "五星级宾馆", "Ntype": "100102", "Address": "高科西路２９９１号", "Telephone": null }, "geometry": { "type": "Point", "coordinates": [ 121.561609, 31.189614 ] } },
{ "type": "Feature", "properties": { "Name": "裕景大饭店", "Ctype": "五星级宾馆", "Ntype": "100102", "Address": "浦东大道５３５号", "Telephone": "021-38789888" }, "geometry": { "type": "Point", "coordinates": [ 121.520213, 31.240987 ] } },
{ "type": "Feature", "properties": { "Name": "博雅酒店（西门）", "Ctype": "五星级宾馆", "Ntype": "100102", "Address": null, "Telephone": null }, "geometry": { "type": "Point", "coordinates": [ 121.583987425555549, 31.199369224166666 ] } },
{ "type": "Feature", "properties": { "Name": "上海锦江汤臣洲际大酒店", "Ctype": "五星级宾馆", "Ntype": "100102", "Address": "张杨路７７７号", "Telephone": "021-58356666" }, "geometry": { "type": "Point", "coordinates": [ 121.521924, 31.229666 ] } },
{ "type": "Feature", "properties": { "Name": "卓美亚喜玛拉雅酒店（西门）", "Ctype": "五星级宾馆", "Ntype": "100102", "Address": null, "Telephone": null }, "geometry": { "type": "Point", "coordinates": [ 121.561191, 31.20972 ] } },
{ "type": "Feature", "properties": { "Name": "上海ＪＷ万豪侯爵酒店", "Ctype": "五星级宾馆", "Ntype": "100102", "Address": null, "Telephone": null }, "geometry": { "type": "Point", "coordinates": [ 121.513703, 31.216426 ] } },
{ "type": "Feature", "properties": { "Name": "上海蓝海国际大酒店", "Ctype": "五星级宾馆", "Ntype": "100102", "Address": null, "Telephone": "021-50619999|58911117|58917477" }, "geometry": { "type": "Point", "coordinates": [ 121.561192, 31.190633 ] } },
{ "type": "Feature", "properties": { "Name": "上海东锦江希尔顿逸林酒店（东门）", "Ctype": "五星级宾馆", "Ntype": "100102", "Address": null, "Telephone": null }, "geometry": { "type": "Point", "coordinates": [ 121.534454157222228, 31.210757681111112 ] } },
{ "type": "Feature", "properties": { "Name": "上海锦江汤臣洲际大酒店（东南门）", "Ctype": "五星级宾馆", "Ntype": "100102", "Address": null, "Telephone": null }, "geometry": { "type": "Point", "coordinates": [ 121.521432, 31.229039 ] } },
{ "type": "Feature", "properties": { "Name": "上海东锦江希尔顿逸林酒店辅楼", "Ctype": "五星级宾馆", "Ntype": "100102", "Address": null, "Telephone": "021-50504888" }, "geometry": { "type": "Point", "coordinates": [ 121.53471, 31.210437 ] } },
{ "type": "Feature", "properties": { "Name": "上海东锦江希尔顿逸林酒店东楼", "Ctype": "五星级宾馆", "Ntype": "100102", "Address": null, "Telephone": "021-50504888" }, "geometry": { "type": "Point", "coordinates": [ 121.53554, 31.211094 ] } },
{ "type": "Feature", "properties": { "Name": "上海万和昊美艺术酒店", "Ctype": "五星级宾馆", "Ntype": "100102", "Address": null, "Telephone": "021-20577777" }, "geometry": { "type": "Point", "coordinates": [ 121.62641, 31.212054 ] } },
{ "type": "Feature", "properties": { "Name": "星河湾酒店", "Ctype": "五星级宾馆", "Ntype": "100102", "Address": "锦绣路２５８８号", "Telephone": "021-38929666" }, "geometry": { "type": "Point", "coordinates": [ 121.537476, 31.191778 ] } },
{ "type": "Feature", "properties": { "Name": "四季酒店", "Ctype": "五星级宾馆", "Ntype": "100102", "Address": "世纪大道２１０号", "Telephone": "021-20368888|20368917" }, "geometry": { "type": "Point", "coordinates": [ 121.510049, 31.234172 ] } },
{ "type": "Feature", "properties": { "Name": "开元·曼居酒店", "Ctype": "五星级宾馆", "Ntype": "100102", "Address": "罗山路１６０９号", "Telephone": "021-60753388" }, "geometry": { "type": "Point", "coordinates": [ 121.571617777777789, 31.224916944444445 ] } },
{ "type": "Feature", "properties": { "Name": "博雅酒店", "Ctype": "五星级宾馆", "Ntype": "100102", "Address": "碧波路６９９", "Telephone": "021-61621168" }, "geometry": { "type": "Point", "coordinates": [ 121.584519, 31.199056 ] } },
{ "type": "Feature", "properties": { "Name": "上海东锦江希尔顿逸林酒店西楼", "Ctype": "五星级宾馆", "Ntype": "100102", "Address": null, "Telephone": "021-50504888" }, "geometry": { "type": "Point", "coordinates": [ 121.53397, 31.211053 ] } },
{ "type": "Feature", "properties": { "Name": "上海世博洲际酒店", "Ctype": "五星级宾馆", "Ntype": "100102", "Address": "雪野路１１８８号", "Telephone": "021-38581188" }, "geometry": { "type": "Point", "coordinates": [ 121.505369, 31.198891 ] } },
{ "type": "Feature", "properties": { "Name": "上海东锦江希尔顿逸林酒店", "Ctype": "五星级宾馆", "Ntype": "100102", "Address": "杨高南路８８９号", "Telephone": "021-50504888|50504899" }, "geometry": { "type": "Point", "coordinates": [ 121.533948, 31.211052 ] } },
{ "type": "Feature", "properties": { "Name": "上海金茂君悦大酒店", "Ctype": "五星级宾馆", "Ntype": "100102", "Address": "世纪大道８８号金茂大厦", "Telephone": "021-50491234" }, "geometry": { "type": "Point", "coordinates": [ 121.5058525, 31.234900555555559 ] } },
{ "type": "Feature", "properties": { "Name": "上海大华锦绣假日酒店（西南１门）", "Ctype": "五星级宾馆", "Ntype": "100102", "Address": "锦尊路３９９", "Telephone": null }, "geometry": { "type": "Point", "coordinates": [ 121.532784148611114, 31.18020552222222 ] } },
{ "type": "Feature", "properties": { "Name": "上海柏悦酒店（西南门）", "Ctype": "五星级宾馆", "Ntype": "100102", "Address": "世纪大道１００号", "Telephone": null }, "geometry": { "type": "Point", "coordinates": [ 121.506985081666656, 31.233397203055553 ] } },
{ "type": "Feature", "properties": { "Name": "国信紫金山大酒店", "Ctype": "五星级宾馆", "Ntype": "100102", "Address": "东方路７７８号", "Telephone": "021-68868888" }, "geometry": { "type": "Point", "coordinates": [ 121.523631, 31.227983 ] } },
{ "type": "Feature", "properties": { "Name": "蓝海博龙国际大酒店", "Ctype": "五星级宾馆", "Ntype": "100102", "Address": "高科西路２９９１号", "Telephone": "021-50619999|58911117" }, "geometry": { "type": "Point", "coordinates": [ 121.561325721111103, 31.190096678055557 ] } },
{ "type": "Feature", "properties": { "Name": "上海世纪皇冠假日酒店", "Ctype": "五星级宾馆", "Ntype": "100102", "Address": "民生路１４３３号", "Telephone": "021-51908888" }, "geometry": { "type": "Point", "coordinates": [ 121.551212, 31.223356 ] } },
{ "type": "Feature", "properties": { "Name": "上海世博洲际酒店（西南门）", "Ctype": "五星级宾馆", "Ntype": "100102", "Address": null, "Telephone": null }, "geometry": { "type": "Point", "coordinates": [ 121.50512, 31.198353 ] } },
{ "type": "Feature", "properties": { "Name": "上海世博洲际酒店（东北门）", "Ctype": "五星级宾馆", "Ntype": "100102", "Address": "雪野路１１８８号", "Telephone": null }, "geometry": { "type": "Point", "coordinates": [ 121.505677, 31.199579 ] } },
{ "type": "Feature", "properties": { "Name": "开元·曼居酒店（西南门）", "Ctype": "五星级宾馆", "Ntype": "100102", "Address": "罗山路１６０９号", "Telephone": null }, "geometry": { "type": "Point", "coordinates": [ 121.571144444444442, 31.225163888888886 ] } },
{ "type": "Feature", "properties": { "Name": "上海大华锦绣假日酒店（西南２门）", "Ctype": "五星级宾馆", "Ntype": "100102", "Address": null, "Telephone": null }, "geometry": { "type": "Point", "coordinates": [ 121.532166666666669, 31.181336111111111 ] } },
{ "type": "Feature", "properties": { "Name": "雅客瑞园酒店公寓", "Ctype": "五星级宾馆", "Ntype": "100102", "Address": "浦东大道３号", "Telephone": "021-68881521" }, "geometry": { "type": "Point", "coordinates": [ 121.511068333333341, 31.239920277777777 ] } },
{ "type": "Feature", "properties": { "Name": "上海淳大万丽酒店", "Ctype": "五星级宾馆", "Ntype": "100102", "Address": "联洋新社区长柳路１００号", "Telephone": "021-38714888" }, "geometry": { "type": "Point", "coordinates": [ 121.552266, 31.223783 ] } },
{ "type": "Feature", "properties": { "Name": "远洋宾馆", "Ctype": "五星级宾馆", "Ntype": "100102", "Address": "东大名路１１７１号", "Telephone": "021-65458888" }, "geometry": { "type": "Point", "coordinates": [ 121.510024, 31.252528 ] } },
{ "type": "Feature", "properties": { "Name": "上海兴荣温德姆酒店（西北门）", "Ctype": "五星级宾馆", "Ntype": "100102", "Address": "宁国路２５号", "Telephone": null }, "geometry": { "type": "Point", "coordinates": [ 121.538410850277771, 31.260096465555556 ] } },
{ "type": "Feature", "properties": { "Name": "鹏欣外滩悦榕庄酒店", "Ctype": "五星级宾馆", "Ntype": "100102", "Address": "公平路１９号", "Telephone": "021-25091188" }, "geometry": { "type": "Point", "coordinates": [ 121.506283, 31.249901 ] } },
{ "type": "Feature", "properties": { "Name": "小南国花园酒店", "Ctype": "五星级宾馆", "Ntype": "100102", "Address": "佳木斯路７７７号", "Telephone": "021-25258888|25258878" }, "geometry": { "type": "Point", "coordinates": [ 121.532915, 31.292146944444447 ] } },
{ "type": "Feature", "properties": { "Name": "桔子酒店", "Ctype": "五星级宾馆", "Ntype": "100102", "Address": "东大名路１１９１", "Telephone": "021-61972196" }, "geometry": { "type": "Point", "coordinates": [ 121.510445, 31.252121 ] } },
{ "type": "Feature", "properties": { "Name": "小南国花园酒店（东南门）", "Ctype": "五星级宾馆", "Ntype": "100102", "Address": null, "Telephone": null }, "geometry": { "type": "Point", "coordinates": [ 121.533303843055549, 31.292417426666667 ] } },
{ "type": "Feature", "properties": { "Name": "上海兴荣温德姆酒店", "Ctype": "五星级宾馆", "Ntype": "100102", "Address": "宁国路２５号", "Telephone": "021-65208999" }, "geometry": { "type": "Point", "coordinates": [ 121.539074, 31.259861 ] } },
{ "type": "Feature", "properties": { "Name": "上海兴荣温德姆至尊豪廷酒店", "Ctype": "五星级宾馆", "Ntype": "100102", "Address": "浦东大道２２８８", "Telephone": "021-58526666" }, "geometry": { "type": "Point", "coordinates": [ 121.554728, 31.253532 ] } },
{ "type": "Feature", "properties": { "Name": "上海兴荣温德姆酒店（东北门）", "Ctype": "五星级宾馆", "Ntype": "100102", "Address": null, "Telephone": null }, "geometry": { "type": "Point", "coordinates": [ 121.539567908611104, 31.259865905833333 ] } },
{ "type": "Feature", "properties": { "Name": "上海兴荣温德姆酒店婚宴接待处", "Ctype": "五星级宾馆", "Ntype": "100102", "Address": "杭州路２８６", "Telephone": null }, "geometry": { "type": "Point", "coordinates": [ 121.538759783611113, 31.26009967138889 ] } },
{ "type": "Feature", "properties": { "Name": "富豪金丰酒店", "Ctype": "五星级宾馆", "Ntype": "100102", "Address": "金港路３１８号", "Telephone": "021-58993838" }, "geometry": { "type": "Point", "coordinates": [ 121.611111156944432, 31.254582616388891 ] } },
{ "type": "Feature", "properties": { "Name": "富豪金丰酒店（东北门）", "Ctype": "五星级宾馆", "Ntype": "100102", "Address": "金港路３１８号", "Telephone": null }, "geometry": { "type": "Point", "coordinates": [ 121.611632569444453, 31.254718598333334 ] } },
{ "type": "Feature", "properties": { "Name": "远洋宾馆（西北门）", "Ctype": "五星级宾馆", "Ntype": "100102", "Address": "东大名路１１７１号", "Telephone": null }, "geometry": { "type": "Point", "coordinates": [ 121.509749612222222, 31.252641693055558 ] } },
{ "type": "Feature", "properties": { "Name": "远洋宾馆（东南门）", "Ctype": "五星级宾馆", "Ntype": "100102", "Address": "东大名路１１７１号", "Telephone": null }, "geometry": { "type": "Point", "coordinates": [ 121.510360414166655, 31.251993600277778 ] } },
{ "type": "Feature", "properties": { "Name": "凯悦酒店（上海五角场）", "Ctype": "五星级宾馆", "Ntype": "100102", "Address": null, "Telephone": null }, "geometry": { "type": "Point", "coordinates": [ 121.519131944444439, 31.300492222222221 ] } },
{ "type": "Feature", "properties": { "Name": "上海外高桥皇冠假日酒店（西北１门）", "Ctype": "五星级宾馆", "Ntype": "100102", "Address": "杨高北路１０００号", "Telephone": null }, "geometry": { "type": "Point", "coordinates": [ 121.589696, 31.339061923055556 ] } },
{ "type": "Feature", "properties": { "Name": "上海外高桥喜来登酒店", "Ctype": "五星级宾馆", "Ntype": "100102", "Address": "基隆路２８号", "Telephone": "021-31219999" }, "geometry": { "type": "Point", "coordinates": [ 121.588543, 31.35038 ] } },
{ "type": "Feature", "properties": { "Name": "上海科雅国际大酒店", "Ctype": "五星级宾馆", "Ntype": "100102", "Address": "张杨北路５６５８号", "Telephone": "021-20218825|20218888" }, "geometry": { "type": "Point", "coordinates": [ 121.574661, 31.345585 ] } },
{ "type": "Feature", "properties": { "Name": "上海外高桥皇冠假日酒店（西北２门）", "Ctype": "五星级宾馆", "Ntype": "100102", "Address": "杨高北路１０００号", "Telephone": null }, "geometry": { "type": "Point", "coordinates": [ 121.590372321388898, 31.339313036944446 ] } },
{ "type": "Feature", "properties": { "Name": "上海科雅国际大酒店（西门）", "Ctype": "五星级宾馆", "Ntype": "100102", "Address": null, "Telephone": null }, "geometry": { "type": "Point", "coordinates": [ 121.574106, 31.345524 ] } },
{ "type": "Feature", "properties": { "Name": "上海外高桥皇冠假日酒店", "Ctype": "五星级宾馆", "Ntype": "100102", "Address": "杨高北路１０００号", "Telephone": "021-58621000" }, "geometry": { "type": "Point", "coordinates": [ 121.590610833333344, 31.338945 ] } },
{ "type": "Feature", "properties": { "Name": "丽金大酒店", "Ctype": "五星级宾馆", "Ntype": "100102", "Address": "石笋街１２２", "Telephone": "021-58170337" }, "geometry": { "type": "Point", "coordinates": [ 121.6456632486111, 31.020289171111113 ] } },
{ "type": "Feature", "properties": { "Name": "上海迪士尼乐园酒店（东南门）", "Ctype": "五星级宾馆", "Ntype": "100102", "Address": null, "Telephone": null }, "geometry": { "type": "Point", "coordinates": [ 121.667906944444454, 31.134676944444443 ] } },
{ "type": "Feature", "properties": { "Name": "上海柏思特酒店", "Ctype": "五星级宾馆", "Ntype": "100102", "Address": null, "Telephone": "021-58162288" }, "geometry": { "type": "Point", "coordinates": [ 121.709423, 31.096668 ] } },
{ "type": "Feature", "properties": { "Name": "上海迪士尼乐园酒店", "Ctype": "五星级宾馆", "Ntype": "100102", "Address": "川沙新镇上海迪士尼度假区", "Telephone": "021-60640076|60640075" }, "geometry": { "type": "Point", "coordinates": [ 121.666204722222218, 31.1353875 ] } },
{ "type": "Feature", "properties": { "Name": "上海迪士尼乐园酒店（北门）", "Ctype": "五星级宾馆", "Ntype": "100102", "Address": "川沙新镇上海迪士尼度假区", "Telephone": null }, "geometry": { "type": "Point", "coordinates": [ 121.665579444444447, 31.1362675 ] } },
{ "type": "Feature", "properties": { "Name": "上海迪士尼乐园酒店（南门）", "Ctype": "五星级宾馆", "Ntype": "100102", "Address": "川沙新镇上海迪士尼度假区", "Telephone": null }, "geometry": { "type": "Point", "coordinates": [ 121.666258888888891, 31.133944722222221 ] } },
{ "type": "Feature", "properties": { "Name": "上海皇廷国际大酒店", "Ctype": "五星级宾馆", "Ntype": "100102", "Address": "川沙绣川路９９８号", "Telephone": "021-50509500" }, "geometry": { "type": "Point", "coordinates": [ 121.707669, 31.184618 ] } },
{ "type": "Feature", "properties": { "Name": "洲海花园酒店（东南门）", "Ctype": "五星级宾馆", "Ntype": "100102", "Address": null, "Telephone": null }, "geometry": { "type": "Point", "coordinates": [ 121.630329, 31.320646 ] } },
{ "type": "Feature", "properties": { "Name": "洲海花园酒店", "Ctype": "五星级宾馆", "Ntype": "100102", "Address": "洲海路２７７７号", "Telephone": "021-58482777" }, "geometry": { "type": "Point", "coordinates": [ 121.629689, 31.320918 ] } },
{ "type": "Feature", "properties": { "Name": "上海宝龙丽笙酒店", "Ctype": "五星级宾馆", "Ntype": "100102", "Address": "金海路２４４９弄２号", "Telephone": "021-20537666" }, "geometry": { "type": "Point", "coordinates": [ 121.650169, 31.265653 ] } },
{ "type": "Feature", "properties": { "Name": "崇明金茂凯悦酒店", "Ctype": "五星级宾馆", "Ntype": "100102", "Address": "陈家镇揽海路７９９号", "Telephone": "021-67031234" }, "geometry": { "type": "Point", "coordinates": [ 121.799751790277767, 31.464870334166665 ] } },
{ "type": "Feature", "properties": { "Name": "东滩国际会议中心", "Ctype": "五星级宾馆", "Ntype": "100102", "Address": null, "Telephone": "021-69477888|69477363" }, "geometry": { "type": "Point", "coordinates": [ 121.878703, 31.450865 ] } },
{ "type": "Feature", "properties": { "Name": "崇明金茂凯悦酒店（东北门）", "Ctype": "五星级宾馆", "Ntype": "100102", "Address": "陈家镇揽海路７９９号崇明金茂凯悦酒店", "Telephone": null }, "geometry": { "type": "Point", "coordinates": [ 121.79991861972222, 31.467198079444444 ] } },
{ "type": "Feature", "properties": { "Name": "上海滴水湖皇冠假日酒店", "Ctype": "五星级宾馆", "Ntype": "100102", "Address": "临港新城南岛１号", "Telephone": "021-20339999" }, "geometry": { "type": "Point", "coordinates": [ 121.937213888888877, 30.890827777777776 ] } }
]
}
