{
"type": "FeatureCollection",
"crs": { "type": "name", "properties": { "name": "urn:ogc:def:crs:OGC:1.3:CRS84" } },
"features": [
{ "type": "Feature", "properties": { "Name": "南许", "Ctype": "村庄级地名", "Ntype": "190108", "Address": null, "Telephone": null }, "geometry": { "type": "Point", "coordinates": [ 120.870274251388892, 31.102436252222223 ] } },
{ "type": "Feature", "properties": { "Name": "车路扇", "Ctype": "村庄级地名", "Ntype": "190108", "Address": null, "Telephone": null }, "geometry": { "type": "Point", "coordinates": [ 120.876606716666672, 31.10574517138889 ] } },
{ "type": "Feature", "properties": { "Name": "南车村", "Ctype": "村庄级地名", "Ntype": "190108", "Address": null, "Telephone": null }, "geometry": { "type": "Point", "coordinates": [ 120.875092502222216, 31.104109158055557 ] } },
{ "type": "Feature", "properties": { "Name": "梨尖圩", "Ctype": "村庄级地名", "Ntype": "190108", "Address": null, "Telephone": null }, "geometry": { "type": "Point", "coordinates": [ 120.874072536944439, 31.117842881944444 ] } },
{ "type": "Feature", "properties": { "Name": "沙港村", "Ctype": "村庄级地名", "Ntype": "190108", "Address": null, "Telephone": null }, "geometry": { "type": "Point", "coordinates": [ 120.878225640277776, 31.118940429722223 ] } },
{ "type": "Feature", "properties": { "Name": "乌字圩", "Ctype": "村庄级地名", "Ntype": "190108", "Address": null, "Telephone": null }, "geometry": { "type": "Point", "coordinates": [ 120.864359266388902, 31.101905110555556 ] } },
{ "type": "Feature", "properties": { "Name": "南新村", "Ctype": "村庄级地名", "Ntype": "190108", "Address": null, "Telephone": null }, "geometry": { "type": "Point", "coordinates": [ 120.875082465277771, 31.103702528333333 ] } },
{ "type": "Feature", "properties": { "Name": "新罗村", "Ctype": "村庄级地名", "Ntype": "190108", "Address": null, "Telephone": null }, "geometry": { "type": "Point", "coordinates": [ 120.865940212777772, 31.107980143333336 ] } },
{ "type": "Feature", "properties": { "Name": "陆家湾", "Ctype": "村庄级地名", "Ntype": "190108", "Address": null, "Telephone": null }, "geometry": { "type": "Point", "coordinates": [ 120.867095540277774, 31.108894043055557 ] } },
{ "type": "Feature", "properties": { "Name": "朱家浜", "Ctype": "村庄级地名", "Ntype": "190108", "Address": null, "Telephone": null }, "geometry": { "type": "Point", "coordinates": [ 120.876720106388888, 31.121738552499998 ] } },
{ "type": "Feature", "properties": { "Name": "芦青湾", "Ctype": "村庄级地名", "Ntype": "190108", "Address": null, "Telephone": null }, "geometry": { "type": "Point", "coordinates": [ 120.877439236111115, 31.110499945833332 ] } },
{ "type": "Feature", "properties": { "Name": "姚下", "Ctype": "村庄级地名", "Ntype": "190108", "Address": null, "Telephone": null }, "geometry": { "type": "Point", "coordinates": [ 120.995862358888886, 30.827491319444444 ] } },
{ "type": "Feature", "properties": { "Name": "魏家埭", "Ctype": "村庄级地名", "Ntype": "190108", "Address": null, "Telephone": null }, "geometry": { "type": "Point", "coordinates": [ 120.994931369444444, 30.82904025611111 ] } },
{ "type": "Feature", "properties": { "Name": "泾塘村", "Ctype": "村庄级地名", "Ntype": "190108", "Address": null, "Telephone": null }, "geometry": { "type": "Point", "coordinates": [ 121.001752929722215, 30.829995388333334 ] } },
{ "type": "Feature", "properties": { "Name": "周家宅基", "Ctype": "村庄级地名", "Ntype": "190108", "Address": null, "Telephone": null }, "geometry": { "type": "Point", "coordinates": [ 120.991559244722225, 30.829914821944442 ] } },
{ "type": "Feature", "properties": { "Name": "新春村", "Ctype": "村庄级地名", "Ntype": "190108", "Address": null, "Telephone": null }, "geometry": { "type": "Point", "coordinates": [ 121.001709166666657, 30.893274722222223 ] } },
{ "type": "Feature", "properties": { "Name": "汤胡浜", "Ctype": "村庄级地名", "Ntype": "190108", "Address": null, "Telephone": null }, "geometry": { "type": "Point", "coordinates": [ 121.001650390555554, 30.899284939166666 ] } },
{ "type": "Feature", "properties": { "Name": "陆华港", "Ctype": "村庄级地名", "Ntype": "190108", "Address": null, "Telephone": null }, "geometry": { "type": "Point", "coordinates": [ 120.995146484444447, 30.83466607 ] } },
{ "type": "Feature", "properties": { "Name": "卫家埭", "Ctype": "村庄级地名", "Ntype": "190108", "Address": null, "Telephone": null }, "geometry": { "type": "Point", "coordinates": [ 120.999894166666664, 30.835155833333335 ] } },
{ "type": "Feature", "properties": { "Name": "石家浜", "Ctype": "村庄级地名", "Ntype": "190108", "Address": null, "Telephone": null }, "geometry": { "type": "Point", "coordinates": [ 120.995948350833331, 30.89396267361111 ] } },
{ "type": "Feature", "properties": { "Name": "千泾浜", "Ctype": "村庄级地名", "Ntype": "190108", "Address": null, "Telephone": null }, "geometry": { "type": "Point", "coordinates": [ 120.998687608611107, 30.839662543333333 ] } },
{ "type": "Feature", "properties": { "Name": "荡和浜", "Ctype": "村庄级地名", "Ntype": "190108", "Address": null, "Telephone": null }, "geometry": { "type": "Point", "coordinates": [ 121.002991388888887, 30.896809166666667 ] } },
{ "type": "Feature", "properties": { "Name": "腰泾", "Ctype": "村庄级地名", "Ntype": "190108", "Address": null, "Telephone": null }, "geometry": { "type": "Point", "coordinates": [ 121.001220160555562, 30.966186252222222 ] } },
{ "type": "Feature", "properties": { "Name": "旺郁", "Ctype": "村庄级地名", "Ntype": "190108", "Address": null, "Telephone": null }, "geometry": { "type": "Point", "coordinates": [ 121.002298177222229, 30.915589735277777 ] } },
{ "type": "Feature", "properties": { "Name": "重上圩", "Ctype": "村庄级地名", "Ntype": "190108", "Address": null, "Telephone": null }, "geometry": { "type": "Point", "coordinates": [ 120.999770779166667, 30.985752224444443 ] } },
{ "type": "Feature", "properties": { "Name": "长河村", "Ctype": "村庄级地名", "Ntype": "190108", "Address": null, "Telephone": null }, "geometry": { "type": "Point", "coordinates": [ 121.001859809166675, 30.958391384444443 ] } },
{ "type": "Feature", "properties": { "Name": "唐家草", "Ctype": "村庄级地名", "Ntype": "190108", "Address": null, "Telephone": null }, "geometry": { "type": "Point", "coordinates": [ 120.999533148888887, 30.954363064166667 ] } },
{ "type": "Feature", "properties": { "Name": "双园村", "Ctype": "村庄级地名", "Ntype": "190108", "Address": null, "Telephone": null }, "geometry": { "type": "Point", "coordinates": [ 121.001695963611112, 30.943075086944447 ] } },
{ "type": "Feature", "properties": { "Name": "洪泾浜", "Ctype": "村庄级地名", "Ntype": "190108", "Address": null, "Telephone": null }, "geometry": { "type": "Point", "coordinates": [ 121.00267795138889, 30.920756835833334 ] } },
{ "type": "Feature", "properties": { "Name": "长塘村", "Ctype": "村庄级地名", "Ntype": "190108", "Address": null, "Telephone": null }, "geometry": { "type": "Point", "coordinates": [ 121.003375277777778, 30.959323611111113 ] } },
{ "type": "Feature", "properties": { "Name": "西蔡", "Ctype": "村庄级地名", "Ntype": "190108", "Address": null, "Telephone": null }, "geometry": { "type": "Point", "coordinates": [ 120.942674967499997, 31.07154513888889 ] } },
{ "type": "Feature", "properties": { "Name": "港湾", "Ctype": "村庄级地名", "Ntype": "190108", "Address": null, "Telephone": null }, "geometry": { "type": "Point", "coordinates": [ 120.91586371527778, 31.042294921944446 ] } },
{ "type": "Feature", "properties": { "Name": "沈家圩", "Ctype": "村庄级地名", "Ntype": "190108", "Address": null, "Telephone": null }, "geometry": { "type": "Point", "coordinates": [ 120.909090983055549, 31.055518663333334 ] } },
{ "type": "Feature", "properties": { "Name": "西张港", "Ctype": "村庄级地名", "Ntype": "190108", "Address": null, "Telephone": null }, "geometry": { "type": "Point", "coordinates": [ 120.928560112777774, 31.067443576388889 ] } },
{ "type": "Feature", "properties": { "Name": "龚潭村", "Ctype": "村庄级地名", "Ntype": "190108", "Address": null, "Telephone": null }, "geometry": { "type": "Point", "coordinates": [ 120.970239529166676, 31.031524251388891 ] } },
{ "type": "Feature", "properties": { "Name": "祝家湾", "Ctype": "村庄级地名", "Ntype": "190108", "Address": null, "Telephone": null }, "geometry": { "type": "Point", "coordinates": [ 120.988897569444447, 31.076379665833333 ] } },
{ "type": "Feature", "properties": { "Name": "厍圩", "Ctype": "村庄级地名", "Ntype": "190108", "Address": null, "Telephone": null }, "geometry": { "type": "Point", "coordinates": [ 120.957369791666665, 31.040552842777778 ] } },
{ "type": "Feature", "properties": { "Name": "东圩", "Ctype": "村庄级地名", "Ntype": "190108", "Address": null, "Telephone": null }, "geometry": { "type": "Point", "coordinates": [ 120.954391547222215, 31.040396864166667 ] } },
{ "type": "Feature", "properties": { "Name": "龚都村", "Ctype": "村庄级地名", "Ntype": "190108", "Address": null, "Telephone": null }, "geometry": { "type": "Point", "coordinates": [ 120.967193196666656, 31.037436794722222 ] } },
{ "type": "Feature", "properties": { "Name": "北月圩", "Ctype": "村庄级地名", "Ntype": "190108", "Address": null, "Telephone": null }, "geometry": { "type": "Point", "coordinates": [ 120.917143012222226, 31.019662543333332 ] } },
{ "type": "Feature", "properties": { "Name": "谢家湾", "Ctype": "村庄级地名", "Ntype": "190108", "Address": null, "Telephone": null }, "geometry": { "type": "Point", "coordinates": [ 120.924466959722224, 31.029488932222222 ] } },
{ "type": "Feature", "properties": { "Name": "港都村", "Ctype": "村庄级地名", "Ntype": "190108", "Address": null, "Telephone": null }, "geometry": { "type": "Point", "coordinates": [ 120.965765516388899, 31.037932671388887 ] } },
{ "type": "Feature", "properties": { "Name": "钱盛", "Ctype": "村庄级地名", "Ntype": "190108", "Address": null, "Telephone": null }, "geometry": { "type": "Point", "coordinates": [ 120.981888563333342, 31.023471950833333 ] } },
{ "type": "Feature", "properties": { "Name": "三塘村", "Ctype": "村庄级地名", "Ntype": "190108", "Address": null, "Telephone": null }, "geometry": { "type": "Point", "coordinates": [ 120.967747667222213, 31.079637586944447 ] } },
{ "type": "Feature", "properties": { "Name": "卢田浜", "Ctype": "村庄级地名", "Ntype": "190108", "Address": null, "Telephone": null }, "geometry": { "type": "Point", "coordinates": [ 120.913634982777779, 31.025102267777779 ] } },
{ "type": "Feature", "properties": { "Name": "河祝村", "Ctype": "村庄级地名", "Ntype": "190108", "Address": null, "Telephone": null }, "geometry": { "type": "Point", "coordinates": [ 120.9909206813889, 31.080747884166666 ] } },
{ "type": "Feature", "properties": { "Name": "林家圩", "Ctype": "村庄级地名", "Ntype": "190108", "Address": null, "Telephone": null }, "geometry": { "type": "Point", "coordinates": [ 120.952013346388881, 31.067544216666668 ] } },
{ "type": "Feature", "properties": { "Name": "李红村", "Ctype": "村庄级地名", "Ntype": "190108", "Address": null, "Telephone": null }, "geometry": { "type": "Point", "coordinates": [ 120.930912543333335, 31.019633517777777 ] } },
{ "type": "Feature", "properties": { "Name": "东西村", "Ctype": "村庄级地名", "Ntype": "190108", "Address": null, "Telephone": null }, "geometry": { "type": "Point", "coordinates": [ 120.940270453611106, 31.036940646666665 ] } },
{ "type": "Feature", "properties": { "Name": "西湾", "Ctype": "村庄级地名", "Ntype": "190108", "Address": null, "Telephone": null }, "geometry": { "type": "Point", "coordinates": [ 120.90468695749999, 31.04122938361111 ] } },
{ "type": "Feature", "properties": { "Name": "塘湾浜", "Ctype": "村庄级地名", "Ntype": "190108", "Address": null, "Telephone": null }, "geometry": { "type": "Point", "coordinates": [ 120.923964843888896, 31.042500271388889 ] } },
{ "type": "Feature", "properties": { "Name": "腊字圩", "Ctype": "村庄级地名", "Ntype": "190108", "Address": null, "Telephone": null }, "geometry": { "type": "Point", "coordinates": [ 120.910054524722213, 31.049876302222224 ] } },
{ "type": "Feature", "properties": { "Name": "陈道浜", "Ctype": "村庄级地名", "Ntype": "190108", "Address": null, "Telephone": null }, "geometry": { "type": "Point", "coordinates": [ 120.916293402777782, 31.035374077777778 ] } },
{ "type": "Feature", "properties": { "Name": "杨湾村", "Ctype": "村庄级地名", "Ntype": "190108", "Address": null, "Telephone": null }, "geometry": { "type": "Point", "coordinates": [ 120.90324734166667, 31.04849745 ] } },
{ "type": "Feature", "properties": { "Name": "小朝长圩", "Ctype": "村庄级地名", "Ntype": "190108", "Address": null, "Telephone": null }, "geometry": { "type": "Point", "coordinates": [ 120.938520779166666, 31.056836751388889 ] } },
{ "type": "Feature", "properties": { "Name": "西岑砖瓦厂", "Ctype": "村庄级地名", "Ntype": "190108", "Address": null, "Telephone": null }, "geometry": { "type": "Point", "coordinates": [ 120.984822591111126, 31.06798801 ] } },
{ "type": "Feature", "properties": { "Name": "立夏圩", "Ctype": "村庄级地名", "Ntype": "190108", "Address": null, "Telephone": null }, "geometry": { "type": "Point", "coordinates": [ 120.925755750833346, 31.055746256388886 ] } },
{ "type": "Feature", "properties": { "Name": "西圩", "Ctype": "村庄级地名", "Ntype": "190108", "Address": null, "Telephone": null }, "geometry": { "type": "Point", "coordinates": [ 120.947942979722214, 31.044771050277777 ] } },
{ "type": "Feature", "properties": { "Name": "团结村", "Ctype": "村庄级地名", "Ntype": "190108", "Address": null, "Telephone": null }, "geometry": { "type": "Point", "coordinates": [ 120.916319173055555, 31.0414463975 ] } },
{ "type": "Feature", "properties": { "Name": "育坪村", "Ctype": "村庄级地名", "Ntype": "190108", "Address": null, "Telephone": null }, "geometry": { "type": "Point", "coordinates": [ 120.980381401944442, 31.079211968333333 ] } },
{ "type": "Feature", "properties": { "Name": "生堂圩", "Ctype": "村庄级地名", "Ntype": "190108", "Address": null, "Telephone": null }, "geometry": { "type": "Point", "coordinates": [ 120.937750379722232, 31.066041124166667 ] } },
{ "type": "Feature", "properties": { "Name": "湾塘", "Ctype": "村庄级地名", "Ntype": "190108", "Address": null, "Telephone": null }, "geometry": { "type": "Point", "coordinates": [ 120.926146104722221, 31.039605306111113 ] } },
{ "type": "Feature", "properties": { "Name": "泥潭村", "Ctype": "村庄级地名", "Ntype": "190108", "Address": null, "Telephone": null }, "geometry": { "type": "Point", "coordinates": [ 120.970348578611109, 31.031347385 ] } },
{ "type": "Feature", "properties": { "Name": "岑卜村", "Ctype": "村庄级地名", "Ntype": "190108", "Address": null, "Telephone": null }, "geometry": { "type": "Point", "coordinates": [ 120.942486436666655, 31.059083116388891 ] } },
{ "type": "Feature", "properties": { "Name": "荷花池", "Ctype": "村庄级地名", "Ntype": "190108", "Address": null, "Telephone": null }, "geometry": { "type": "Point", "coordinates": [ 120.959849989166671, 31.070779622500002 ] } },
{ "type": "Feature", "properties": { "Name": "东天村", "Ctype": "村庄级地名", "Ntype": "190108", "Address": null, "Telephone": null }, "geometry": { "type": "Point", "coordinates": [ 120.987999403333333, 31.049266764444447 ] } },
{ "type": "Feature", "properties": { "Name": "南岑村", "Ctype": "村庄级地名", "Ntype": "190108", "Address": null, "Telephone": null }, "geometry": { "type": "Point", "coordinates": [ 120.953122287222229, 31.072393391944445 ] } },
{ "type": "Feature", "properties": { "Name": "西旺", "Ctype": "村庄级地名", "Ntype": "190108", "Address": null, "Telephone": null }, "geometry": { "type": "Point", "coordinates": [ 120.94313096777779, 31.071517198333332 ] } },
{ "type": "Feature", "properties": { "Name": "淀城村", "Ctype": "村庄级地名", "Ntype": "190108", "Address": null, "Telephone": null }, "geometry": { "type": "Point", "coordinates": [ 120.966503635, 31.040623372500001 ] } },
{ "type": "Feature", "properties": { "Name": "新池家港", "Ctype": "村庄级地名", "Ntype": "190108", "Address": null, "Telephone": null }, "geometry": { "type": "Point", "coordinates": [ 120.915436740555549, 31.020898437500001 ] } },
{ "type": "Feature", "properties": { "Name": "东夹港", "Ctype": "村庄级地名", "Ntype": "190108", "Address": null, "Telephone": null }, "geometry": { "type": "Point", "coordinates": [ 120.969309895833334, 31.036990288611111 ] } },
{ "type": "Feature", "properties": { "Name": "建国村", "Ctype": "村庄级地名", "Ntype": "190108", "Address": null, "Telephone": null }, "geometry": { "type": "Point", "coordinates": [ 120.918711480000013, 31.051210395 ] } },
{ "type": "Feature", "properties": { "Name": "张家路村", "Ctype": "村庄级地名", "Ntype": "190108", "Address": null, "Telephone": null }, "geometry": { "type": "Point", "coordinates": [ 120.958778483055553, 31.078021375833334 ] } },
{ "type": "Feature", "properties": { "Name": "王田村", "Ctype": "村庄级地名", "Ntype": "190108", "Address": null, "Telephone": null }, "geometry": { "type": "Point", "coordinates": [ 120.977193739166665, 31.068027615 ] } },
{ "type": "Feature", "properties": { "Name": "徐李村", "Ctype": "村庄级地名", "Ntype": "190108", "Address": null, "Telephone": null }, "geometry": { "type": "Point", "coordinates": [ 120.929862738611121, 31.019447157222224 ] } },
{ "type": "Feature", "properties": { "Name": "南旺圩", "Ctype": "村庄级地名", "Ntype": "190108", "Address": null, "Telephone": null }, "geometry": { "type": "Point", "coordinates": [ 120.905986599444446, 31.021320529444445 ] } },
{ "type": "Feature", "properties": { "Name": "北任村", "Ctype": "村庄级地名", "Ntype": "190108", "Address": null, "Telephone": null }, "geometry": { "type": "Point", "coordinates": [ 120.963833550277784, 31.051773817222223 ] } },
{ "type": "Feature", "properties": { "Name": "深田材", "Ctype": "村庄级地名", "Ntype": "190108", "Address": null, "Telephone": null }, "geometry": { "type": "Point", "coordinates": [ 120.983865831111117, 31.060643175 ] } },
{ "type": "Feature", "properties": { "Name": "高许村", "Ctype": "村庄级地名", "Ntype": "190108", "Address": null, "Telephone": null }, "geometry": { "type": "Point", "coordinates": [ 120.998564724444435, 31.038748643611111 ] } },
{ "type": "Feature", "properties": { "Name": "孙家垛", "Ctype": "村庄级地名", "Ntype": "190108", "Address": null, "Telephone": null }, "geometry": { "type": "Point", "coordinates": [ 120.966857638888882, 31.040713161944446 ] } },
{ "type": "Feature", "properties": { "Name": "龚家庄", "Ctype": "村庄级地名", "Ntype": "190108", "Address": null, "Telephone": null }, "geometry": { "type": "Point", "coordinates": [ 120.968640679166668, 31.02306369361111 ] } },
{ "type": "Feature", "properties": { "Name": "西全圩", "Ctype": "村庄级地名", "Ntype": "190108", "Address": null, "Telephone": null }, "geometry": { "type": "Point", "coordinates": [ 120.936241319444449, 31.04873318138889 ] } },
{ "type": "Feature", "properties": { "Name": "莲渔村", "Ctype": "村庄级地名", "Ntype": "190108", "Address": null, "Telephone": null }, "geometry": { "type": "Point", "coordinates": [ 120.982207031388896, 31.047936198055556 ] } },
{ "type": "Feature", "properties": { "Name": "淀湖村", "Ctype": "村庄级地名", "Ntype": "190108", "Address": null, "Telephone": null }, "geometry": { "type": "Point", "coordinates": [ 120.943818088055565, 31.072338867222221 ] } },
{ "type": "Feature", "properties": { "Name": "李家圩", "Ctype": "村庄级地名", "Ntype": "190108", "Address": null, "Telephone": null }, "geometry": { "type": "Point", "coordinates": [ 120.930474717777784, 31.02013834638889 ] } },
{ "type": "Feature", "properties": { "Name": "南洋村", "Ctype": "村庄级地名", "Ntype": "190108", "Address": null, "Telephone": null }, "geometry": { "type": "Point", "coordinates": [ 121.000713704444451, 31.031154785277778 ] } },
{ "type": "Feature", "properties": { "Name": "爱国村", "Ctype": "村庄级地名", "Ntype": "190108", "Address": null, "Telephone": null }, "geometry": { "type": "Point", "coordinates": [ 121.001884765555559, 31.040754665833333 ] } },
{ "type": "Feature", "properties": { "Name": "老姚簖", "Ctype": "村庄级地名", "Ntype": "190108", "Address": null, "Telephone": null }, "geometry": { "type": "Point", "coordinates": [ 120.918432074722219, 31.060235731388889 ] } },
{ "type": "Feature", "properties": { "Name": "钱盛西村", "Ctype": "村庄级地名", "Ntype": "190108", "Address": null, "Telephone": null }, "geometry": { "type": "Point", "coordinates": [ 120.981051974722234, 31.021824815555554 ] } },
{ "type": "Feature", "properties": { "Name": "田山村", "Ctype": "村庄级地名", "Ntype": "190108", "Address": null, "Telephone": null }, "geometry": { "type": "Point", "coordinates": [ 120.957629123333334, 31.052863498333334 ] } },
{ "type": "Feature", "properties": { "Name": "西岑村", "Ctype": "村庄级地名", "Ntype": "190108", "Address": null, "Telephone": null }, "geometry": { "type": "Point", "coordinates": [ 120.960758463611114, 31.071960178055555 ] } },
{ "type": "Feature", "properties": { "Name": "田山庄村", "Ctype": "村庄级地名", "Ntype": "190108", "Address": null, "Telephone": null }, "geometry": { "type": "Point", "coordinates": [ 120.954361979166663, 31.051787109444444 ] } },
{ "type": "Feature", "properties": { "Name": "田北厅", "Ctype": "村庄级地名", "Ntype": "190108", "Address": null, "Telephone": null }, "geometry": { "type": "Point", "coordinates": [ 120.928642306944454, 31.041362847222221 ] } },
{ "type": "Feature", "properties": { "Name": "金姚村", "Ctype": "村庄级地名", "Ntype": "190108", "Address": null, "Telephone": null }, "geometry": { "type": "Point", "coordinates": [ 120.921971617499992, 31.063899382222221 ] } },
{ "type": "Feature", "properties": { "Name": "朱舍村", "Ctype": "村庄级地名", "Ntype": "190108", "Address": null, "Telephone": null }, "geometry": { "type": "Point", "coordinates": [ 120.998624945833342, 31.051962619444446 ] } },
{ "type": "Feature", "properties": { "Name": "育田村", "Ctype": "村庄级地名", "Ntype": "190108", "Address": null, "Telephone": null }, "geometry": { "type": "Point", "coordinates": [ 120.978109266388898, 31.068574761388891 ] } },
{ "type": "Feature", "properties": { "Name": "徐联村", "Ctype": "村庄级地名", "Ntype": "190108", "Address": null, "Telephone": null }, "geometry": { "type": "Point", "coordinates": [ 120.937430826944436, 31.021690809444443 ] } },
{ "type": "Feature", "properties": { "Name": "金泽港", "Ctype": "村庄级地名", "Ntype": "190108", "Address": null, "Telephone": null }, "geometry": { "type": "Point", "coordinates": [ 120.920829535555569, 31.066734754722223 ] } },
{ "type": "Feature", "properties": { "Name": "钱盛村", "Ctype": "村庄级地名", "Ntype": "190108", "Address": null, "Telephone": null }, "geometry": { "type": "Point", "coordinates": [ 120.983756510555551, 31.024795193055557 ] } },
{ "type": "Feature", "properties": { "Name": "蔡巷村", "Ctype": "村庄级地名", "Ntype": "190108", "Address": null, "Telephone": null }, "geometry": { "type": "Point", "coordinates": [ 120.949411349722226, 31.071390516388888 ] } },
{ "type": "Feature", "properties": { "Name": "小坪村", "Ctype": "村庄级地名", "Ntype": "190108", "Address": null, "Telephone": null }, "geometry": { "type": "Point", "coordinates": [ 120.983553331111111, 31.072390408055558 ] } },
{ "type": "Feature", "properties": { "Name": "大丰村", "Ctype": "村庄级地名", "Ntype": "190108", "Address": null, "Telephone": null }, "geometry": { "type": "Point", "coordinates": [ 120.928187934166672, 31.047188585 ] } },
{ "type": "Feature", "properties": { "Name": "高字圩", "Ctype": "村庄级地名", "Ntype": "190108", "Address": null, "Telephone": null }, "geometry": { "type": "Point", "coordinates": [ 121.003235948333327, 31.016076931388888 ] } },
{ "type": "Feature", "properties": { "Name": "天任庄", "Ctype": "村庄级地名", "Ntype": "190108", "Address": null, "Telephone": null }, "geometry": { "type": "Point", "coordinates": [ 120.984975043333336, 31.054170464444443 ] } },
{ "type": "Feature", "properties": { "Name": "东岑村", "Ctype": "村庄级地名", "Ntype": "190108", "Address": null, "Telephone": null }, "geometry": { "type": "Point", "coordinates": [ 120.986270887499998, 31.05578423388889 ] } },
{ "type": "Feature", "properties": { "Name": "南乃圩", "Ctype": "村庄级地名", "Ntype": "190108", "Address": null, "Telephone": null }, "geometry": { "type": "Point", "coordinates": [ 120.917331000555549, 31.056751030833333 ] } },
{ "type": "Feature", "properties": { "Name": "岑庄", "Ctype": "村庄级地名", "Ntype": "190108", "Address": null, "Telephone": null }, "geometry": { "type": "Point", "coordinates": [ 120.940960286388886, 31.057706163333336 ] } },
{ "type": "Feature", "properties": { "Name": "新姚簖", "Ctype": "村庄级地名", "Ntype": "190108", "Address": null, "Telephone": null }, "geometry": { "type": "Point", "coordinates": [ 120.927089843888893, 31.062133246666669 ] } },
{ "type": "Feature", "properties": { "Name": "大圩", "Ctype": "村庄级地名", "Ntype": "190108", "Address": null, "Telephone": null }, "geometry": { "type": "Point", "coordinates": [ 120.98856743694445, 31.062942979722223 ] } },
{ "type": "Feature", "properties": { "Name": "蔡舍村", "Ctype": "村庄级地名", "Ntype": "190108", "Address": null, "Telephone": null }, "geometry": { "type": "Point", "coordinates": [ 121.002588704444449, 31.045307617222221 ] } },
{ "type": "Feature", "properties": { "Name": "莫家圩", "Ctype": "村庄级地名", "Ntype": "190108", "Address": null, "Telephone": null }, "geometry": { "type": "Point", "coordinates": [ 120.969386393333323, 31.017877604166667 ] } },
{ "type": "Feature", "properties": { "Name": "钱盛东村", "Ctype": "村庄级地名", "Ntype": "190108", "Address": null, "Telephone": null }, "geometry": { "type": "Point", "coordinates": [ 120.986423611111107, 31.022318522222221 ] } },
{ "type": "Feature", "properties": { "Name": "俞家浜", "Ctype": "村庄级地名", "Ntype": "190108", "Address": null, "Telephone": null }, "geometry": { "type": "Point", "coordinates": [ 120.921806911944444, 31.046787923055554 ] } },
{ "type": "Feature", "properties": { "Name": "钱家堂", "Ctype": "村庄级地名", "Ntype": "190108", "Address": null, "Telephone": null }, "geometry": { "type": "Point", "coordinates": [ 120.940440538333334, 31.049226616666665 ] } },
{ "type": "Feature", "properties": { "Name": "斜河田", "Ctype": "村庄级地名", "Ntype": "190108", "Address": null, "Telephone": null }, "geometry": { "type": "Point", "coordinates": [ 120.917160644444436, 31.052664388055558 ] } },
{ "type": "Feature", "properties": { "Name": "老池家港", "Ctype": "村庄级地名", "Ntype": "190108", "Address": null, "Telephone": null }, "geometry": { "type": "Point", "coordinates": [ 120.910044216666677, 31.019657118055555 ] } },
{ "type": "Feature", "properties": { "Name": "陈国舍", "Ctype": "村庄级地名", "Ntype": "190108", "Address": null, "Telephone": null }, "geometry": { "type": "Point", "coordinates": [ 120.933352864722224, 31.067756347777777 ] } },
{ "type": "Feature", "properties": { "Name": "金泽村", "Ctype": "村庄级地名", "Ntype": "190108", "Address": null, "Telephone": null }, "geometry": { "type": "Point", "coordinates": [ 120.917831217499995, 31.035983615555555 ] } },
{ "type": "Feature", "properties": { "Name": "任屯村", "Ctype": "村庄级地名", "Ntype": "190108", "Address": null, "Telephone": null }, "geometry": { "type": "Point", "coordinates": [ 120.973800998333331, 31.045655381944446 ] } },
{ "type": "Feature", "properties": { "Name": "泥墙头", "Ctype": "村庄级地名", "Ntype": "190108", "Address": null, "Telephone": null }, "geometry": { "type": "Point", "coordinates": [ 120.979507378611117, 31.055906033055557 ] } },
{ "type": "Feature", "properties": { "Name": "徐家湾", "Ctype": "村庄级地名", "Ntype": "190108", "Address": null, "Telephone": null }, "geometry": { "type": "Point", "coordinates": [ 120.935387369722221, 31.020827908055555 ] } },
{ "type": "Feature", "properties": { "Name": "陈港村", "Ctype": "村庄级地名", "Ntype": "190108", "Address": null, "Telephone": null }, "geometry": { "type": "Point", "coordinates": [ 120.93336588555556, 31.068548719722223 ] } },
{ "type": "Feature", "properties": { "Name": "新池村", "Ctype": "村庄级地名", "Ntype": "190108", "Address": null, "Telephone": null }, "geometry": { "type": "Point", "coordinates": [ 120.910720486111117, 31.019788411388888 ] } },
{ "type": "Feature", "properties": { "Name": "杨垛村", "Ctype": "村庄级地名", "Ntype": "190108", "Address": null, "Telephone": null }, "geometry": { "type": "Point", "coordinates": [ 120.902071397499995, 31.04773329 ] } },
{ "type": "Feature", "properties": { "Name": "杨垛", "Ctype": "村庄级地名", "Ntype": "190108", "Address": null, "Telephone": null }, "geometry": { "type": "Point", "coordinates": [ 120.902665744444448, 31.044945746666667 ] } },
{ "type": "Feature", "properties": { "Name": "山深村", "Ctype": "村庄级地名", "Ntype": "190108", "Address": null, "Telephone": null }, "geometry": { "type": "Point", "coordinates": [ 120.983797743055561, 31.06271321611111 ] } },
{ "type": "Feature", "properties": { "Name": "庙浜", "Ctype": "村庄级地名", "Ntype": "190108", "Address": null, "Telephone": null }, "geometry": { "type": "Point", "coordinates": [ 120.90811306416667, 31.111265733611113 ] } },
{ "type": "Feature", "properties": { "Name": "陈家河", "Ctype": "村庄级地名", "Ntype": "190108", "Address": null, "Telephone": null }, "geometry": { "type": "Point", "coordinates": [ 120.918867187499998, 31.105486382500001 ] } },
{ "type": "Feature", "properties": { "Name": "塘联村", "Ctype": "村庄级地名", "Ntype": "190108", "Address": null, "Telephone": null }, "geometry": { "type": "Point", "coordinates": [ 120.966960555555559, 31.081808611111111 ] } },
{ "type": "Feature", "properties": { "Name": "王港村", "Ctype": "村庄级地名", "Ntype": "190108", "Address": null, "Telephone": null }, "geometry": { "type": "Point", "coordinates": [ 120.905502387222228, 31.121585286388889 ] } },
{ "type": "Feature", "properties": { "Name": "前庄", "Ctype": "村庄级地名", "Ntype": "190108", "Address": null, "Telephone": null }, "geometry": { "type": "Point", "coordinates": [ 120.919211696944458, 31.122043728333335 ] } },
{ "type": "Feature", "properties": { "Name": "朱家河", "Ctype": "村庄级地名", "Ntype": "190108", "Address": null, "Telephone": null }, "geometry": { "type": "Point", "coordinates": [ 120.890467393611118, 31.128765191111111 ] } },
{ "type": "Feature", "properties": { "Name": "前荇村", "Ctype": "村庄级地名", "Ntype": "190108", "Address": null, "Telephone": null }, "geometry": { "type": "Point", "coordinates": [ 120.923698055555562, 31.125643333333336 ] } },
{ "type": "Feature", "properties": { "Name": "西鱼村", "Ctype": "村庄级地名", "Ntype": "190108", "Address": null, "Telephone": null }, "geometry": { "type": "Point", "coordinates": [ 120.897905002222217, 31.104159071111109 ] } },
{ "type": "Feature", "properties": { "Name": "匠人浜", "Ctype": "村庄级地名", "Ntype": "190108", "Address": null, "Telephone": null }, "geometry": { "type": "Point", "coordinates": [ 120.886322699722228, 31.130356987777777 ] } },
{ "type": "Feature", "properties": { "Name": "湖头村", "Ctype": "村庄级地名", "Ntype": "190108", "Address": null, "Telephone": null }, "geometry": { "type": "Point", "coordinates": [ 120.911452636666667, 31.091691623333332 ] } },
{ "type": "Feature", "properties": { "Name": "淀峰村", "Ctype": "村庄级地名", "Ntype": "190108", "Address": null, "Telephone": null }, "geometry": { "type": "Point", "coordinates": [ 120.985569166666664, 31.088306666666664 ] } },
{ "type": "Feature", "properties": { "Name": "东星村", "Ctype": "村庄级地名", "Ntype": "190108", "Address": null, "Telephone": null }, "geometry": { "type": "Point", "coordinates": [ 120.926524444444453, 31.1169225 ] } },
{ "type": "Feature", "properties": { "Name": "北夏村", "Ctype": "村庄级地名", "Ntype": "190108", "Address": null, "Telephone": null }, "geometry": { "type": "Point", "coordinates": [ 121.003145073888888, 31.095125596666666 ] } },
{ "type": "Feature", "properties": { "Name": "淀西村", "Ctype": "村庄级地名", "Ntype": "190108", "Address": null, "Telephone": null }, "geometry": { "type": "Point", "coordinates": [ 120.931231666666662, 31.131973611111111 ] } },
{ "type": "Feature", "properties": { "Name": "金家", "Ctype": "村庄级地名", "Ntype": "190108", "Address": null, "Telephone": null }, "geometry": { "type": "Point", "coordinates": [ 120.988475477500003, 31.092639431388889 ] } },
{ "type": "Feature", "properties": { "Name": "许家浜", "Ctype": "村庄级地名", "Ntype": "190108", "Address": null, "Telephone": null }, "geometry": { "type": "Point", "coordinates": [ 120.905581597222223, 31.111942003055557 ] } },
{ "type": "Feature", "properties": { "Name": "朱巷港", "Ctype": "村庄级地名", "Ntype": "190108", "Address": null, "Telephone": null }, "geometry": { "type": "Point", "coordinates": [ 120.910066460555555, 31.123828938888888 ] } },
{ "type": "Feature", "properties": { "Name": "陆港村", "Ctype": "村庄级地名", "Ntype": "190108", "Address": null, "Telephone": null }, "geometry": { "type": "Point", "coordinates": [ 120.99781222861111, 31.093084581111111 ] } },
{ "type": "Feature", "properties": { "Name": "石米荡村", "Ctype": "村庄级地名", "Ntype": "190108", "Address": null, "Telephone": null }, "geometry": { "type": "Point", "coordinates": [ 120.910050726944448, 31.100618218333334 ] } },
{ "type": "Feature", "properties": { "Name": "淀峰果园队", "Ctype": "村庄级地名", "Ntype": "190108", "Address": null, "Telephone": null }, "geometry": { "type": "Point", "coordinates": [ 120.989421386666663, 31.085917426111109 ] } },
{ "type": "Feature", "properties": { "Name": "淀山湖一村", "Ctype": "村庄级地名", "Ntype": "190108", "Address": null, "Telephone": null }, "geometry": { "type": "Point", "coordinates": [ 120.984478352777771, 31.089245876666666 ] } },
{ "type": "Feature", "properties": { "Name": "渔荇村", "Ctype": "村庄级地名", "Ntype": "190108", "Address": null, "Telephone": null }, "geometry": { "type": "Point", "coordinates": [ 120.918353407222213, 31.126838650277779 ] } },
{ "type": "Feature", "properties": { "Name": "薛家浜", "Ctype": "村庄级地名", "Ntype": "190108", "Address": null, "Telephone": null }, "geometry": { "type": "Point", "coordinates": [ 120.906041395277782, 31.093074544166665 ] } },
{ "type": "Feature", "properties": { "Name": "陆家都", "Ctype": "村庄级地名", "Ntype": "190108", "Address": null, "Telephone": null }, "geometry": { "type": "Point", "coordinates": [ 120.900950520833334, 31.096509874166667 ] } },
{ "type": "Feature", "properties": { "Name": "蔡浜村", "Ctype": "村庄级地名", "Ntype": "190108", "Address": null, "Telephone": null }, "geometry": { "type": "Point", "coordinates": [ 120.944521944444432, 31.116270555555552 ] } },
{ "type": "Feature", "properties": { "Name": "笠帽浜", "Ctype": "村庄级地名", "Ntype": "190108", "Address": null, "Telephone": null }, "geometry": { "type": "Point", "coordinates": [ 120.9179088, 31.111963433055553 ] } },
{ "type": "Feature", "properties": { "Name": "祥坞村", "Ctype": "村庄级地名", "Ntype": "190108", "Address": null, "Telephone": null }, "geometry": { "type": "Point", "coordinates": [ 120.88728277777777, 31.130278333333333 ] } },
{ "type": "Feature", "properties": { "Name": "双浜村", "Ctype": "村庄级地名", "Ntype": "190108", "Address": null, "Telephone": null }, "geometry": { "type": "Point", "coordinates": [ 120.889076666666654, 31.118521666666666 ] } },
{ "type": "Feature", "properties": { "Name": "陈东村", "Ctype": "村庄级地名", "Ntype": "190108", "Address": null, "Telephone": null }, "geometry": { "type": "Point", "coordinates": [ 120.916103611111112, 31.109133888888888 ] } },
{ "type": "Feature", "properties": { "Name": "许七村", "Ctype": "村庄级地名", "Ntype": "190108", "Address": null, "Telephone": null }, "geometry": { "type": "Point", "coordinates": [ 120.904857222222219, 31.109236388888888 ] } },
{ "type": "Feature", "properties": { "Name": "塘北村", "Ctype": "村庄级地名", "Ntype": "190108", "Address": null, "Telephone": null }, "geometry": { "type": "Point", "coordinates": [ 120.965579698333329, 31.085035264722222 ] } },
{ "type": "Feature", "properties": { "Name": "湖雪村", "Ctype": "村庄级地名", "Ntype": "190108", "Address": null, "Telephone": null }, "geometry": { "type": "Point", "coordinates": [ 120.908341388888886, 31.091585 ] } },
{ "type": "Feature", "properties": { "Name": "七百亩", "Ctype": "村庄级地名", "Ntype": "190108", "Address": null, "Telephone": null }, "geometry": { "type": "Point", "coordinates": [ 120.898968098888886, 31.11109375 ] } },
{ "type": "Feature", "properties": { "Name": "寒郎", "Ctype": "村庄级地名", "Ntype": "190108", "Address": null, "Telephone": null }, "geometry": { "type": "Point", "coordinates": [ 120.920467665, 31.109739583333333 ] } },
{ "type": "Feature", "properties": { "Name": "南田肚村", "Ctype": "村庄级地名", "Ntype": "190108", "Address": null, "Telephone": null }, "geometry": { "type": "Point", "coordinates": [ 120.906583387499992, 31.105599500833332 ] } },
{ "type": "Feature", "properties": { "Name": "西马家浜", "Ctype": "村庄级地名", "Ntype": "190108", "Address": null, "Telephone": null }, "geometry": { "type": "Point", "coordinates": [ 120.895457085555549, 31.096754014722222 ] } },
{ "type": "Feature", "properties": { "Name": "东田大", "Ctype": "村庄级地名", "Ntype": "190108", "Address": null, "Telephone": null }, "geometry": { "type": "Point", "coordinates": [ 120.911356608055556, 31.1073421225 ] } },
{ "type": "Feature", "properties": { "Name": "北村", "Ctype": "村庄级地名", "Ntype": "190108", "Address": null, "Telephone": null }, "geometry": { "type": "Point", "coordinates": [ 120.930233018611119, 31.135735134444445 ] } },
{ "type": "Feature", "properties": { "Name": "官字圩村", "Ctype": "村庄级地名", "Ntype": "190108", "Address": null, "Telephone": null }, "geometry": { "type": "Point", "coordinates": [ 120.883608669722221, 31.098243815 ] } },
{ "type": "Feature", "properties": { "Name": "官字圩", "Ctype": "村庄级地名", "Ntype": "190108", "Address": null, "Telephone": null }, "geometry": { "type": "Point", "coordinates": [ 120.882460395, 31.096902126666667 ] } },
{ "type": "Feature", "properties": { "Name": "海池圩", "Ctype": "村庄级地名", "Ntype": "190108", "Address": null, "Telephone": null }, "geometry": { "type": "Point", "coordinates": [ 120.90103271472222, 31.097906901111113 ] } },
{ "type": "Feature", "properties": { "Name": "道床浜", "Ctype": "村庄级地名", "Ntype": "190108", "Address": null, "Telephone": null }, "geometry": { "type": "Point", "coordinates": [ 120.885391981388892, 31.121816135 ] } },
{ "type": "Feature", "properties": { "Name": "双祥村", "Ctype": "村庄级地名", "Ntype": "190108", "Address": null, "Telephone": null }, "geometry": { "type": "Point", "coordinates": [ 120.889208984444451, 31.128630913611111 ] } },
{ "type": "Feature", "properties": { "Name": "庆丰村", "Ctype": "村庄级地名", "Ntype": "190108", "Address": null, "Telephone": null }, "geometry": { "type": "Point", "coordinates": [ 121.003152126666663, 31.094989420555557 ] } },
{ "type": "Feature", "properties": { "Name": "张家浜", "Ctype": "村庄级地名", "Ntype": "190108", "Address": null, "Telephone": null }, "geometry": { "type": "Point", "coordinates": [ 120.923991156666659, 31.120780436111112 ] } },
{ "type": "Feature", "properties": { "Name": "汪洋", "Ctype": "村庄级地名", "Ntype": "190108", "Address": null, "Telephone": null }, "geometry": { "type": "Point", "coordinates": [ 120.915969780833336, 31.12846028638889 ] } },
{ "type": "Feature", "properties": { "Name": "东风村", "Ctype": "村庄级地名", "Ntype": "190108", "Address": null, "Telephone": null }, "geometry": { "type": "Point", "coordinates": [ 120.930329722222211, 31.132030277777776 ] } },
{ "type": "Feature", "properties": { "Name": "王巷村", "Ctype": "村庄级地名", "Ntype": "190108", "Address": null, "Telephone": null }, "geometry": { "type": "Point", "coordinates": [ 120.905165744444446, 31.123333333333335 ] } },
{ "type": "Feature", "properties": { "Name": "江家浜", "Ctype": "村庄级地名", "Ntype": "190108", "Address": null, "Telephone": null }, "geometry": { "type": "Point", "coordinates": [ 120.910116644999988, 31.098413085833332 ] } },
{ "type": "Feature", "properties": { "Name": "长北村", "Ctype": "村庄级地名", "Ntype": "190108", "Address": null, "Telephone": null }, "geometry": { "type": "Point", "coordinates": [ 120.882608888888882, 31.1277 ] } },
{ "type": "Feature", "properties": { "Name": "石米村", "Ctype": "村庄级地名", "Ntype": "190108", "Address": null, "Telephone": null }, "geometry": { "type": "Point", "coordinates": [ 120.898361666666673, 31.101654444444446 ] } },
{ "type": "Feature", "properties": { "Name": "龙字圩", "Ctype": "村庄级地名", "Ntype": "190108", "Address": null, "Telephone": null }, "geometry": { "type": "Point", "coordinates": [ 120.879631618888894, 31.11056532111111 ] } },
{ "type": "Feature", "properties": { "Name": "田都", "Ctype": "村庄级地名", "Ntype": "190108", "Address": null, "Telephone": null }, "geometry": { "type": "Point", "coordinates": [ 120.928774142777769, 31.127523328888888 ] } },
{ "type": "Feature", "properties": { "Name": "朝阳村", "Ctype": "村庄级地名", "Ntype": "190108", "Address": null, "Telephone": null }, "geometry": { "type": "Point", "coordinates": [ 120.879462619444453, 31.119408637222222 ] } },
{ "type": "Feature", "properties": { "Name": "淀山湖村", "Ctype": "村庄级地名", "Ntype": "190108", "Address": null, "Telephone": null }, "geometry": { "type": "Point", "coordinates": [ 120.983607042222218, 31.088723958333333 ] } },
{ "type": "Feature", "properties": { "Name": "大桥", "Ctype": "村庄级地名", "Ntype": "190108", "Address": null, "Telephone": null }, "geometry": { "type": "Point", "coordinates": [ 120.92992214638889, 31.132646213055555 ] } },
{ "type": "Feature", "properties": { "Name": "东马家浜", "Ctype": "村庄级地名", "Ntype": "190108", "Address": null, "Telephone": null }, "geometry": { "type": "Point", "coordinates": [ 120.904617513055541, 31.096733669722223 ] } },
{ "type": "Feature", "properties": { "Name": "雪米村", "Ctype": "村庄级地名", "Ntype": "190108", "Address": null, "Telephone": null }, "geometry": { "type": "Point", "coordinates": [ 120.900359700555541, 31.097815755277779 ] } },
{ "type": "Feature", "properties": { "Name": "明星村", "Ctype": "村庄级地名", "Ntype": "190108", "Address": null, "Telephone": null }, "geometry": { "type": "Point", "coordinates": [ 121.033096245555569, 30.830273166111109 ] } },
{ "type": "Feature", "properties": { "Name": "戚家宅", "Ctype": "村庄级地名", "Ntype": "190108", "Address": null, "Telephone": null }, "geometry": { "type": "Point", "coordinates": [ 121.03089898, 30.827785915833335 ] } },
{ "type": "Feature", "properties": { "Name": "目字圩", "Ctype": "村庄级地名", "Ntype": "190108", "Address": null, "Telephone": null }, "geometry": { "type": "Point", "coordinates": [ 121.04320719388889, 30.819847276388888 ] } },
{ "type": "Feature", "properties": { "Name": "寒字圩", "Ctype": "村庄级地名", "Ntype": "190108", "Address": null, "Telephone": null }, "geometry": { "type": "Point", "coordinates": [ 121.045171712222214, 30.829338378888888 ] } },
{ "type": "Feature", "properties": { "Name": "腰浜村", "Ctype": "村庄级地名", "Ntype": "190108", "Address": null, "Telephone": null }, "geometry": { "type": "Point", "coordinates": [ 121.037314181944453, 30.823837619444443 ] } },
{ "type": "Feature", "properties": { "Name": "沈家", "Ctype": "村庄级地名", "Ntype": "190108", "Address": null, "Telephone": null }, "geometry": { "type": "Point", "coordinates": [ 121.038214518333319, 30.829102918888889 ] } },
{ "type": "Feature", "properties": { "Name": "张大泾", "Ctype": "村庄级地名", "Ntype": "190108", "Address": null, "Telephone": null }, "geometry": { "type": "Point", "coordinates": [ 121.129057074722226, 30.785206705833335 ] } },
{ "type": "Feature", "properties": { "Name": "项浜里", "Ctype": "村庄级地名", "Ntype": "190108", "Address": null, "Telephone": null }, "geometry": { "type": "Point", "coordinates": [ 121.067548055555562, 30.871514166666667 ] } },
{ "type": "Feature", "properties": { "Name": "团新村", "Ctype": "村庄级地名", "Ntype": "190108", "Address": null, "Telephone": null }, "geometry": { "type": "Point", "coordinates": [ 121.009023916666663, 30.837012449722224 ] } },
{ "type": "Feature", "properties": { "Name": "南浜", "Ctype": "村庄级地名", "Ntype": "190108", "Address": null, "Telephone": null }, "geometry": { "type": "Point", "coordinates": [ 121.064072536944437, 30.887172037777777 ] } },
{ "type": "Feature", "properties": { "Name": "寒泾针织厂", "Ctype": "村庄级地名", "Ntype": "190108", "Address": null, "Telephone": null }, "geometry": { "type": "Point", "coordinates": [ 121.0537109375, 30.83712972 ] } },
{ "type": "Feature", "properties": { "Name": "盛家厍", "Ctype": "村庄级地名", "Ntype": "190108", "Address": null, "Telephone": null }, "geometry": { "type": "Point", "coordinates": [ 121.089885796388899, 30.881634657222222 ] } },
{ "type": "Feature", "properties": { "Name": "唐家浜", "Ctype": "村庄级地名", "Ntype": "190108", "Address": null, "Telephone": null }, "geometry": { "type": "Point", "coordinates": [ 121.023739963055561, 30.859427625833334 ] } },
{ "type": "Feature", "properties": { "Name": "领带厂", "Ctype": "村庄级地名", "Ntype": "190108", "Address": null, "Telephone": null }, "geometry": { "type": "Point", "coordinates": [ 121.074681532222215, 30.862649739722222 ] } },
{ "type": "Feature", "properties": { "Name": "东泾村", "Ctype": "村庄级地名", "Ntype": "190108", "Address": null, "Telephone": null }, "geometry": { "type": "Point", "coordinates": [ 121.11447509777777, 30.88620931 ] } },
{ "type": "Feature", "properties": { "Name": "孙家浜", "Ctype": "村庄级地名", "Ntype": "190108", "Address": null, "Telephone": null }, "geometry": { "type": "Point", "coordinates": [ 121.031196560277778, 30.91121120888889 ] } },
{ "type": "Feature", "properties": { "Name": "兴塔村", "Ctype": "村庄级地名", "Ntype": "190108", "Address": null, "Telephone": null }, "geometry": { "type": "Point", "coordinates": [ 121.072685, 30.869027777777777 ] } },
{ "type": "Feature", "properties": { "Name": "徐家湾", "Ctype": "村庄级地名", "Ntype": "190108", "Address": null, "Telephone": null }, "geometry": { "type": "Point", "coordinates": [ 121.082315266944448, 30.908933105555555 ] } },
{ "type": "Feature", "properties": { "Name": "毛家荡", "Ctype": "村庄级地名", "Ntype": "190108", "Address": null, "Telephone": null }, "geometry": { "type": "Point", "coordinates": [ 121.0833675, 30.898124444444445 ] } },
{ "type": "Feature", "properties": { "Name": "新光村", "Ctype": "村庄级地名", "Ntype": "190108", "Address": null, "Telephone": null }, "geometry": { "type": "Point", "coordinates": [ 121.072954722222221, 30.863691111111113 ] } },
{ "type": "Feature", "properties": { "Name": "羊角浜", "Ctype": "村庄级地名", "Ntype": "190108", "Address": null, "Telephone": null }, "geometry": { "type": "Point", "coordinates": [ 121.059594997777779, 30.85796522361111 ] } },
{ "type": "Feature", "properties": { "Name": "徐家宅", "Ctype": "村庄级地名", "Ntype": "190108", "Address": null, "Telephone": null }, "geometry": { "type": "Point", "coordinates": [ 121.046079915277772, 30.86013699 ] } },
{ "type": "Feature", "properties": { "Name": "唐家村", "Ctype": "村庄级地名", "Ntype": "190108", "Address": null, "Telephone": null }, "geometry": { "type": "Point", "coordinates": [ 121.057374674444446, 30.842763400555555 ] } },
{ "type": "Feature", "properties": { "Name": "韩家坞", "Ctype": "村庄级地名", "Ntype": "190108", "Address": null, "Telephone": null }, "geometry": { "type": "Point", "coordinates": [ 121.10507839638889, 30.913320855 ] } },
{ "type": "Feature", "properties": { "Name": "小横泾", "Ctype": "村庄级地名", "Ntype": "190108", "Address": null, "Telephone": null }, "geometry": { "type": "Point", "coordinates": [ 121.075785047777771, 30.874338921388887 ] } },
{ "type": "Feature", "properties": { "Name": "蒲鞋浜", "Ctype": "村庄级地名", "Ntype": "190108", "Address": null, "Telephone": null }, "geometry": { "type": "Point", "coordinates": [ 121.037183973611121, 30.909847818888888 ] } },
{ "type": "Feature", "properties": { "Name": "大兴桥", "Ctype": "村庄级地名", "Ntype": "190108", "Address": null, "Telephone": null }, "geometry": { "type": "Point", "coordinates": [ 121.104431695, 30.860123698055556 ] } },
{ "type": "Feature", "properties": { "Name": "徐泾村", "Ctype": "村庄级地名", "Ntype": "190108", "Address": null, "Telephone": null }, "geometry": { "type": "Point", "coordinates": [ 121.043821614722219, 30.86271213111111 ] } },
{ "type": "Feature", "properties": { "Name": "蔡家楼", "Ctype": "村庄级地名", "Ntype": "190108", "Address": null, "Telephone": null }, "geometry": { "type": "Point", "coordinates": [ 121.122735731388886, 30.888337131111111 ] } },
{ "type": "Feature", "properties": { "Name": "泖桥村", "Ctype": "村庄级地名", "Ntype": "190108", "Address": null, "Telephone": null }, "geometry": { "type": "Point", "coordinates": [ 121.105170833333332, 30.899384444444443 ] } },
{ "type": "Feature", "properties": { "Name": "泖桥", "Ctype": "村庄级地名", "Ntype": "190108", "Address": null, "Telephone": null }, "geometry": { "type": "Point", "coordinates": [ 121.106640353611112, 30.891564941388889 ] } },
{ "type": "Feature", "properties": { "Name": "农兴村", "Ctype": "村庄级地名", "Ntype": "190108", "Address": null, "Telephone": null }, "geometry": { "type": "Point", "coordinates": [ 121.02433539499999, 30.89452908 ] } },
{ "type": "Feature", "properties": { "Name": "优里", "Ctype": "村庄级地名", "Ntype": "190108", "Address": null, "Telephone": null }, "geometry": { "type": "Point", "coordinates": [ 121.063591656111115, 30.858335760555558 ] } },
{ "type": "Feature", "properties": { "Name": "南桥", "Ctype": "村庄级地名", "Ntype": "190108", "Address": null, "Telephone": null }, "geometry": { "type": "Point", "coordinates": [ 121.054118652222229, 30.858516981388888 ] } },
{ "type": "Feature", "properties": { "Name": "金西浜", "Ctype": "村庄级地名", "Ntype": "190108", "Address": null, "Telephone": null }, "geometry": { "type": "Point", "coordinates": [ 121.047988823888886, 30.879189453055556 ] } },
{ "type": "Feature", "properties": { "Name": "大名村", "Ctype": "村庄级地名", "Ntype": "190108", "Address": null, "Telephone": null }, "geometry": { "type": "Point", "coordinates": [ 121.092307400277775, 30.879681803333334 ] } },
{ "type": "Feature", "properties": { "Name": "后岗", "Ctype": "村庄级地名", "Ntype": "190108", "Address": null, "Telephone": null }, "geometry": { "type": "Point", "coordinates": [ 121.104294705, 30.87378499361111 ] } },
{ "type": "Feature", "properties": { "Name": "东石河", "Ctype": "村庄级地名", "Ntype": "190108", "Address": null, "Telephone": null }, "geometry": { "type": "Point", "coordinates": [ 121.04632242833334, 30.858738878055554 ] } },
{ "type": "Feature", "properties": { "Name": "屈家浜", "Ctype": "村庄级地名", "Ntype": "190108", "Address": null, "Telephone": null }, "geometry": { "type": "Point", "coordinates": [ 121.062192654166665, 30.89965115027778 ] } },
{ "type": "Feature", "properties": { "Name": "蒋家村", "Ctype": "村庄级地名", "Ntype": "190108", "Address": null, "Telephone": null }, "geometry": { "type": "Point", "coordinates": [ 121.042955729166664, 30.847664388055556 ] } },
{ "type": "Feature", "properties": { "Name": "俞家浜", "Ctype": "村庄级地名", "Ntype": "190108", "Address": null, "Telephone": null }, "geometry": { "type": "Point", "coordinates": [ 121.036673719722216, 30.854107259166668 ] } },
{ "type": "Feature", "properties": { "Name": "周家浜", "Ctype": "村庄级地名", "Ntype": "190108", "Address": null, "Telephone": null }, "geometry": { "type": "Point", "coordinates": [ 121.005403374444441, 30.841631130555555 ] } },
{ "type": "Feature", "properties": { "Name": "厍南村", "Ctype": "村庄级地名", "Ntype": "190108", "Address": null, "Telephone": null }, "geometry": { "type": "Point", "coordinates": [ 121.055445421111102, 30.862242838611113 ] } },
{ "type": "Feature", "properties": { "Name": "潘王村", "Ctype": "村庄级地名", "Ntype": "190108", "Address": null, "Telephone": null }, "geometry": { "type": "Point", "coordinates": [ 121.027555881111098, 30.879846462777778 ] } },
{ "type": "Feature", "properties": { "Name": "毛庄", "Ctype": "村庄级地名", "Ntype": "190108", "Address": null, "Telephone": null }, "geometry": { "type": "Point", "coordinates": [ 121.093808051111125, 30.872452256944445 ] } },
{ "type": "Feature", "properties": { "Name": "石河里", "Ctype": "村庄级地名", "Ntype": "190108", "Address": null, "Telephone": null }, "geometry": { "type": "Point", "coordinates": [ 121.043587239722228, 30.856832139722222 ] } },
{ "type": "Feature", "properties": { "Name": "大兴", "Ctype": "村庄级地名", "Ntype": "190108", "Address": null, "Telephone": null }, "geometry": { "type": "Point", "coordinates": [ 121.100218098888888, 30.862933485277779 ] } },
{ "type": "Feature", "properties": { "Name": "新义村", "Ctype": "村庄级地名", "Ntype": "190108", "Address": null, "Telephone": null }, "geometry": { "type": "Point", "coordinates": [ 121.028686527777765, 30.85268825 ] } },
{ "type": "Feature", "properties": { "Name": "三个浜", "Ctype": "村庄级地名", "Ntype": "190108", "Address": null, "Telephone": null }, "geometry": { "type": "Point", "coordinates": [ 121.028136935833331, 30.903817003055554 ] } },
{ "type": "Feature", "properties": { "Name": "野米泾", "Ctype": "村庄级地名", "Ntype": "190108", "Address": null, "Telephone": null }, "geometry": { "type": "Point", "coordinates": [ 121.03292317722223, 30.8733213975 ] } },
{ "type": "Feature", "properties": { "Name": "新河浜", "Ctype": "村庄级地名", "Ntype": "190108", "Address": null, "Telephone": null }, "geometry": { "type": "Point", "coordinates": [ 121.105569390277779, 30.856437716944445 ] } },
{ "type": "Feature", "properties": { "Name": "蒋家浜", "Ctype": "村庄级地名", "Ntype": "190108", "Address": null, "Telephone": null }, "geometry": { "type": "Point", "coordinates": [ 121.04351454, 30.848356119722222 ] } },
{ "type": "Feature", "properties": { "Name": "新村佬", "Ctype": "村庄级地名", "Ntype": "190108", "Address": null, "Telephone": null }, "geometry": { "type": "Point", "coordinates": [ 121.08121148, 30.905646158888889 ] } },
{ "type": "Feature", "properties": { "Name": "东昌蒲", "Ctype": "村庄级地名", "Ntype": "190108", "Address": null, "Telephone": null }, "geometry": { "type": "Point", "coordinates": [ 121.058581271666668, 30.839603949722221 ] } },
{ "type": "Feature", "properties": { "Name": "北长浜", "Ctype": "村庄级地名", "Ntype": "190108", "Address": null, "Telephone": null }, "geometry": { "type": "Point", "coordinates": [ 121.069549153611121, 30.859640841944444 ] } },
{ "type": "Feature", "properties": { "Name": "发字圩", "Ctype": "村庄级地名", "Ntype": "190108", "Address": null, "Telephone": null }, "geometry": { "type": "Point", "coordinates": [ 121.042615288611103, 30.867911241388889 ] } },
{ "type": "Feature", "properties": { "Name": "横港佬", "Ctype": "村庄级地名", "Ntype": "190108", "Address": null, "Telephone": null }, "geometry": { "type": "Point", "coordinates": [ 121.112150878888883, 30.881461317222222 ] } },
{ "type": "Feature", "properties": { "Name": "汤家荡", "Ctype": "村庄级地名", "Ntype": "190108", "Address": null, "Telephone": null }, "geometry": { "type": "Point", "coordinates": [ 121.106279568055555, 30.896217719166668 ] } },
{ "type": "Feature", "properties": { "Name": "菖梧村", "Ctype": "村庄级地名", "Ntype": "190108", "Address": null, "Telephone": null }, "geometry": { "type": "Point", "coordinates": [ 121.015443793333333, 30.851333550277776 ] } },
{ "type": "Feature", "properties": { "Name": "长娄浜", "Ctype": "村庄级地名", "Ntype": "190108", "Address": null, "Telephone": null }, "geometry": { "type": "Point", "coordinates": [ 121.061013183611109, 30.867610677222224 ] } },
{ "type": "Feature", "properties": { "Name": "外长浜", "Ctype": "村庄级地名", "Ntype": "190108", "Address": null, "Telephone": null }, "geometry": { "type": "Point", "coordinates": [ 121.08344292527778, 30.85277425138889 ] } },
{ "type": "Feature", "properties": { "Name": "黎明", "Ctype": "村庄级地名", "Ntype": "190108", "Address": null, "Telephone": null }, "geometry": { "type": "Point", "coordinates": [ 121.085753055555557, 30.857069444444445 ] } },
{ "type": "Feature", "properties": { "Name": "邬旺村", "Ctype": "村庄级地名", "Ntype": "190108", "Address": null, "Telephone": null }, "geometry": { "type": "Point", "coordinates": [ 121.030880533888876, 30.873732096388888 ] } },
{ "type": "Feature", "properties": { "Name": "芥字圩", "Ctype": "村庄级地名", "Ntype": "190108", "Address": null, "Telephone": null }, "geometry": { "type": "Point", "coordinates": [ 121.068505859444443, 30.889753689166668 ] } },
{ "type": "Feature", "properties": { "Name": "小港里", "Ctype": "村庄级地名", "Ntype": "190108", "Address": null, "Telephone": null }, "geometry": { "type": "Point", "coordinates": [ 121.118939073333323, 30.875735677222224 ] } },
{ "type": "Feature", "properties": { "Name": "长浜", "Ctype": "村庄级地名", "Ntype": "190108", "Address": null, "Telephone": null }, "geometry": { "type": "Point", "coordinates": [ 121.03993923611111, 30.893467339444445 ] } },
{ "type": "Feature", "properties": { "Name": "长浜", "Ctype": "村庄级地名", "Ntype": "190108", "Address": null, "Telephone": null }, "geometry": { "type": "Point", "coordinates": [ 121.037829166666668, 30.908526666666667 ] } },
{ "type": "Feature", "properties": { "Name": "东大村", "Ctype": "村庄级地名", "Ntype": "190108", "Address": null, "Telephone": null }, "geometry": { "type": "Point", "coordinates": [ 121.12701931416666, 30.908181695 ] } },
{ "type": "Feature", "properties": { "Name": "长风浜", "Ctype": "村庄级地名", "Ntype": "190108", "Address": null, "Telephone": null }, "geometry": { "type": "Point", "coordinates": [ 121.078283962777775, 30.861005045555554 ] } },
{ "type": "Feature", "properties": { "Name": "簖村", "Ctype": "村庄级地名", "Ntype": "190108", "Address": null, "Telephone": null }, "geometry": { "type": "Point", "coordinates": [ 121.010306260833332, 30.900036621111113 ] } },
{ "type": "Feature", "properties": { "Name": "西古村", "Ctype": "村庄级地名", "Ntype": "190108", "Address": null, "Telephone": null }, "geometry": { "type": "Point", "coordinates": [ 121.069481065555564, 30.907647840833334 ] } },
{ "type": "Feature", "properties": { "Name": "钱明村", "Ctype": "村庄级地名", "Ntype": "190108", "Address": null, "Telephone": null }, "geometry": { "type": "Point", "coordinates": [ 121.058431111111119, 30.888171388888889 ] } },
{ "type": "Feature", "properties": { "Name": "工泥浜", "Ctype": "村庄级地名", "Ntype": "190108", "Address": null, "Telephone": null }, "geometry": { "type": "Point", "coordinates": [ 121.056766764444447, 30.887438964722222 ] } },
{ "type": "Feature", "properties": { "Name": "秀泾村", "Ctype": "村庄级地名", "Ntype": "190108", "Address": null, "Telephone": null }, "geometry": { "type": "Point", "coordinates": [ 121.111898611111116, 30.877181944444445 ] } },
{ "type": "Feature", "properties": { "Name": "横港", "Ctype": "村庄级地名", "Ntype": "190108", "Address": null, "Telephone": null }, "geometry": { "type": "Point", "coordinates": [ 121.012424858888892, 30.84032958972222 ] } },
{ "type": "Feature", "properties": { "Name": "新华村", "Ctype": "村庄级地名", "Ntype": "190108", "Address": null, "Telephone": null }, "geometry": { "type": "Point", "coordinates": [ 121.033676757777783, 30.867596571111111 ] } },
{ "type": "Feature", "properties": { "Name": "潘家溇", "Ctype": "村庄级地名", "Ntype": "190108", "Address": null, "Telephone": null }, "geometry": { "type": "Point", "coordinates": [ 121.024382053055547, 30.880255533888889 ] } },
{ "type": "Feature", "properties": { "Name": "利明村", "Ctype": "村庄级地名", "Ntype": "190108", "Address": null, "Telephone": null }, "geometry": { "type": "Point", "coordinates": [ 121.084901258611112, 30.862236056944447 ] } },
{ "type": "Feature", "properties": { "Name": "泖庄浜", "Ctype": "村庄级地名", "Ntype": "190108", "Address": null, "Telephone": null }, "geometry": { "type": "Point", "coordinates": [ 121.097007649722215, 30.872470160555554 ] } },
{ "type": "Feature", "properties": { "Name": "庙港", "Ctype": "村庄级地名", "Ntype": "190108", "Address": null, "Telephone": null }, "geometry": { "type": "Point", "coordinates": [ 121.023868001388891, 30.888607042222223 ] } },
{ "type": "Feature", "properties": { "Name": "庄泾", "Ctype": "村庄级地名", "Ntype": "190108", "Address": null, "Telephone": null }, "geometry": { "type": "Point", "coordinates": [ 121.007977701944441, 30.838211805555556 ] } },
{ "type": "Feature", "properties": { "Name": "塘浜里", "Ctype": "村庄级地名", "Ntype": "190108", "Address": null, "Telephone": null }, "geometry": { "type": "Point", "coordinates": [ 121.037687716944447, 30.849657118055557 ] } },
{ "type": "Feature", "properties": { "Name": "项村湾", "Ctype": "村庄级地名", "Ntype": "190108", "Address": null, "Telephone": null }, "geometry": { "type": "Point", "coordinates": [ 121.062550455833332, 30.879548068611111 ] } },
{ "type": "Feature", "properties": { "Name": "五家浜", "Ctype": "村庄级地名", "Ntype": "190108", "Address": null, "Telephone": null }, "geometry": { "type": "Point", "coordinates": [ 121.121393500555556, 30.865785047777777 ] } },
{ "type": "Feature", "properties": { "Name": "孟秀浜", "Ctype": "村庄级地名", "Ntype": "190108", "Address": null, "Telephone": null }, "geometry": { "type": "Point", "coordinates": [ 121.026717393611108, 30.851125488333334 ] } },
{ "type": "Feature", "properties": { "Name": "邵家村", "Ctype": "村庄级地名", "Ntype": "190108", "Address": null, "Telephone": null }, "geometry": { "type": "Point", "coordinates": [ 121.051028917222226, 30.876579589722223 ] } },
{ "type": "Feature", "properties": { "Name": "蒋浜渡", "Ctype": "村庄级地名", "Ntype": "190108", "Address": null, "Telephone": null }, "geometry": { "type": "Point", "coordinates": [ 121.042115342777791, 30.850991210833332 ] } },
{ "type": "Feature", "properties": { "Name": "胜堂浜", "Ctype": "村庄级地名", "Ntype": "190108", "Address": null, "Telephone": null }, "geometry": { "type": "Point", "coordinates": [ 121.086162651944434, 30.87564073361111 ] } },
{ "type": "Feature", "properties": { "Name": "尤家浜", "Ctype": "村庄级地名", "Ntype": "190108", "Address": null, "Telephone": null }, "geometry": { "type": "Point", "coordinates": [ 121.043657497777787, 30.85753770611111 ] } },
{ "type": "Feature", "properties": { "Name": "石堰头", "Ctype": "村庄级地名", "Ntype": "190108", "Address": null, "Telephone": null }, "geometry": { "type": "Point", "coordinates": [ 121.091267632499992, 30.866996799166667 ] } },
{ "type": "Feature", "properties": { "Name": "港埭佬", "Ctype": "村庄级地名", "Ntype": "190108", "Address": null, "Telephone": null }, "geometry": { "type": "Point", "coordinates": [ 121.00815077027778, 30.845906575555556 ] } },
{ "type": "Feature", "properties": { "Name": "砚池浜", "Ctype": "村庄级地名", "Ntype": "190108", "Address": null, "Telephone": null }, "geometry": { "type": "Point", "coordinates": [ 121.080269639722232, 30.874983181388888 ] } },
{ "type": "Feature", "properties": { "Name": "南北浜", "Ctype": "村庄级地名", "Ntype": "190108", "Address": null, "Telephone": null }, "geometry": { "type": "Point", "coordinates": [ 121.121714138333331, 30.852686089444443 ] } },
{ "type": "Feature", "properties": { "Name": "夏家浜", "Ctype": "村庄级地名", "Ntype": "190108", "Address": null, "Telephone": null }, "geometry": { "type": "Point", "coordinates": [ 121.073408474444435, 30.852010905 ] } },
{ "type": "Feature", "properties": { "Name": "罗家桥", "Ctype": "村庄级地名", "Ntype": "190108", "Address": null, "Telephone": null }, "geometry": { "type": "Point", "coordinates": [ 121.057000325555549, 30.863593478611111 ] } },
{ "type": "Feature", "properties": { "Name": "贵泾村", "Ctype": "村庄级地名", "Ntype": "190108", "Address": null, "Telephone": null }, "geometry": { "type": "Point", "coordinates": [ 121.100786132777785, 30.86566569 ] } },
{ "type": "Feature", "properties": { "Name": "双庙村", "Ctype": "村庄级地名", "Ntype": "190108", "Address": null, "Telephone": null }, "geometry": { "type": "Point", "coordinates": [ 121.059081111111112, 30.852193611111112 ] } },
{ "type": "Feature", "properties": { "Name": "东小港", "Ctype": "村庄级地名", "Ntype": "190108", "Address": null, "Telephone": null }, "geometry": { "type": "Point", "coordinates": [ 121.124694824166667, 30.875638020833332 ] } },
{ "type": "Feature", "properties": { "Name": "龙浜里", "Ctype": "村庄级地名", "Ntype": "190108", "Address": null, "Telephone": null }, "geometry": { "type": "Point", "coordinates": [ 121.065776095833328, 30.850220811666667 ] } },
{ "type": "Feature", "properties": { "Name": "胡家埭", "Ctype": "村庄级地名", "Ntype": "190108", "Address": null, "Telephone": null }, "geometry": { "type": "Point", "coordinates": [ 121.044380154166674, 30.83705268 ] } },
{ "type": "Feature", "properties": { "Name": "红庙下", "Ctype": "村庄级地名", "Ntype": "190108", "Address": null, "Telephone": null }, "geometry": { "type": "Point", "coordinates": [ 121.039199761388886, 30.865988498333333 ] } },
{ "type": "Feature", "properties": { "Name": "枫村泾", "Ctype": "村庄级地名", "Ntype": "190108", "Address": null, "Telephone": null }, "geometry": { "type": "Point", "coordinates": [ 121.019081217500002, 30.845827365555557 ] } },
{ "type": "Feature", "properties": { "Name": "小港", "Ctype": "村庄级地名", "Ntype": "190108", "Address": null, "Telephone": null }, "geometry": { "type": "Point", "coordinates": [ 121.027641601666659, 30.838241645 ] } },
{ "type": "Feature", "properties": { "Name": "潜庄", "Ctype": "村庄级地名", "Ntype": "190108", "Address": null, "Telephone": null }, "geometry": { "type": "Point", "coordinates": [ 121.080396592777788, 30.882115342777777 ] } },
{ "type": "Feature", "properties": { "Name": "白莲寺", "Ctype": "村庄级地名", "Ntype": "190108", "Address": null, "Telephone": null }, "geometry": { "type": "Point", "coordinates": [ 121.053643663333332, 30.886295030277775 ] } },
{ "type": "Feature", "properties": { "Name": "曹湾", "Ctype": "村庄级地名", "Ntype": "190108", "Address": null, "Telephone": null }, "geometry": { "type": "Point", "coordinates": [ 121.088845277777779, 30.907048888888891 ] } },
{ "type": "Feature", "properties": { "Name": "岳泾湾", "Ctype": "村庄级地名", "Ntype": "190108", "Address": null, "Telephone": null }, "geometry": { "type": "Point", "coordinates": [ 121.037048068611099, 30.905247938333332 ] } },
{ "type": "Feature", "properties": { "Name": "白漾里", "Ctype": "村庄级地名", "Ntype": "190108", "Address": null, "Telephone": null }, "geometry": { "type": "Point", "coordinates": [ 121.027928873611103, 30.841635199722223 ] } },
{ "type": "Feature", "properties": { "Name": "黛树浜", "Ctype": "村庄级地名", "Ntype": "190108", "Address": null, "Telephone": null }, "geometry": { "type": "Point", "coordinates": [ 121.041548394166668, 30.846858452777777 ] } },
{ "type": "Feature", "properties": { "Name": "钱家草", "Ctype": "村庄级地名", "Ntype": "190108", "Address": null, "Telephone": null }, "geometry": { "type": "Point", "coordinates": [ 121.051158854166673, 30.905677083333334 ] } },
{ "type": "Feature", "properties": { "Name": "三氏浜", "Ctype": "村庄级地名", "Ntype": "190108", "Address": null, "Telephone": null }, "geometry": { "type": "Point", "coordinates": [ 121.080729166666671, 30.896610243055555 ] } },
{ "type": "Feature", "properties": { "Name": "茭白泾", "Ctype": "村庄级地名", "Ntype": "190108", "Address": null, "Telephone": null }, "geometry": { "type": "Point", "coordinates": [ 121.0902541775, 30.860155436111111 ] } },
{ "type": "Feature", "properties": { "Name": "盛新村", "Ctype": "村庄级地名", "Ntype": "190108", "Address": null, "Telephone": null }, "geometry": { "type": "Point", "coordinates": [ 121.056204240555559, 30.877397718611114 ] } },
{ "type": "Feature", "properties": { "Name": "田保头", "Ctype": "村庄级地名", "Ntype": "190108", "Address": null, "Telephone": null }, "geometry": { "type": "Point", "coordinates": [ 121.105339898055547, 30.91179877388889 ] } },
{ "type": "Feature", "properties": { "Name": "詹家浜", "Ctype": "村庄级地名", "Ntype": "190108", "Address": null, "Telephone": null }, "geometry": { "type": "Point", "coordinates": [ 121.124880371111118, 30.884573025277778 ] } },
{ "type": "Feature", "properties": { "Name": "庙浜", "Ctype": "村庄级地名", "Ntype": "190108", "Address": null, "Telephone": null }, "geometry": { "type": "Point", "coordinates": [ 121.015590820277779, 30.857533637222222 ] } },
{ "type": "Feature", "properties": { "Name": "角家泾", "Ctype": "村庄级地名", "Ntype": "190108", "Address": null, "Telephone": null }, "geometry": { "type": "Point", "coordinates": [ 121.054643012222229, 30.86966824 ] } },
{ "type": "Feature", "properties": { "Name": "北泖桥", "Ctype": "村庄级地名", "Ntype": "190108", "Address": null, "Telephone": null }, "geometry": { "type": "Point", "coordinates": [ 121.106983506944445, 30.891473795555555 ] } },
{ "type": "Feature", "properties": { "Name": "干田楼", "Ctype": "村庄级地名", "Ntype": "190108", "Address": null, "Telephone": null }, "geometry": { "type": "Point", "coordinates": [ 121.048729926111122, 30.888488498333334 ] } },
{ "type": "Feature", "properties": { "Name": "墙角里", "Ctype": "村庄级地名", "Ntype": "190108", "Address": null, "Telephone": null }, "geometry": { "type": "Point", "coordinates": [ 121.017984754722221, 30.837570258333333 ] } },
{ "type": "Feature", "properties": { "Name": "东庙泾", "Ctype": "村庄级地名", "Ntype": "190108", "Address": null, "Telephone": null }, "geometry": { "type": "Point", "coordinates": [ 121.035948350833337, 30.864663357222224 ] } },
{ "type": "Feature", "properties": { "Name": "宋家漾", "Ctype": "村庄级地名", "Ntype": "190108", "Address": null, "Telephone": null }, "geometry": { "type": "Point", "coordinates": [ 121.017680664166662, 30.83755859388889 ] } },
{ "type": "Feature", "properties": { "Name": "坟泥桥", "Ctype": "村庄级地名", "Ntype": "190108", "Address": null, "Telephone": null }, "geometry": { "type": "Point", "coordinates": [ 121.032699381388895, 30.885687934166668 ] } },
{ "type": "Feature", "properties": { "Name": "水圩", "Ctype": "村庄级地名", "Ntype": "190108", "Address": null, "Telephone": null }, "geometry": { "type": "Point", "coordinates": [ 121.12088975694445, 30.897469889444444 ] } },
{ "type": "Feature", "properties": { "Name": "大千泾", "Ctype": "村庄级地名", "Ntype": "190108", "Address": null, "Telephone": null }, "geometry": { "type": "Point", "coordinates": [ 121.088228624166661, 30.860108235555554 ] } },
{ "type": "Feature", "properties": { "Name": "西菖蒲", "Ctype": "村庄级地名", "Ntype": "190108", "Address": null, "Telephone": null }, "geometry": { "type": "Point", "coordinates": [ 121.042859158055549, 30.832226291111109 ] } },
{ "type": "Feature", "properties": { "Name": "滚浜", "Ctype": "村庄级地名", "Ntype": "190108", "Address": null, "Telephone": null }, "geometry": { "type": "Point", "coordinates": [ 121.122460937499994, 30.868363715277777 ] } },
{ "type": "Feature", "properties": { "Name": "养义村", "Ctype": "村庄级地名", "Ntype": "190108", "Address": null, "Telephone": null }, "geometry": { "type": "Point", "coordinates": [ 121.028986666666668, 30.8407475 ] } },
{ "type": "Feature", "properties": { "Name": "漳水泾", "Ctype": "村庄级地名", "Ntype": "190108", "Address": null, "Telephone": null }, "geometry": { "type": "Point", "coordinates": [ 121.031485188888894, 30.832683105555557 ] } },
{ "type": "Feature", "properties": { "Name": "宋浜佬", "Ctype": "村庄级地名", "Ntype": "190108", "Address": null, "Telephone": null }, "geometry": { "type": "Point", "coordinates": [ 121.03060112861111, 30.894193250833332 ] } },
{ "type": "Feature", "properties": { "Name": "莒梧村", "Ctype": "村庄级地名", "Ntype": "190108", "Address": null, "Telephone": null }, "geometry": { "type": "Point", "coordinates": [ 121.01253777777778, 30.851326944444445 ] } },
{ "type": "Feature", "properties": { "Name": "楼里", "Ctype": "村庄级地名", "Ntype": "190108", "Address": null, "Telephone": null }, "geometry": { "type": "Point", "coordinates": [ 121.049776204444441, 30.848440755277778 ] } },
{ "type": "Feature", "properties": { "Name": "待泾村", "Ctype": "村庄级地名", "Ntype": "190108", "Address": null, "Telephone": null }, "geometry": { "type": "Point", "coordinates": [ 121.124072611111103, 30.882411555555553 ] } },
{ "type": "Feature", "properties": { "Name": "许家村", "Ctype": "村庄级地名", "Ntype": "190108", "Address": null, "Telephone": null }, "geometry": { "type": "Point", "coordinates": [ 121.026787109444442, 30.901438802222224 ] } },
{ "type": "Feature", "properties": { "Name": "王圩村", "Ctype": "村庄级地名", "Ntype": "190108", "Address": null, "Telephone": null }, "geometry": { "type": "Point", "coordinates": [ 121.063748055555564, 30.887560833333332 ] } },
{ "type": "Feature", "properties": { "Name": "盛家角", "Ctype": "村庄级地名", "Ntype": "190108", "Address": null, "Telephone": null }, "geometry": { "type": "Point", "coordinates": [ 121.072648925833334, 30.883216959722223 ] } },
{ "type": "Feature", "properties": { "Name": "蒋泾村", "Ctype": "村庄级地名", "Ntype": "190108", "Address": null, "Telephone": null }, "geometry": { "type": "Point", "coordinates": [ 121.121267777777774, 30.879131944444445 ] } },
{ "type": "Feature", "properties": { "Name": "沉家浜", "Ctype": "村庄级地名", "Ntype": "190108", "Address": null, "Telephone": null }, "geometry": { "type": "Point", "coordinates": [ 121.10589681, 30.883789605 ] } },
{ "type": "Feature", "properties": { "Name": "和尚浜", "Ctype": "村庄级地名", "Ntype": "190108", "Address": null, "Telephone": null }, "geometry": { "type": "Point", "coordinates": [ 121.036510688055557, 30.860365397222221 ] } },
{ "type": "Feature", "properties": { "Name": "宋家浜", "Ctype": "村庄级地名", "Ntype": "190108", "Address": null, "Telephone": null }, "geometry": { "type": "Point", "coordinates": [ 121.10292561861111, 30.851087510833334 ] } },
{ "type": "Feature", "properties": { "Name": "杨家村", "Ctype": "村庄级地名", "Ntype": "190108", "Address": null, "Telephone": null }, "geometry": { "type": "Point", "coordinates": [ 121.126822916666669, 30.852444390277778 ] } },
{ "type": "Feature", "properties": { "Name": "桥湾里", "Ctype": "村庄级地名", "Ntype": "190108", "Address": null, "Telephone": null }, "geometry": { "type": "Point", "coordinates": [ 121.076883409166669, 30.879941135 ] } },
{ "type": "Feature", "properties": { "Name": "牛家滩", "Ctype": "村庄级地名", "Ntype": "190108", "Address": null, "Telephone": null }, "geometry": { "type": "Point", "coordinates": [ 121.077475314722221, 30.882301432222221 ] } },
{ "type": "Feature", "properties": { "Name": "渠溇里", "Ctype": "村庄级地名", "Ntype": "190108", "Address": null, "Telephone": null }, "geometry": { "type": "Point", "coordinates": [ 121.077381998611102, 30.888764105833332 ] } },
{ "type": "Feature", "properties": { "Name": "联盟", "Ctype": "村庄级地名", "Ntype": "190108", "Address": null, "Telephone": null }, "geometry": { "type": "Point", "coordinates": [ 121.121320555555556, 30.897693055555557 ] } },
{ "type": "Feature", "properties": { "Name": "西周浜", "Ctype": "村庄级地名", "Ntype": "190108", "Address": null, "Telephone": null }, "geometry": { "type": "Point", "coordinates": [ 121.030133734722213, 30.846840549166668 ] } },
{ "type": "Feature", "properties": { "Name": "丁家楼", "Ctype": "村庄级地名", "Ntype": "190108", "Address": null, "Telephone": null }, "geometry": { "type": "Point", "coordinates": [ 121.08719726555556, 30.868743489722224 ] } },
{ "type": "Feature", "properties": { "Name": "杨中浜", "Ctype": "村庄级地名", "Ntype": "190108", "Address": null, "Telephone": null }, "geometry": { "type": "Point", "coordinates": [ 121.116602647500002, 30.878902723611112 ] } },
{ "type": "Feature", "properties": { "Name": "新泾里", "Ctype": "村庄级地名", "Ntype": "190108", "Address": null, "Telephone": null }, "geometry": { "type": "Point", "coordinates": [ 121.030839301111115, 30.849246690555557 ] } },
{ "type": "Feature", "properties": { "Name": "袁家浜", "Ctype": "村庄级地名", "Ntype": "190108", "Address": null, "Telephone": null }, "geometry": { "type": "Point", "coordinates": [ 121.015473904166669, 30.851435004444447 ] } },
{ "type": "Feature", "properties": { "Name": "薛家厍", "Ctype": "村庄级地名", "Ntype": "190108", "Address": null, "Telephone": null }, "geometry": { "type": "Point", "coordinates": [ 121.020365668333326, 30.863917643333334 ] } },
{ "type": "Feature", "properties": { "Name": "顾家宅", "Ctype": "村庄级地名", "Ntype": "190108", "Address": null, "Telephone": null }, "geometry": { "type": "Point", "coordinates": [ 121.026942545555556, 30.867875705277779 ] } },
{ "type": "Feature", "properties": { "Name": "东西港", "Ctype": "村庄级地名", "Ntype": "190108", "Address": null, "Telephone": null }, "geometry": { "type": "Point", "coordinates": [ 121.02977701833332, 30.866006673055555 ] } },
{ "type": "Feature", "properties": { "Name": "掘头浜", "Ctype": "村庄级地名", "Ntype": "190108", "Address": null, "Telephone": null }, "geometry": { "type": "Point", "coordinates": [ 121.116945258333331, 30.863154568055556 ] } },
{ "type": "Feature", "properties": { "Name": "伏盖滩", "Ctype": "村庄级地名", "Ntype": "190108", "Address": null, "Telephone": null }, "geometry": { "type": "Point", "coordinates": [ 121.031391872777775, 30.869715169166668 ] } },
{ "type": "Feature", "properties": { "Name": "顾家浜", "Ctype": "村庄级地名", "Ntype": "190108", "Address": null, "Telephone": null }, "geometry": { "type": "Point", "coordinates": [ 121.020609537777787, 30.854832899444446 ] } },
{ "type": "Feature", "properties": { "Name": "薛家浜", "Ctype": "村庄级地名", "Ntype": "190108", "Address": null, "Telephone": null }, "geometry": { "type": "Point", "coordinates": [ 121.053533528611112, 30.899645453611111 ] } },
{ "type": "Feature", "properties": { "Name": "葛家泾", "Ctype": "村庄级地名", "Ntype": "190108", "Address": null, "Telephone": null }, "geometry": { "type": "Point", "coordinates": [ 121.053406304166657, 30.873578016388887 ] } },
{ "type": "Feature", "properties": { "Name": "腰泾埭", "Ctype": "村庄级地名", "Ntype": "190108", "Address": null, "Telephone": null }, "geometry": { "type": "Point", "coordinates": [ 121.04296983499999, 30.83925944 ] } },
{ "type": "Feature", "properties": { "Name": "养字圩", "Ctype": "村庄级地名", "Ntype": "190108", "Address": null, "Telephone": null }, "geometry": { "type": "Point", "coordinates": [ 121.035640733611103, 30.845101453888887 ] } },
{ "type": "Feature", "properties": { "Name": "黄沙泾", "Ctype": "村庄级地名", "Ntype": "190108", "Address": null, "Telephone": null }, "geometry": { "type": "Point", "coordinates": [ 121.029055446944454, 30.837857259166668 ] } },
{ "type": "Feature", "properties": { "Name": "六条浜", "Ctype": "村庄级地名", "Ntype": "190108", "Address": null, "Telephone": null }, "geometry": { "type": "Point", "coordinates": [ 121.118799099444445, 30.865113389722222 ] } },
{ "type": "Feature", "properties": { "Name": "纵横里", "Ctype": "村庄级地名", "Ntype": "190108", "Address": null, "Telephone": null }, "geometry": { "type": "Point", "coordinates": [ 121.073029242499999, 30.857027452222223 ] } },
{ "type": "Feature", "properties": { "Name": "叶家浜", "Ctype": "村庄级地名", "Ntype": "190108", "Address": null, "Telephone": null }, "geometry": { "type": "Point", "coordinates": [ 121.030638563333341, 30.836203884444444 ] } },
{ "type": "Feature", "properties": { "Name": "晒旗浜", "Ctype": "村庄级地名", "Ntype": "190108", "Address": null, "Telephone": null }, "geometry": { "type": "Point", "coordinates": [ 121.105536566944437, 30.870441623333335 ] } },
{ "type": "Feature", "properties": { "Name": "六家沙", "Ctype": "村庄级地名", "Ntype": "190108", "Address": null, "Telephone": null }, "geometry": { "type": "Point", "coordinates": [ 121.098111707777775, 30.91349772138889 ] } },
{ "type": "Feature", "properties": { "Name": "长安村", "Ctype": "村庄级地名", "Ntype": "190108", "Address": null, "Telephone": null }, "geometry": { "type": "Point", "coordinates": [ 121.05537245, 30.897558593888888 ] } },
{ "type": "Feature", "properties": { "Name": "夹漏里", "Ctype": "村庄级地名", "Ntype": "190108", "Address": null, "Telephone": null }, "geometry": { "type": "Point", "coordinates": [ 121.125507269999986, 30.843648817222221 ] } },
{ "type": "Feature", "properties": { "Name": "水旺村", "Ctype": "村庄级地名", "Ntype": "190108", "Address": null, "Telephone": null }, "geometry": { "type": "Point", "coordinates": [ 121.045089518333327, 30.903824056111112 ] } },
{ "type": "Feature", "properties": { "Name": "胡丘浜", "Ctype": "村庄级地名", "Ntype": "190108", "Address": null, "Telephone": null }, "geometry": { "type": "Point", "coordinates": [ 121.09640625, 30.859966905277776 ] } },
{ "type": "Feature", "properties": { "Name": "三秀村", "Ctype": "村庄级地名", "Ntype": "190108", "Address": null, "Telephone": null }, "geometry": { "type": "Point", "coordinates": [ 121.075504444444448, 30.907436111111114 ] } },
{ "type": "Feature", "properties": { "Name": "五居村", "Ctype": "村庄级地名", "Ntype": "190108", "Address": null, "Telephone": null }, "geometry": { "type": "Point", "coordinates": [ 121.072413736944455, 30.874235568611113 ] } },
{ "type": "Feature", "properties": { "Name": "陆家村", "Ctype": "村庄级地名", "Ntype": "190108", "Address": null, "Telephone": null }, "geometry": { "type": "Point", "coordinates": [ 121.037772081111115, 30.898843858611112 ] } },
{ "type": "Feature", "properties": { "Name": "钓钩村", "Ctype": "村庄级地名", "Ntype": "190108", "Address": null, "Telephone": null }, "geometry": { "type": "Point", "coordinates": [ 121.045786404166677, 30.910285644444443 ] } },
{ "type": "Feature", "properties": { "Name": "西南长浜", "Ctype": "村庄级地名", "Ntype": "190108", "Address": null, "Telephone": null }, "geometry": { "type": "Point", "coordinates": [ 121.125530056388897, 30.839057345833332 ] } },
{ "type": "Feature", "properties": { "Name": "何家浜", "Ctype": "村庄级地名", "Ntype": "190108", "Address": null, "Telephone": null }, "geometry": { "type": "Point", "coordinates": [ 121.025190972222219, 30.835151909722221 ] } },
{ "type": "Feature", "properties": { "Name": "唐边村", "Ctype": "村庄级地名", "Ntype": "190108", "Address": null, "Telephone": null }, "geometry": { "type": "Point", "coordinates": [ 121.024227430555555, 30.856889648333333 ] } },
{ "type": "Feature", "properties": { "Name": "荒家浜", "Ctype": "村庄级地名", "Ntype": "190108", "Address": null, "Telephone": null }, "geometry": { "type": "Point", "coordinates": [ 121.089054633333333, 30.885523274722221 ] } },
{ "type": "Feature", "properties": { "Name": "湾地佬", "Ctype": "村庄级地名", "Ntype": "190108", "Address": null, "Telephone": null }, "geometry": { "type": "Point", "coordinates": [ 121.064476182777767, 30.882631293333333 ] } },
{ "type": "Feature", "properties": { "Name": "韩坞村", "Ctype": "村庄级地名", "Ntype": "190108", "Address": null, "Telephone": null }, "geometry": { "type": "Point", "coordinates": [ 121.105472777777777, 30.913813055555554 ] } },
{ "type": "Feature", "properties": { "Name": "汇家浜", "Ctype": "村庄级地名", "Ntype": "190108", "Address": null, "Telephone": null }, "geometry": { "type": "Point", "coordinates": [ 121.060466851111102, 30.877813585 ] } },
{ "type": "Feature", "properties": { "Name": "庄屠村", "Ctype": "村庄级地名", "Ntype": "190108", "Address": null, "Telephone": null }, "geometry": { "type": "Point", "coordinates": [ 121.032581651388881, 30.902159288333333 ] } },
{ "type": "Feature", "properties": { "Name": "庄家栅", "Ctype": "村庄级地名", "Ntype": "190108", "Address": null, "Telephone": null }, "geometry": { "type": "Point", "coordinates": [ 121.049929199166669, 30.84468668611111 ] } },
{ "type": "Feature", "properties": { "Name": "西王村", "Ctype": "村庄级地名", "Ntype": "190108", "Address": null, "Telephone": null }, "geometry": { "type": "Point", "coordinates": [ 121.104075249444449, 30.878472493611113 ] } },
{ "type": "Feature", "properties": { "Name": "蛙眼潭", "Ctype": "村庄级地名", "Ntype": "190108", "Address": null, "Telephone": null }, "geometry": { "type": "Point", "coordinates": [ 121.116038411388885, 30.872183431111111 ] } },
{ "type": "Feature", "properties": { "Name": "东里浜", "Ctype": "村庄级地名", "Ntype": "190108", "Address": null, "Telephone": null }, "geometry": { "type": "Point", "coordinates": [ 121.029043782499997, 30.863838433055555 ] } },
{ "type": "Feature", "properties": { "Name": "外港", "Ctype": "村庄级地名", "Ntype": "190108", "Address": null, "Telephone": null }, "geometry": { "type": "Point", "coordinates": [ 121.029802246111117, 30.890235731388888 ] } },
{ "type": "Feature", "properties": { "Name": "唐仰庄", "Ctype": "村庄级地名", "Ntype": "190108", "Address": null, "Telephone": null }, "geometry": { "type": "Point", "coordinates": [ 121.020982259166658, 30.835834147222222 ] } },
{ "type": "Feature", "properties": { "Name": "尼姑溇", "Ctype": "村庄级地名", "Ntype": "190108", "Address": null, "Telephone": null }, "geometry": { "type": "Point", "coordinates": [ 121.099674479166666, 30.893234049444445 ] } },
{ "type": "Feature", "properties": { "Name": "新开河", "Ctype": "村庄级地名", "Ntype": "190108", "Address": null, "Telephone": null }, "geometry": { "type": "Point", "coordinates": [ 121.063353949722227, 30.874428439722223 ] } },
{ "type": "Feature", "properties": { "Name": "渡浜里", "Ctype": "村庄级地名", "Ntype": "190108", "Address": null, "Telephone": null }, "geometry": { "type": "Point", "coordinates": [ 121.120292426111121, 30.878044705 ] } },
{ "type": "Feature", "properties": { "Name": "张家屋", "Ctype": "村庄级地名", "Ntype": "190108", "Address": null, "Telephone": null }, "geometry": { "type": "Point", "coordinates": [ 121.123841688333343, 30.86466824 ] } },
{ "type": "Feature", "properties": { "Name": "西菖浦", "Ctype": "村庄级地名", "Ntype": "190108", "Address": null, "Telephone": null }, "geometry": { "type": "Point", "coordinates": [ 121.048213975833335, 30.834146050277777 ] } },
{ "type": "Feature", "properties": { "Name": "曹家坞", "Ctype": "村庄级地名", "Ntype": "190108", "Address": null, "Telephone": null }, "geometry": { "type": "Point", "coordinates": [ 121.091534016944451, 30.9052734375 ] } },
{ "type": "Feature", "properties": { "Name": "王圩里", "Ctype": "村庄级地名", "Ntype": "190108", "Address": null, "Telephone": null }, "geometry": { "type": "Point", "coordinates": [ 121.07360487194444, 30.901175672777779 ] } },
{ "type": "Feature", "properties": { "Name": "芝麻浜", "Ctype": "村庄级地名", "Ntype": "190108", "Address": null, "Telephone": null }, "geometry": { "type": "Point", "coordinates": [ 121.012441406388888, 30.857710503611113 ] } },
{ "type": "Feature", "properties": { "Name": "张万村", "Ctype": "村庄级地名", "Ntype": "190108", "Address": null, "Telephone": null }, "geometry": { "type": "Point", "coordinates": [ 121.033763020833334, 30.83607530388889 ] } },
{ "type": "Feature", "properties": { "Name": "西庙泾", "Ctype": "村庄级地名", "Ntype": "190108", "Address": null, "Telephone": null }, "geometry": { "type": "Point", "coordinates": [ 121.03311306416667, 30.861496039444443 ] } },
{ "type": "Feature", "properties": { "Name": "堰兜里", "Ctype": "村庄级地名", "Ntype": "190108", "Address": null, "Telephone": null }, "geometry": { "type": "Point", "coordinates": [ 121.017084418333326, 30.8492203775 ] } },
{ "type": "Feature", "properties": { "Name": "卫星村", "Ctype": "村庄级地名", "Ntype": "190108", "Address": null, "Telephone": null }, "geometry": { "type": "Point", "coordinates": [ 121.088656944444438, 30.888747777777777 ] } },
{ "type": "Feature", "properties": { "Name": "长征村", "Ctype": "村庄级地名", "Ntype": "190108", "Address": null, "Telephone": null }, "geometry": { "type": "Point", "coordinates": [ 121.070473333333339, 30.90004027777778 ] } },
{ "type": "Feature", "properties": { "Name": "兴塔", "Ctype": "村庄级地名", "Ntype": "190108", "Address": null, "Telephone": null }, "geometry": { "type": "Point", "coordinates": [ 121.059691944444438, 30.867479166666666 ] } },
{ "type": "Feature", "properties": { "Name": "厍北村", "Ctype": "村庄级地名", "Ntype": "190108", "Address": null, "Telephone": null }, "geometry": { "type": "Point", "coordinates": [ 121.049058431111106, 30.87216579861111 ] } },
{ "type": "Feature", "properties": { "Name": "湾底佬", "Ctype": "村庄级地名", "Ntype": "190108", "Address": null, "Telephone": null }, "geometry": { "type": "Point", "coordinates": [ 121.03033881305555, 30.896660698888891 ] } },
{ "type": "Feature", "properties": { "Name": "泥桥楼", "Ctype": "村庄级地名", "Ntype": "190108", "Address": null, "Telephone": null }, "geometry": { "type": "Point", "coordinates": [ 121.028942871111113, 30.884363878055556 ] } },
{ "type": "Feature", "properties": { "Name": "陈家湾", "Ctype": "村庄级地名", "Ntype": "190108", "Address": null, "Telephone": null }, "geometry": { "type": "Point", "coordinates": [ 121.018777669166667, 30.911483561111112 ] } },
{ "type": "Feature", "properties": { "Name": "厍佬", "Ctype": "村庄级地名", "Ntype": "190108", "Address": null, "Telephone": null }, "geometry": { "type": "Point", "coordinates": [ 121.084724392500007, 30.855511881388889 ] } },
{ "type": "Feature", "properties": { "Name": "吊沟浜", "Ctype": "村庄级地名", "Ntype": "190108", "Address": null, "Telephone": null }, "geometry": { "type": "Point", "coordinates": [ 121.045895453611109, 30.908357747500002 ] } },
{ "type": "Feature", "properties": { "Name": "南旺泾", "Ctype": "村庄级地名", "Ntype": "190108", "Address": null, "Telephone": null }, "geometry": { "type": "Point", "coordinates": [ 121.019758843333335, 30.872023383333335 ] } },
{ "type": "Feature", "properties": { "Name": "陆方庵", "Ctype": "村庄级地名", "Ntype": "190108", "Address": null, "Telephone": null }, "geometry": { "type": "Point", "coordinates": [ 121.048368055555557, 30.841849772222222 ] } },
{ "type": "Feature", "properties": { "Name": "秋字圩", "Ctype": "村庄级地名", "Ntype": "190108", "Address": null, "Telephone": null }, "geometry": { "type": "Point", "coordinates": [ 121.127498643611119, 30.881787923055555 ] } },
{ "type": "Feature", "properties": { "Name": "大荒泾", "Ctype": "村庄级地名", "Ntype": "190108", "Address": null, "Telephone": null }, "geometry": { "type": "Point", "coordinates": [ 121.107744954444442, 30.850946994444445 ] } },
{ "type": "Feature", "properties": { "Name": "溇佬", "Ctype": "村庄级地名", "Ntype": "190108", "Address": null, "Telephone": null }, "geometry": { "type": "Point", "coordinates": [ 121.09681070972222, 30.884354926111111 ] } },
{ "type": "Feature", "properties": { "Name": "鸽溇浜", "Ctype": "村庄级地名", "Ntype": "190108", "Address": null, "Telephone": null }, "geometry": { "type": "Point", "coordinates": [ 121.081343587222221, 30.878813205277776 ] } },
{ "type": "Feature", "properties": { "Name": "三角里", "Ctype": "村庄级地名", "Ntype": "190108", "Address": null, "Telephone": null }, "geometry": { "type": "Point", "coordinates": [ 121.127722384166674, 30.849304803888888 ] } },
{ "type": "Feature", "properties": { "Name": "杨记浜", "Ctype": "村庄级地名", "Ntype": "190108", "Address": null, "Telephone": null }, "geometry": { "type": "Point", "coordinates": [ 121.079314507500001, 30.885118272499998 ] } },
{ "type": "Feature", "properties": { "Name": "王泥浜", "Ctype": "村庄级地名", "Ntype": "190108", "Address": null, "Telephone": null }, "geometry": { "type": "Point", "coordinates": [ 121.035966254444432, 30.837904188333333 ] } },
{ "type": "Feature", "properties": { "Name": "长生庵", "Ctype": "村庄级地名", "Ntype": "190108", "Address": null, "Telephone": null }, "geometry": { "type": "Point", "coordinates": [ 121.024440104166672, 30.877476128611111 ] } },
{ "type": "Feature", "properties": { "Name": "新黎村", "Ctype": "村庄级地名", "Ntype": "190108", "Address": null, "Telephone": null }, "geometry": { "type": "Point", "coordinates": [ 121.074583611111109, 30.862317777777776 ] } },
{ "type": "Feature", "properties": { "Name": "坟浜里", "Ctype": "村庄级地名", "Ntype": "190108", "Address": null, "Telephone": null }, "geometry": { "type": "Point", "coordinates": [ 121.058868272499993, 30.882430284166666 ] } },
{ "type": "Feature", "properties": { "Name": "曹都村", "Ctype": "村庄级地名", "Ntype": "190108", "Address": null, "Telephone": null }, "geometry": { "type": "Point", "coordinates": [ 121.102398611111113, 30.863535833333334 ] } },
{ "type": "Feature", "properties": { "Name": "曹都", "Ctype": "村庄级地名", "Ntype": "190108", "Address": null, "Telephone": null }, "geometry": { "type": "Point", "coordinates": [ 121.108331111111113, 30.867745555555558 ] } },
{ "type": "Feature", "properties": { "Name": "蒋浜", "Ctype": "村庄级地名", "Ntype": "190108", "Address": null, "Telephone": null }, "geometry": { "type": "Point", "coordinates": [ 121.047624166666665, 30.843991666666664 ] } },
{ "type": "Feature", "properties": { "Name": "扇子浜", "Ctype": "村庄级地名", "Ntype": "190108", "Address": null, "Telephone": null }, "geometry": { "type": "Point", "coordinates": [ 121.080233832499985, 30.864273817222223 ] } },
{ "type": "Feature", "properties": { "Name": "陈蔡", "Ctype": "村庄级地名", "Ntype": "190108", "Address": null, "Telephone": null }, "geometry": { "type": "Point", "coordinates": [ 121.092179361944446, 30.893837076944447 ] } },
{ "type": "Feature", "properties": { "Name": "黄字圩", "Ctype": "村庄级地名", "Ntype": "190108", "Address": null, "Telephone": null }, "geometry": { "type": "Point", "coordinates": [ 121.064094780833344, 30.865910915833332 ] } },
{ "type": "Feature", "properties": { "Name": "马家浜", "Ctype": "村庄级地名", "Ntype": "190108", "Address": null, "Telephone": null }, "geometry": { "type": "Point", "coordinates": [ 121.009813096666676, 30.897133517777778 ] } },
{ "type": "Feature", "properties": { "Name": "冯家浜", "Ctype": "村庄级地名", "Ntype": "190108", "Address": null, "Telephone": null }, "geometry": { "type": "Point", "coordinates": [ 121.032995063055552, 30.866515570833332 ] } },
{ "type": "Feature", "properties": { "Name": "王良浜", "Ctype": "村庄级地名", "Ntype": "190108", "Address": null, "Telephone": null }, "geometry": { "type": "Point", "coordinates": [ 121.035519748333328, 30.835224338055554 ] } },
{ "type": "Feature", "properties": { "Name": "顾家漾", "Ctype": "村庄级地名", "Ntype": "190108", "Address": null, "Telephone": null }, "geometry": { "type": "Point", "coordinates": [ 121.034543728333318, 30.83980143222222 ] } },
{ "type": "Feature", "properties": { "Name": "唐家厍", "Ctype": "村庄级地名", "Ntype": "190108", "Address": null, "Telephone": null }, "geometry": { "type": "Point", "coordinates": [ 121.123861490833335, 30.862952473888889 ] } },
{ "type": "Feature", "properties": { "Name": "姚佬港浜", "Ctype": "村庄级地名", "Ntype": "190108", "Address": null, "Telephone": null }, "geometry": { "type": "Point", "coordinates": [ 121.120099555, 30.855901421388889 ] } },
{ "type": "Feature", "properties": { "Name": "长浜里", "Ctype": "村庄级地名", "Ntype": "190108", "Address": null, "Telephone": null }, "geometry": { "type": "Point", "coordinates": [ 121.127769911111116, 30.839992675833333 ] } },
{ "type": "Feature", "properties": { "Name": "蒋泾佬", "Ctype": "村庄级地名", "Ntype": "190108", "Address": null, "Telephone": null }, "geometry": { "type": "Point", "coordinates": [ 121.122792426111118, 30.878224283888891 ] } },
{ "type": "Feature", "properties": { "Name": "五一村", "Ctype": "村庄级地名", "Ntype": "190108", "Address": null, "Telephone": null }, "geometry": { "type": "Point", "coordinates": [ 121.088379498888884, 30.880811663611109 ] } },
{ "type": "Feature", "properties": { "Name": "蔡家村", "Ctype": "村庄级地名", "Ntype": "190108", "Address": null, "Telephone": null }, "geometry": { "type": "Point", "coordinates": [ 121.022132161388882, 30.86951009111111 ] } },
{ "type": "Feature", "properties": { "Name": "线里浜", "Ctype": "村庄级地名", "Ntype": "190108", "Address": null, "Telephone": null }, "geometry": { "type": "Point", "coordinates": [ 121.099457193888895, 30.901745876666666 ] } },
{ "type": "Feature", "properties": { "Name": "地字圩", "Ctype": "村庄级地名", "Ntype": "190108", "Address": null, "Telephone": null }, "geometry": { "type": "Point", "coordinates": [ 121.064535047777767, 30.868699273055554 ] } },
{ "type": "Feature", "properties": { "Name": "奶字圩", "Ctype": "村庄级地名", "Ntype": "190108", "Address": null, "Telephone": null }, "geometry": { "type": "Point", "coordinates": [ 121.07356987861111, 30.879480794166668 ] } },
{ "type": "Feature", "properties": { "Name": "成功村", "Ctype": "村庄级地名", "Ntype": "190108", "Address": null, "Telephone": null }, "geometry": { "type": "Point", "coordinates": [ 121.088313611111118, 30.873015555555554 ] } },
{ "type": "Feature", "properties": { "Name": "小泖泾", "Ctype": "村庄级地名", "Ntype": "190108", "Address": null, "Telephone": null }, "geometry": { "type": "Point", "coordinates": [ 121.09675211583334, 30.865971408333333 ] } },
{ "type": "Feature", "properties": { "Name": "园琴浜", "Ctype": "村庄级地名", "Ntype": "190108", "Address": null, "Telephone": null }, "geometry": { "type": "Point", "coordinates": [ 121.1048817275, 30.907051052499998 ] } },
{ "type": "Feature", "properties": { "Name": "西厍", "Ctype": "村庄级地名", "Ntype": "190108", "Address": null, "Telephone": null }, "geometry": { "type": "Point", "coordinates": [ 121.052551811944454, 30.871408962777778 ] } },
{ "type": "Feature", "properties": { "Name": "俞汇村", "Ctype": "村庄级地名", "Ntype": "190108", "Address": null, "Telephone": null }, "geometry": { "type": "Point", "coordinates": [ 121.005495555555555, 30.905136111111112 ] } },
{ "type": "Feature", "properties": { "Name": "北旺泾", "Ctype": "村庄级地名", "Ntype": "190108", "Address": null, "Telephone": null }, "geometry": { "type": "Point", "coordinates": [ 121.029621853333325, 30.879264865555555 ] } },
{ "type": "Feature", "properties": { "Name": "赵中浜", "Ctype": "村庄级地名", "Ntype": "190108", "Address": null, "Telephone": null }, "geometry": { "type": "Point", "coordinates": [ 121.064473198888876, 30.9091208225 ] } },
{ "type": "Feature", "properties": { "Name": "澎朝", "Ctype": "村庄级地名", "Ntype": "190108", "Address": null, "Telephone": null }, "geometry": { "type": "Point", "coordinates": [ 121.126184895833333, 30.869460178055558 ] } },
{ "type": "Feature", "properties": { "Name": "一字圩", "Ctype": "村庄级地名", "Ntype": "190108", "Address": null, "Telephone": null }, "geometry": { "type": "Point", "coordinates": [ 121.057200792222218, 30.906024305555555 ] } },
{ "type": "Feature", "properties": { "Name": "西泖村", "Ctype": "村庄级地名", "Ntype": "190108", "Address": null, "Telephone": null }, "geometry": { "type": "Point", "coordinates": [ 121.124992675833326, 30.842535807222223 ] } },
{ "type": "Feature", "properties": { "Name": "掘溇浜", "Ctype": "村庄级地名", "Ntype": "190108", "Address": null, "Telephone": null }, "geometry": { "type": "Point", "coordinates": [ 121.027727593333339, 30.857792968888891 ] } },
{ "type": "Feature", "properties": { "Name": "金浦村", "Ctype": "村庄级地名", "Ntype": "190108", "Address": null, "Telephone": null }, "geometry": { "type": "Point", "coordinates": [ 121.008278808611109, 30.838627929722222 ] } },
{ "type": "Feature", "properties": { "Name": "鸭头溇", "Ctype": "村庄级地名", "Ntype": "190108", "Address": null, "Telephone": null }, "geometry": { "type": "Point", "coordinates": [ 121.046017795277777, 30.898385145277778 ] } },
{ "type": "Feature", "properties": { "Name": "诸童浜", "Ctype": "村庄级地名", "Ntype": "190108", "Address": null, "Telephone": null }, "geometry": { "type": "Point", "coordinates": [ 121.074796278333324, 30.896373426666667 ] } },
{ "type": "Feature", "properties": { "Name": "荒地湾", "Ctype": "村庄级地名", "Ntype": "190108", "Address": null, "Telephone": null }, "geometry": { "type": "Point", "coordinates": [ 121.105439181944448, 30.853963216111111 ] } },
{ "type": "Feature", "properties": { "Name": "蟹斋浜", "Ctype": "村庄级地名", "Ntype": "190108", "Address": null, "Telephone": null }, "geometry": { "type": "Point", "coordinates": [ 121.128863661111112, 30.861318630555555 ] } },
{ "type": "Feature", "properties": { "Name": "服装厂", "Ctype": "村庄级地名", "Ntype": "190108", "Address": null, "Telephone": null }, "geometry": { "type": "Point", "coordinates": [ 121.042648654444449, 30.86849555111111 ] } },
{ "type": "Feature", "properties": { "Name": "斜泾港", "Ctype": "村庄级地名", "Ntype": "190108", "Address": null, "Telephone": null }, "geometry": { "type": "Point", "coordinates": [ 121.024864637500002, 30.844591471388888 ] } },
{ "type": "Feature", "properties": { "Name": "范项村", "Ctype": "村庄级地名", "Ntype": "190108", "Address": null, "Telephone": null }, "geometry": { "type": "Point", "coordinates": [ 121.060973307222227, 30.87173882388889 ] } },
{ "type": "Feature", "properties": { "Name": "曹庄", "Ctype": "村庄级地名", "Ntype": "190108", "Address": null, "Telephone": null }, "geometry": { "type": "Point", "coordinates": [ 121.091898871666672, 30.874387478333333 ] } },
{ "type": "Feature", "properties": { "Name": "楼上村", "Ctype": "村庄级地名", "Ntype": "190108", "Address": null, "Telephone": null }, "geometry": { "type": "Point", "coordinates": [ 121.096600555555554, 30.884913888888889 ] } },
{ "type": "Feature", "properties": { "Name": "彭家村", "Ctype": "村庄级地名", "Ntype": "190108", "Address": null, "Telephone": null }, "geometry": { "type": "Point", "coordinates": [ 121.119832085555558, 30.881866590833333 ] } },
{ "type": "Feature", "properties": { "Name": "五星村", "Ctype": "村庄级地名", "Ntype": "190108", "Address": null, "Telephone": null }, "geometry": { "type": "Point", "coordinates": [ 121.048630833333334, 30.84201361111111 ] } },
{ "type": "Feature", "properties": { "Name": "朱长浜", "Ctype": "村庄级地名", "Ntype": "190108", "Address": null, "Telephone": null }, "geometry": { "type": "Point", "coordinates": [ 121.103479003888879, 30.901550293055557 ] } },
{ "type": "Feature", "properties": { "Name": "孟家溇", "Ctype": "村庄级地名", "Ntype": "190108", "Address": null, "Telephone": null }, "geometry": { "type": "Point", "coordinates": [ 121.111464572499997, 30.912395833333335 ] } },
{ "type": "Feature", "properties": { "Name": "南堰村", "Ctype": "村庄级地名", "Ntype": "190108", "Address": null, "Telephone": null }, "geometry": { "type": "Point", "coordinates": [ 121.082475857222221, 30.889691840277777 ] } },
{ "type": "Feature", "properties": { "Name": "四过桥", "Ctype": "村庄级地名", "Ntype": "190108", "Address": null, "Telephone": null }, "geometry": { "type": "Point", "coordinates": [ 121.079622124444441, 30.856931966111112 ] } },
{ "type": "Feature", "properties": { "Name": "杨树下", "Ctype": "村庄级地名", "Ntype": "190108", "Address": null, "Telephone": null }, "geometry": { "type": "Point", "coordinates": [ 121.032387695277791, 30.850300564166666 ] } },
{ "type": "Feature", "properties": { "Name": "大屋佬", "Ctype": "村庄级地名", "Ntype": "190108", "Address": null, "Telephone": null }, "geometry": { "type": "Point", "coordinates": [ 121.125108778333328, 30.854167209166665 ] } },