{
"type": "FeatureCollection",
"crs": { "type": "name", "properties": { "name": "urn:ogc:def:crs:OGC:1.3:CRS84" } },
"features": [
{ "type": "Feature", "properties": { "Name": "育田村王田中心卫生室", "Ctype": "诊所", "Ntype": "090300", "Address": "育田村王田１２９－１３５", "Telephone": null }, "geometry": { "type": "Point", "coordinates": [ 120.978106825, 31.068577202777778 ] } },
{ "type": "Feature", "properties": { "Name": "西岑药店", "Ctype": "药房", "Ntype": "090601", "Address": "西岑镇西虹街３３６", "Telephone": null }, "geometry": { "type": "Point", "coordinates": [ 120.966156955277768, 31.06732638888889 ] } },
{ "type": "Feature", "properties": { "Name": "青浦区金泽镇育田村育坪卫生室", "Ctype": "诊所", "Ntype": "090300", "Address": null, "Telephone": null }, "geometry": { "type": "Point", "coordinates": [ 120.981050347222222, 31.078742133333336 ] } },
{ "type": "Feature", "properties": { "Name": "青浦区金泽镇岑卜村卫生室", "Ctype": "诊所", "Ntype": "090300", "Address": null, "Telephone": null }, "geometry": { "type": "Point", "coordinates": [ 120.942381727500006, 31.059088541666668 ] } },
{ "type": "Feature", "properties": { "Name": "云湖医药（金泽药店）", "Ctype": "药房", "Ntype": "090601", "Address": "金泽镇金溪路３２８", "Telephone": null }, "geometry": { "type": "Point", "coordinates": [ 120.918203667500009, 31.037063259444444 ] } },
{ "type": "Feature", "properties": { "Name": "西岑动检站", "Ctype": "动物医疗场所", "Ntype": "090700", "Address": null, "Telephone": null }, "geometry": { "type": "Point", "coordinates": [ 120.928195258333332, 31.06829806861111 ] } },
{ "type": "Feature", "properties": { "Name": "云湖（衍欣药店）", "Ctype": "药房", "Ntype": "090601", "Address": "练西公路４４１２", "Telephone": null }, "geometry": { "type": "Point", "coordinates": [ 120.96304796, 31.067810872500001 ] } },
{ "type": "Feature", "properties": { "Name": "雷允上（盛厚大药房）", "Ctype": "药房", "Ntype": "090601", "Address": "岑杨路１８４号", "Telephone": null }, "geometry": { "type": "Point", "coordinates": [ 120.966164821944446, 31.065253092500001 ] } },
{ "type": "Feature", "properties": { "Name": "龚都（金泽）动检站", "Ctype": "动物医疗场所", "Ntype": "090700", "Address": null, "Telephone": null }, "geometry": { "type": "Point", "coordinates": [ 120.9679082575, 31.020302463055554 ] } },
{ "type": "Feature", "properties": { "Name": "练塘镇叶港村水产卫生室", "Ctype": "诊所", "Ntype": "090300", "Address": null, "Telephone": null }, "geometry": { "type": "Point", "coordinates": [ 121.004325086944448, 31.009971245555555 ] } },
{ "type": "Feature", "properties": { "Name": "金泽镇阳光之家", "Ctype": "医疗保健服务场所", "Ntype": "090000", "Address": null, "Telephone": null }, "geometry": { "type": "Point", "coordinates": [ 120.919557020277779, 31.034653049166668 ] } },
{ "type": "Feature", "properties": { "Name": "练塘镇叶港村高家港卫生室", "Ctype": "诊所", "Ntype": "090300", "Address": "叶港村高家港４５号附近", "Telephone": null }, "geometry": { "type": "Point", "coordinates": [ 120.997537977500002, 31.016333007777778 ] } },
{ "type": "Feature", "properties": { "Name": "好药师大药房（冯盛药房）", "Ctype": "药房", "Ntype": "090601", "Address": "金溪路８２号", "Telephone": null }, "geometry": { "type": "Point", "coordinates": [ 120.92325982, 31.036589626666665 ] } },
{ "type": "Feature", "properties": { "Name": "商周路药店", "Ctype": "药房", "Ntype": "090601", "Address": "商周公路１８５号", "Telephone": null }, "geometry": { "type": "Point", "coordinates": [ 120.917974175277777, 31.117283528611111 ] } },
{ "type": "Feature", "properties": { "Name": "闵康口腔门诊部", "Ctype": "诊所", "Ntype": "090300", "Address": "商蔡路５０弄附近", "Telephone": null }, "geometry": { "type": "Point", "coordinates": [ 120.925148111944452, 31.115205620555553 ] } },
{ "type": "Feature", "properties": { "Name": "好药师大药房（双塔药店）", "Ctype": "药房", "Ntype": "090601", "Address": "商周公路９３", "Telephone": null }, "geometry": { "type": "Point", "coordinates": [ 120.921017795277777, 31.116405165 ] } },
{ "type": "Feature", "properties": { "Name": "雷允上（商榻镇房地所北）", "Ctype": "药房", "Ntype": "090601", "Address": null, "Telephone": null }, "geometry": { "type": "Point", "coordinates": [ 120.925821397500002, 31.11873318138889 ] } },
{ "type": "Feature", "properties": { "Name": "云湖医药（商榻药店）", "Ctype": "药房", "Ntype": "090601", "Address": "商榻镇", "Telephone": null }, "geometry": { "type": "Point", "coordinates": [ 120.924772678055547, 31.115890299444445 ] } },
{ "type": "Feature", "properties": { "Name": "金泽镇淀西村前荇卫生室", "Ctype": "诊所", "Ntype": "090300", "Address": null, "Telephone": null }, "geometry": { "type": "Point", "coordinates": [ 120.920864529166664, 31.12441053611111 ] } },
{ "type": "Feature", "properties": { "Name": "朱家角镇淀峰村卫生室", "Ctype": "诊所", "Ntype": "090300", "Address": "淀峰村１６２", "Telephone": null }, "geometry": { "type": "Point", "coordinates": [ 120.98713243277777, 31.090620388333331 ] } },
{ "type": "Feature", "properties": { "Name": "刘子龙宠物（枫泾店）", "Ctype": "动物医疗场所", "Ntype": "090700", "Address": "新泾路３１８", "Telephone": null }, "geometry": { "type": "Point", "coordinates": [ 121.012500555555548, 30.889360833333331 ] } },
{ "type": "Feature", "properties": { "Name": "康怡星健康理疗馆", "Ctype": "医疗保健服务场所", "Ntype": "090000", "Address": "新泾路３５", "Telephone": null }, "geometry": { "type": "Point", "coordinates": [ 121.018055, 30.886201666666668 ] } },
{ "type": "Feature", "properties": { "Name": "朱泾社区卫生服务中心待步泾中心卫生室", "Ctype": "诊所", "Ntype": "090300", "Address": null, "Telephone": null }, "geometry": { "type": "Point", "coordinates": [ 121.124041883611113, 30.885040961388889 ] } },
{ "type": "Feature", "properties": { "Name": "枫泾镇兴塔村卫生室", "Ctype": "诊所", "Ntype": "090300", "Address": null, "Telephone": "021-57363167" }, "geometry": { "type": "Point", "coordinates": [ 121.062119954444455, 30.867272949166665 ] } },
{ "type": "Feature", "properties": { "Name": "枫泾镇卫星村卫生室", "Ctype": "诊所", "Ntype": "090300", "Address": null, "Telephone": "021-37213515" }, "geometry": { "type": "Point", "coordinates": [ 121.087053765277787, 30.892057020277775 ] } },
{ "type": "Feature", "properties": { "Name": "金山区枫泾镇盛新村卫生室", "Ctype": "诊所", "Ntype": "090300", "Address": null, "Telephone": null }, "geometry": { "type": "Point", "coordinates": [ 121.056362023611115, 30.877437593055554 ] } },
{ "type": "Feature", "properties": { "Name": "上海恒德大药房有限公司（枫健药店）", "Ctype": "药房", "Ntype": "090601", "Address": "中大街２１５", "Telephone": null }, "geometry": { "type": "Point", "coordinates": [ 121.014737222222223, 30.887220555555558 ] } },
{ "type": "Feature", "properties": { "Name": "枫泾镇新黎村卫生室", "Ctype": "诊所", "Ntype": "090300", "Address": null, "Telephone": null }, "geometry": { "type": "Point", "coordinates": [ 121.074858398333348, 30.861732313333334 ] } },
{ "type": "Feature", "properties": { "Name": "枫泾镇俞汇村卫生室", "Ctype": "诊所", "Ntype": "090300", "Address": null, "Telephone": null }, "geometry": { "type": "Point", "coordinates": [ 121.005955132499992, 30.905062662777777 ] } },
{ "type": "Feature", "properties": { "Name": "上海恒德大药房有限公司（枫泾药店）", "Ctype": "药房", "Ntype": "090601", "Address": "枫丽路１９８－２００", "Telephone": null }, "geometry": { "type": "Point", "coordinates": [ 121.017292500000011, 30.887174166666668 ] } },
{ "type": "Feature", "properties": { "Name": "亲民大药房（泾波路店）", "Ctype": "药房", "Ntype": "090601", "Address": "泾波路１０８", "Telephone": "021-57356845" }, "geometry": { "type": "Point", "coordinates": [ 121.013850277777777, 30.890389722222224 ] } },
{ "type": "Feature", "properties": { "Name": "好药师大药房（万枫路药店）", "Ctype": "药房", "Ntype": "090601", "Address": null, "Telephone": null }, "geometry": { "type": "Point", "coordinates": [ 121.044051106666672, 30.894569498611112 ] } },
{ "type": "Feature", "properties": { "Name": "枫泾镇新义村中心卫生室", "Ctype": "诊所", "Ntype": "090300", "Address": null, "Telephone": null }, "geometry": { "type": "Point", "coordinates": [ 121.03461, 30.854946 ] } },
{ "type": "Feature", "properties": { "Name": "嘉善人福大药房", "Ctype": "药房", "Ntype": "090601", "Address": null, "Telephone": null }, "geometry": { "type": "Point", "coordinates": [ 121.026881, 30.874244 ] } },
{ "type": "Feature", "properties": { "Name": "赵旺村中心卫生室", "Ctype": "诊所", "Ntype": "090300", "Address": null, "Telephone": null }, "geometry": { "type": "Point", "coordinates": [ 121.050234375, 30.914328884444444 ] } },
{ "type": "Feature", "properties": { "Name": "枫泾镇贵泾村中心卫生室", "Ctype": "诊所", "Ntype": "090300", "Address": null, "Telephone": "021-57363174" }, "geometry": { "type": "Point", "coordinates": [ 121.101898600277778, 30.863785807222222 ] } },
{ "type": "Feature", "properties": { "Name": "新枫居委红十字卫生站", "Ctype": "诊所", "Ntype": "090300", "Address": "枫丽路９９", "Telephone": null }, "geometry": { "type": "Point", "coordinates": [ 121.014961111111106, 30.885211666666667 ] } },
{ "type": "Feature", "properties": { "Name": "上海朱长麟中医针灸科诊所", "Ctype": "诊所", "Ntype": "090300", "Address": null, "Telephone": null }, "geometry": { "type": "Point", "coordinates": [ 121.01358888888889, 30.885045555555557 ] } },
{ "type": "Feature", "properties": { "Name": "枫泾镇双庙村中心卫生室", "Ctype": "诊所", "Ntype": "090300", "Address": null, "Telephone": null }, "geometry": { "type": "Point", "coordinates": [ 121.059105631388888, 30.852122395833334 ] } },
{ "type": "Feature", "properties": { "Name": "枫泾镇农兴村卫生室", "Ctype": "诊所", "Ntype": "090300", "Address": "白牛路３４８号", "Telephone": null }, "geometry": { "type": "Point", "coordinates": [ 121.02433458111112, 30.894527181111112 ] } },
{ "type": "Feature", "properties": { "Name": "参燕草堂（枫泾分店）", "Ctype": "医疗保健用品", "Ntype": "090602", "Address": "枫丽路２０６", "Telephone": null }, "geometry": { "type": "Point", "coordinates": [ 121.017340833333336, 30.887257777777776 ] } },
{ "type": "Feature", "properties": { "Name": "金山区癌症康复俱乐部枫泾活动站", "Ctype": "医疗保健服务场所", "Ntype": "090000", "Address": "思古弄３０", "Telephone": null }, "geometry": { "type": "Point", "coordinates": [ 121.015753888888881, 30.889948888888892 ] } },
{ "type": "Feature", "properties": { "Name": "上海市金山区枫泾镇长征村卫生室", "Ctype": "诊所", "Ntype": "090300", "Address": null, "Telephone": null }, "geometry": { "type": "Point", "coordinates": [ 121.07012207027779, 30.9 ] } },
{ "type": "Feature", "properties": { "Name": "金山区枫泾镇五一村医务室", "Ctype": "诊所", "Ntype": "090300", "Address": "五一村２１２２", "Telephone": null }, "geometry": { "type": "Point", "coordinates": [ 121.088148057777772, 30.880804578888888 ] } },
{ "type": "Feature", "properties": { "Name": "金山区枫泾镇五一村卫生保健室", "Ctype": "医疗保健服务场所", "Ntype": "090000", "Address": "五一村２１２２", "Telephone": null }, "geometry": { "type": "Point", "coordinates": [ 121.088147515277782, 30.880804578888888 ] } },
{ "type": "Feature", "properties": { "Name": "上海恒德大药房（新金山路）", "Ctype": "药房", "Ntype": "090601", "Address": "新金山路２７９号", "Telephone": null }, "geometry": { "type": "Point", "coordinates": [ 121.077717285277771, 30.868034939166666 ] } },
{ "type": "Feature", "properties": { "Name": "康佰健康家居（枫泾专卖店）", "Ctype": "医疗保健用品", "Ntype": "090602", "Address": "泾波路２９５弄３６", "Telephone": null }, "geometry": { "type": "Point", "coordinates": [ 121.014349166666662, 30.894545 ] } },
{ "type": "Feature", "properties": { "Name": "肖玫养生屋", "Ctype": "医疗保健服务场所", "Ntype": "090000", "Address": "和平街２８", "Telephone": null }, "geometry": { "type": "Point", "coordinates": [ 121.0177, 30.88828 ] } },
{ "type": "Feature", "properties": { "Name": "普尔斯暖脚火盆养生仪体验馆", "Ctype": "医疗保健用品", "Ntype": "090602", "Address": null, "Telephone": null }, "geometry": { "type": "Point", "coordinates": [ 121.076850413333332, 30.870267376666668 ] } },
{ "type": "Feature", "properties": { "Name": "月塘铁皮石斛", "Ctype": "医疗保健用品", "Ntype": "090602", "Address": null, "Telephone": null }, "geometry": { "type": "Point", "coordinates": [ 121.014205, 30.886731944444445 ] } },
{ "type": "Feature", "properties": { "Name": "金山区中西医结合医院体检中心", "Ctype": "医疗保健服务场所", "Ntype": "090000", "Address": null, "Telephone": null }, "geometry": { "type": "Point", "coordinates": [ 121.022147777777789, 30.891375833333331 ] } },
{ "type": "Feature", "properties": { "Name": "中脉生态家", "Ctype": "医药保健相关", "Ntype": "090600", "Address": "泾蓉路１０５", "Telephone": null }, "geometry": { "type": "Point", "coordinates": [ 121.020763339444443, 30.895733680277775 ] } },
{ "type": "Feature", "properties": { "Name": "葆苾康", "Ctype": "医疗保健用品", "Ntype": "090602", "Address": "枫阳路１１３", "Telephone": null }, "geometry": { "type": "Point", "coordinates": [ 121.02462, 30.892723888888888 ] } },
{ "type": "Feature", "properties": { "Name": "赵旺村中心卫生室（东南门）", "Ctype": "诊所", "Ntype": "090300", "Address": null, "Telephone": null }, "geometry": { "type": "Point", "coordinates": [ 121.050240418333331, 30.914281592222224 ] } },
{ "type": "Feature", "properties": { "Name": "好药师大药房（枫阳路药店）", "Ctype": "药房", "Ntype": "090601", "Address": "枫泾镇枫阳路２４５号", "Telephone": null }, "geometry": { "type": "Point", "coordinates": [ 121.019345277777774, 30.893911388888892 ] } },
{ "type": "Feature", "properties": { "Name": "无限极（中大街）", "Ctype": "医疗保健用品", "Ntype": "090602", "Address": "亭枫公路８５８８弄－２８号枫泾古镇旅游区内", "Telephone": null }, "geometry": { "type": "Point", "coordinates": [ 121.018161388888885, 30.8879425 ] } },
{ "type": "Feature", "properties": { "Name": "康佰健康家居（枫阳路）", "Ctype": "医疗保健用品", "Ntype": "090602", "Address": "枫阳路６７", "Telephone": null }, "geometry": { "type": "Point", "coordinates": [ 121.026076944444441, 30.89241 ] } },
{ "type": "Feature", "properties": { "Name": "小晶灵宠物会所", "Ctype": "动物医疗场所", "Ntype": "090700", "Address": "泾波路１１２号", "Telephone": null }, "geometry": { "type": "Point", "coordinates": [ 121.013890277777776, 30.890517777777777 ] } },
{ "type": "Feature", "properties": { "Name": "上海恒德大药房（枫阳药店）", "Ctype": "药房", "Ntype": "090601", "Address": "枫阳路１４１－１", "Telephone": null }, "geometry": { "type": "Point", "coordinates": [ 121.023801388888884, 30.892959722222223 ] } },
{ "type": "Feature", "properties": { "Name": "上海市金山区医疗救护站枫泾分站", "Ctype": "医疗保健服务场所", "Ntype": "090000", "Address": null, "Telephone": null }, "geometry": { "type": "Point", "coordinates": [ 121.022285, 30.891631944444445 ] } },
{ "type": "Feature", "properties": { "Name": "上海苏枫中医门诊部", "Ctype": "诊所", "Ntype": "090300", "Address": "新街弄３８", "Telephone": "021-57355229" }, "geometry": { "type": "Point", "coordinates": [ 121.015328333333329, 30.888744722222221 ] } },
{ "type": "Feature", "properties": { "Name": "好药师大药房（强兴路）", "Ctype": "药房", "Ntype": "090601", "Address": "强兴路３７弄３９", "Telephone": null }, "geometry": { "type": "Point", "coordinates": [ 121.077371358611103, 30.870132584444445 ] } },
{ "type": "Feature", "properties": { "Name": "康福参茸行", "Ctype": "医疗保健用品", "Ntype": "090602", "Address": "南大街９８－２", "Telephone": null }, "geometry": { "type": "Point", "coordinates": [ 121.013686944444444, 30.886001111111113 ] } },
{ "type": "Feature", "properties": { "Name": "康美尔乐灰指甲（新泾路）", "Ctype": "医疗保健用品", "Ntype": "090602", "Address": null, "Telephone": null }, "geometry": { "type": "Point", "coordinates": [ 121.018042777777779, 30.886794444444448 ] } },
{ "type": "Feature", "properties": { "Name": "新浜镇社区卫生服务中心南杨村中心卫生室（东门）", "Ctype": "诊所", "Ntype": "090300", "Address": null, "Telephone": null }, "geometry": { "type": "Point", "coordinates": [ 121.051382853055557, 30.948325896666667 ] } },
{ "type": "Feature", "properties": { "Name": "练塘镇东庄村卫生室", "Ctype": "诊所", "Ntype": "090300", "Address": "东庄村蒸东２８８", "Telephone": null }, "geometry": { "type": "Point", "coordinates": [ 121.063022742499996, 30.975510565 ] } },
{ "type": "Feature", "properties": { "Name": "青浦区练塘镇四农村卫生室", "Ctype": "诊所", "Ntype": "090300", "Address": null, "Telephone": null }, "geometry": { "type": "Point", "coordinates": [ 121.01854570499999, 30.996832490555555 ] } },
{ "type": "Feature", "properties": { "Name": "美云保健品店", "Ctype": "医疗保健用品", "Ntype": "090602", "Address": "中心街１１５", "Telephone": null }, "geometry": { "type": "Point", "coordinates": [ 121.06570806111111, 30.932784573611109 ] } },
{ "type": "Feature", "properties": { "Name": "新浜镇残疾人辅助器具服务中心", "Ctype": "医疗保健用品", "Ntype": "090602", "Address": null, "Telephone": null }, "geometry": { "type": "Point", "coordinates": [ 121.067287235277774, 30.933573375277778 ] } },
{ "type": "Feature", "properties": { "Name": "和也健康睡眠（新浜店）", "Ctype": "医疗保健用品", "Ntype": "090602", "Address": "新绿街７００号", "Telephone": null }, "geometry": { "type": "Point", "coordinates": [ 121.064853905833331, 30.931407587777777 ] } },
{ "type": "Feature", "properties": { "Name": "创义美健康馆", "Ctype": "医疗保健服务场所", "Ntype": "090000", "Address": "中心街１０２", "Telephone": null }, "geometry": { "type": "Point", "coordinates": [ 121.066205441388888, 30.932950471666668 ] } },
{ "type": "Feature", "properties": { "Name": "余天成（新绿药店）", "Ctype": "药房", "Ntype": "090601", "Address": null, "Telephone": null }, "geometry": { "type": "Point", "coordinates": [ 121.068180609722219, 30.931649848055557 ] } },
{ "type": "Feature", "properties": { "Name": "新浜镇残疾人阳光职业康复援助基地", "Ctype": "医疗保健服务场所", "Ntype": "090000", "Address": null, "Telephone": null }, "geometry": { "type": "Point", "coordinates": [ 121.092935655277785, 30.924205729166665 ] } },
{ "type": "Feature", "properties": { "Name": "松江区新浜镇助残康复指导站", "Ctype": "医疗保健服务场所", "Ntype": "090000", "Address": null, "Telephone": null }, "geometry": { "type": "Point", "coordinates": [ 121.051327553611117, 30.948323383055556 ] } },
{ "type": "Feature", "properties": { "Name": "练塘镇三河村卫生室", "Ctype": "诊所", "Ntype": "090300", "Address": "长河村三河７１号附近", "Telephone": null }, "geometry": { "type": "Point", "coordinates": [ 121.015964312222223, 30.956526856388891 ] } },
{ "type": "Feature", "properties": { "Name": "松江区医疗急救中心新浜分站", "Ctype": "急救中心", "Ntype": "090400", "Address": "共青路１２５１", "Telephone": null }, "geometry": { "type": "Point", "coordinates": [ 121.066952897777782, 30.931116645 ] } },
{ "type": "Feature", "properties": { "Name": "许家草村卫生室", "Ctype": "诊所", "Ntype": "090300", "Address": "许村公路３７", "Telephone": null }, "geometry": { "type": "Point", "coordinates": [ 121.052185277777781, 30.934378333333335 ] } },
{ "type": "Feature", "properties": { "Name": "云湖医药公司（小蒸药店）", "Ctype": "药房", "Ntype": "090601", "Address": "三官桥路１０６", "Telephone": null }, "geometry": { "type": "Point", "coordinates": [ 121.07885093083334, 30.987279591111111 ] } },
{ "type": "Feature", "properties": { "Name": "复美大药房（聃祥店）", "Ctype": "药房", "Ntype": "090601", "Address": "新绿路５５６－５５８", "Telephone": null }, "geometry": { "type": "Point", "coordinates": [ 121.068303989722224, 30.931565473888888 ] } },
{ "type": "Feature", "properties": { "Name": "练塘镇芦潼村中心卫生室", "Ctype": "诊所", "Ntype": "090300", "Address": "芦周路１０１", "Telephone": null }, "geometry": { "type": "Point", "coordinates": [ 121.085610650833345, 30.990179980277777 ] } },
{ "type": "Feature", "properties": { "Name": "雷允上（蒸兴路）", "Ctype": "药房", "Ntype": "090601", "Address": "蒸兴路７０－７２", "Telephone": null }, "geometry": { "type": "Point", "coordinates": [ 121.028891368333333, 30.973138392500001 ] } },
{ "type": "Feature", "properties": { "Name": "上海顺源药房（贞溪二村东）", "Ctype": "药房", "Ntype": "090601", "Address": "松蒸路４４４１号附近", "Telephone": null }, "geometry": { "type": "Point", "coordinates": [ 121.077780762499998, 30.985054105555555 ] } },
{ "type": "Feature", "properties": { "Name": "云湖医药公司（蒸淀药店）", "Ctype": "药房", "Ntype": "090601", "Address": "蒸兴路２３５－２３７", "Telephone": null }, "geometry": { "type": "Point", "coordinates": [ 121.027932148888894, 30.97655999638889 ] } },
{ "type": "Feature", "properties": { "Name": "好药师大药房（文泉药店）", "Ctype": "药房", "Ntype": "090601", "Address": "新公路５５", "Telephone": null }, "geometry": { "type": "Point", "coordinates": [ 121.080412038333336, 30.933808240277777 ] } },
{ "type": "Feature", "properties": { "Name": "青浦区蒸淀镇卫生院工会", "Ctype": "医疗保健服务场所", "Ntype": "090000", "Address": "蒸兴路１４７", "Telephone": null }, "geometry": { "type": "Point", "coordinates": [ 121.028276513055559, 30.974530258055559 ] } },
{ "type": "Feature", "properties": { "Name": "余天成（石湖荡药店）", "Ctype": "药房", "Ntype": "090601", "Address": "学府路１２４号－１２６号", "Telephone": null }, "geometry": { "type": "Point", "coordinates": [ 121.119911838055557, 30.985092230833335 ] } },
{ "type": "Feature", "properties": { "Name": "香塘村中心卫生室", "Ctype": "诊所", "Ntype": "090300", "Address": null, "Telephone": null }, "geometry": { "type": "Point", "coordinates": [ 121.088165104722222, 30.915741998333331 ] } },
{ "type": "Feature", "properties": { "Name": "上海顺源药房（贞溪北路）", "Ctype": "药房", "Ntype": "090601", "Address": null, "Telephone": null }, "geometry": { "type": "Point", "coordinates": [ 121.078517563611115, 30.99076408 ] } },
{ "type": "Feature", "properties": { "Name": "创义美健康生活馆（学府路）", "Ctype": "医疗保健用品", "Ntype": "090602", "Address": "学府路９８", "Telephone": null }, "geometry": { "type": "Point", "coordinates": [ 121.12114881722222, 30.984957139722223 ] } },
{ "type": "Feature", "properties": { "Name": "练塘镇大新村新庄卫生室", "Ctype": "诊所", "Ntype": "090300", "Address": "练塘镇大新村新庄２３０号附近", "Telephone": null }, "geometry": { "type": "Point", "coordinates": [ 121.013820440277783, 30.944679908333335 ] } },
{ "type": "Feature", "properties": { "Name": "新浜镇社区卫生服务中心南杨村中心卫生室", "Ctype": "诊所", "Ntype": "090300", "Address": null, "Telephone": null }, "geometry": { "type": "Point", "coordinates": [ 121.051327553611117, 30.948323383055556 ] } },
{ "type": "Feature", "properties": { "Name": "茹塘村中心卫生室", "Ctype": "诊所", "Ntype": "090300", "Address": "茹塘路３８３", "Telephone": null }, "geometry": { "type": "Point", "coordinates": [ 121.109691297777772, 30.93234646277778 ] } },
{ "type": "Feature", "properties": { "Name": "胡家埭村中心卫生室", "Ctype": "诊所", "Ntype": "090300", "Address": null, "Telephone": null }, "geometry": { "type": "Point", "coordinates": [ 121.091378123888902, 30.935333686111111 ] } },
{ "type": "Feature", "properties": { "Name": "上海顺源药房（石湖荡分店）", "Ctype": "药房", "Ntype": "090601", "Address": "石湖荡镇东栅路１３６号", "Telephone": null }, "geometry": { "type": "Point", "coordinates": [ 121.119305013055552, 30.986495225833334 ] } },
{ "type": "Feature", "properties": { "Name": "松江区石湖荡镇畜牧兽医站", "Ctype": "兽医站", "Ntype": "090702", "Address": null, "Telephone": null }, "geometry": { "type": "Point", "coordinates": [ 121.1183574761111, 30.983904893611111 ] } },
{ "type": "Feature", "properties": { "Name": "松江区动物卫生监督所石湖荡动物检疫申报点", "Ctype": "动物医疗场所", "Ntype": "090700", "Address": null, "Telephone": null }, "geometry": { "type": "Point", "coordinates": [ 121.118359375, 30.983902994722222 ] } },
{ "type": "Feature", "properties": { "Name": "练塘镇蒸夏路中心卫生室", "Ctype": "诊所", "Ntype": "090300", "Address": null, "Telephone": null }, "geometry": { "type": "Point", "coordinates": [ 121.073521768055556, 30.997160269166667 ] } },
{ "type": "Feature", "properties": { "Name": "松江区医疗急救中心新浜分站（东门）", "Ctype": "急救中心", "Ntype": "090400", "Address": "共青路１２５１", "Telephone": null }, "geometry": { "type": "Point", "coordinates": [ 121.067113010833339, 30.93115167111111 ] } },
{ "type": "Feature", "properties": { "Name": "许家草村卫生室（东门）", "Ctype": "诊所", "Ntype": "090300", "Address": "许村公路３７", "Telephone": null }, "geometry": { "type": "Point", "coordinates": [ 121.052250047777775, 30.93437160277778 ] } },
{ "type": "Feature", "properties": { "Name": "黄家埭中心卫生室（西门）", "Ctype": "诊所", "Ntype": "090300", "Address": null, "Telephone": null }, "geometry": { "type": "Point", "coordinates": [ 121.064270120277783, 30.939828645277778 ] } },
{ "type": "Feature", "properties": { "Name": "胡家埭村中心卫生室（南门）", "Ctype": "诊所", "Ntype": "090300", "Address": null, "Telephone": null }, "geometry": { "type": "Point", "coordinates": [ 121.091384407777767, 30.935284670833333 ] } },
{ "type": "Feature", "properties": { "Name": "松江残疾人实训基地新浜分部", "Ctype": "医疗保健服务场所", "Ntype": "090000", "Address": null, "Telephone": null }, "geometry": { "type": "Point", "coordinates": [ 121.092962510833331, 30.923647460833333 ] } },
{ "type": "Feature", "properties": { "Name": "巧章保健店", "Ctype": "医疗保健用品", "Ntype": "090602", "Address": null, "Telephone": null }, "geometry": { "type": "Point", "coordinates": [ 121.067394476944443, 30.932589518333334 ] } },
{ "type": "Feature", "properties": { "Name": "余天成（新浜药店）", "Ctype": "药房", "Ntype": "090601", "Address": null, "Telephone": null }, "geometry": { "type": "Point", "coordinates": [ 121.066807136111123, 30.932959426388887 ] } },
{ "type": "Feature", "properties": { "Name": "上海顺源药房（新绿街）", "Ctype": "药房", "Ntype": "090601", "Address": "新绿路６８８", "Telephone": null }, "geometry": { "type": "Point", "coordinates": [ 121.064974558888892, 30.931413871944443 ] } },
{ "type": "Feature", "properties": { "Name": "青浦区蒸淀镇卫生院工会（东北门）", "Ctype": "医疗保健服务场所", "Ntype": "090000", "Address": "蒸兴路１４７", "Telephone": null }, "geometry": { "type": "Point", "coordinates": [ 121.028328042222228, 30.974530258055559 ] } },
{ "type": "Feature", "properties": { "Name": "新源村中心卫生室", "Ctype": "诊所", "Ntype": "090300", "Address": "石湖荡镇", "Telephone": null }, "geometry": { "type": "Point", "coordinates": [ 121.116070963611108, 30.975462239722223 ] } },
{ "type": "Feature", "properties": { "Name": "枫泾镇中洪村中心卫生室", "Ctype": "诊所", "Ntype": "090300", "Address": "朱枫公路７９５０", "Telephone": "021-57358517" }, "geometry": { "type": "Point", "coordinates": [ 121.021192538055558, 30.927931739444446 ] } },
{ "type": "Feature", "properties": { "Name": "好药师大药房（开源药店）", "Ctype": "药房", "Ntype": "090601", "Address": null, "Telephone": null }, "geometry": { "type": "Point", "coordinates": [ 121.091140588055552, 30.936368035833333 ] } },
{ "type": "Feature", "properties": { "Name": "吉林参茸（新浜共青路）", "Ctype": "医疗保健用品", "Ntype": "090602", "Address": "共青路１２９４", "Telephone": null }, "geometry": { "type": "Point", "coordinates": [ 121.067361229444444, 30.93181275 ] } },
{ "type": "Feature", "properties": { "Name": "益骨堂健康馆", "Ctype": "医疗保健服务场所", "Ntype": "090000", "Address": "叶新公路６３５４", "Telephone": null }, "geometry": { "type": "Point", "coordinates": [ 121.065640350833334, 30.933146847222222 ] } },
{ "type": "Feature", "properties": { "Name": "黄家埭中心卫生室", "Ctype": "诊所", "Ntype": "090300", "Address": null, "Telephone": null }, "geometry": { "type": "Point", "coordinates": [ 121.06428834388889, 30.939829902222222 ] } },
{ "type": "Feature", "properties": { "Name": "枫泾镇中洪村中心卫生室（东南门）", "Ctype": "诊所", "Ntype": "090300", "Address": "朱枫公路７９５０", "Telephone": null }, "geometry": { "type": "Point", "coordinates": [ 121.021235269166667, 30.927922941944445 ] } },
{ "type": "Feature", "properties": { "Name": "上海雷允上药品经营有限公司（盛益和药房）", "Ctype": "药房", "Ntype": "090601", "Address": null, "Telephone": null }, "geometry": { "type": "Point", "coordinates": [ 121.042622929722228, 31.010617497222221 ] } },
{ "type": "Feature", "properties": { "Name": "王金村中心卫生室", "Ctype": "诊所", "Ntype": "090300", "Address": null, "Telephone": null }, "geometry": { "type": "Point", "coordinates": [ 121.10841, 31.070667 ] } },
{ "type": "Feature", "properties": { "Name": "练塘镇金田村卫生室", "Ctype": "诊所", "Ntype": "090300", "Address": null, "Telephone": null }, "geometry": { "type": "Point", "coordinates": [ 121.045212, 31.02797 ] } },
{ "type": "Feature", "properties": { "Name": "无限极中草药养生馆（曲池路）", "Ctype": "药房", "Ntype": "090601", "Address": null, "Telephone": null }, "geometry": { "type": "Point", "coordinates": [ 121.057236, 31.07653 ] } },
{ "type": "Feature", "properties": { "Name": "青浦区练塘镇东叶厍村中心卫生室", "Ctype": "诊所", "Ntype": "090300", "Address": null, "Telephone": null }, "geometry": { "type": "Point", "coordinates": [ 121.018004557222227, 31.014474012499999 ] } },
{ "type": "Feature", "properties": { "Name": "上海顺源药房（曲池路）", "Ctype": "药房", "Ntype": "090601", "Address": "朱家角镇康业路１５８号", "Telephone": null }, "geometry": { "type": "Point", "coordinates": [ 121.058280165, 31.076229383611111 ] } },
{ "type": "Feature", "properties": { "Name": "上海雷允上药品经营有限公司（翔昆路）", "Ctype": "药房", "Ntype": "090601", "Address": "平原街９２２弄３５号临附近", "Telephone": null }, "geometry": { "type": "Point", "coordinates": [ 121.119636501666662, 31.031821831666669 ] } },
{ "type": "Feature", "properties": { "Name": "泖新村卫生室", "Ctype": "诊所", "Ntype": "090300", "Address": null, "Telephone": null }, "geometry": { "type": "Point", "coordinates": [ 121.117441406388892, 30.998837348055556 ] } },
{ "type": "Feature", "properties": { "Name": "上海顺源药房（文化路）", "Ctype": "药房", "Ntype": "090601", "Address": "文化路１５４－１５６号", "Telephone": null }, "geometry": { "type": "Point", "coordinates": [ 121.040556115833326, 31.010593617777776 ] } },
{ "type": "Feature", "properties": { "Name": "青浦区朱家角镇建新村卫生室", "Ctype": "诊所", "Ntype": "090300", "Address": null, "Telephone": null }, "geometry": { "type": "Point", "coordinates": [ 121.101923212222218, 31.06238201888889 ] } },
{ "type": "Feature", "properties": { "Name": "李庄中心卫生室", "Ctype": "诊所", "Ntype": "090300", "Address": null, "Telephone": null }, "geometry": { "type": "Point", "coordinates": [ 121.080100911388882, 31.04820421 ] } },
{ "type": "Feature", "properties": { "Name": "青浦区练塘镇钟联村卫生室", "Ctype": "诊所", "Ntype": "090300", "Address": null, "Telephone": null }, "geometry": { "type": "Point", "coordinates": [ 121.041200541944448, 31.004200570555557 ] } },
{ "type": "Feature", "properties": { "Name": "云湖医药公司（练塘药店）", "Ctype": "药房", "Ntype": "090601", "Address": "朱枫公路３４３６", "Telephone": null }, "geometry": { "type": "Point", "coordinates": [ 121.043911468055555, 31.009062516388887 ] } },
{ "type": "Feature", "properties": { "Name": "沈巷药店", "Ctype": "药房", "Ntype": "090601", "Address": "沈巷镇", "Telephone": null }, "geometry": { "type": "Point", "coordinates": [ 121.05529839416667, 31.074768880277777 ] } },
{ "type": "Feature", "properties": { "Name": "泖塔药店", "Ctype": "药房", "Ntype": "090601", "Address": "沈巷路２９１号附近", "Telephone": null }, "geometry": { "type": "Point", "coordinates": [ 121.061023220555555, 31.075426432222223 ] } },
{ "type": "Feature", "properties": { "Name": "上海顺源德文药房（沈砖路分店）", "Ctype": "药房", "Ntype": "090601", "Address": "沈砖公路４３０－４３４", "Telephone": null }, "geometry": { "type": "Point", "coordinates": [ 121.053147515277786, 31.07564615888889 ] } },
{ "type": "Feature", "properties": { "Name": "无限极（文化路步行街）", "Ctype": "医疗保健用品", "Ntype": "090602", "Address": "文化路３０", "Telephone": null }, "geometry": { "type": "Point", "coordinates": [ 121.04245451805555, 31.007965012500001 ] } },
{ "type": "Feature", "properties": { "Name": "练塘镇畜牧兽医站", "Ctype": "兽医站", "Ntype": "090702", "Address": null, "Telephone": null }, "geometry": { "type": "Point", "coordinates": [ 121.04651588, 31.00639023722222 ] } },
{ "type": "Feature", "properties": { "Name": "名泰健康养生馆", "Ctype": "医疗保健服务场所", "Ntype": "090000", "Address": "平原街９１６", "Telephone": null }, "geometry": { "type": "Point", "coordinates": [ 121.120557183055567, 31.03019477 ] } },
{ "type": "Feature", "properties": { "Name": "青浦区朱家角镇张巷村卫生室", "Ctype": "诊所", "Ntype": "090300", "Address": "沈太路２８", "Telephone": null }, "geometry": { "type": "Point", "coordinates": [ 121.06634674861111, 31.076225630833331 ] } },
{ "type": "Feature", "properties": { "Name": "上海雷允上北区药品零售有限公司（练塘药店）", "Ctype": "药房", "Ntype": "090601", "Address": "练塘镇练新路６２－６４", "Telephone": null }, "geometry": { "type": "Point", "coordinates": [ 121.042453261388886, 31.008883107777777 ] } },
{ "type": "Feature", "properties": { "Name": "和也健康睡眠（练塘店）", "Ctype": "医疗保健用品", "Ntype": "090602", "Address": "文化路２７－２９", "Telephone": null }, "geometry": { "type": "Point", "coordinates": [ 121.042227036666674, 31.00785252861111 ] } },
{ "type": "Feature", "properties": { "Name": "罗麦（青浦练塘店）", "Ctype": "医疗保健用品", "Ntype": "090602", "Address": null, "Telephone": null }, "geometry": { "type": "Point", "coordinates": [ 121.043173095833339, 31.010460710833335 ] } },
{ "type": "Feature", "properties": { "Name": "青浦区练塘镇王家村卫生室", "Ctype": "诊所", "Ntype": "090300", "Address": "练东村王家村２８", "Telephone": null }, "geometry": { "type": "Point", "coordinates": [ 121.049466855555565, 31.010642633333333 ] } },
{ "type": "Feature", "properties": { "Name": "练塘镇金前村前进卫生室", "Ctype": "诊所", "Ntype": "090300", "Address": null, "Telephone": null }, "geometry": { "type": "Point", "coordinates": [ 121.055214301111121, 31.02913954 ] } },
{ "type": "Feature", "properties": { "Name": "泾德村卫生室", "Ctype": "诊所", "Ntype": "090300", "Address": null, "Telephone": null }, "geometry": { "type": "Point", "coordinates": [ 121.128933934444433, 31.017366781111111 ] } },
{ "type": "Feature", "properties": { "Name": "好药师大药房（鑫盛店）", "Ctype": "药房", "Ntype": "090601", "Address": "平原街８７２", "Telephone": null }, "geometry": { "type": "Point", "coordinates": [ 121.122613932222222, 31.030312228611109 ] } },
{ "type": "Feature", "properties": { "Name": "新胜村红十字卫生站", "Ctype": "诊所", "Ntype": "090300", "Address": "沈巷镇沈砖路２２０５", "Telephone": null }, "geometry": { "type": "Point", "coordinates": [ 121.092444390277777, 31.07662028 ] } },
{ "type": "Feature", "properties": { "Name": "青浦区朱家角镇新胜村中心卫生室", "Ctype": "诊所", "Ntype": "090300", "Address": "沈巷镇沈砖路２２０５", "Telephone": null }, "geometry": { "type": "Point", "coordinates": [ 121.092443033888884, 31.07662245 ] } },
{ "type": "Feature", "properties": { "Name": "无限极（练塘镇人民代表大会西北）", "Ctype": "医疗保健用品", "Ntype": "090602", "Address": "朱枫公路３４６８", "Telephone": null }, "geometry": { "type": "Point", "coordinates": [ 121.044091819444432, 31.008583045833333 ] } },
{ "type": "Feature", "properties": { "Name": "青浦区练塘镇尤家泾村卫生室", "Ctype": "诊所", "Ntype": "090300", "Address": null, "Telephone": null }, "geometry": { "type": "Point", "coordinates": [ 121.051810794722229, 31.006304774444445 ] } },
{ "type": "Feature", "properties": { "Name": "广州创义美医疗器械有限公司（练塘生活馆）", "Ctype": "医疗保健用品", "Ntype": "090602", "Address": null, "Telephone": null }, "geometry": { "type": "Point", "coordinates": [ 121.043276153611103, 31.010510983055553 ] } },
{ "type": "Feature", "properties": { "Name": "上海市青浦区练塘镇练北卫生室", "Ctype": "诊所", "Ntype": "090300", "Address": null, "Telephone": null }, "geometry": { "type": "Point", "coordinates": [ 121.042273538333333, 31.009587546388889 ] } },
{ "type": "Feature", "properties": { "Name": "乐利来骨骼养护馆", "Ctype": "医疗保健服务场所", "Ntype": "090000", "Address": "浦仓路５００弄５９", "Telephone": null }, "geometry": { "type": "Point", "coordinates": [ 121.122352370277767, 31.151531294166666 ] } },
{ "type": "Feature", "properties": { "Name": "横江村中心卫生室", "Ctype": "诊所", "Ntype": "090300", "Address": "朱家角镇横江村", "Telephone": null }, "geometry": { "type": "Point", "coordinates": [ 121.06334071, 31.117051125833335 ] } },
{ "type": "Feature", "properties": { "Name": "硒康青浦服务站", "Ctype": "医疗保健服务场所", "Ntype": "090000", "Address": "章浜路１３３", "Telephone": null }, "geometry": { "type": "Point", "coordinates": [ 121.118986002500009, 31.144230143333335 ] } },
{ "type": "Feature", "properties": { "Name": "青浦青少年近视弱视防治中心", "Ctype": "医疗保健服务场所", "Ntype": "090000", "Address": null, "Telephone": null }, "geometry": { "type": "Point", "coordinates": [ 121.11726765611111, 31.152396446388888 ] } },
{ "type": "Feature", "properties": { "Name": "芝园祥药品公司", "Ctype": "医疗保健用品", "Ntype": "090602", "Address": "城中东路６０９", "Telephone": null }, "geometry": { "type": "Point", "coordinates": [ 121.113550658333324, 31.146244862500001 ] } },
{ "type": "Feature", "properties": { "Name": "笑笑宠物美容工作室", "Ctype": "动物医疗场所", "Ntype": "090700", "Address": null, "Telephone": null }, "geometry": { "type": "Point", "coordinates": [ 121.121410395833337, 31.151184416111111 ] } },
{ "type": "Feature", "properties": { "Name": "上海市农科院植保所", "Ctype": "医药保健相关", "Ntype": "090600", "Address": null, "Telephone": null }, "geometry": { "type": "Point", "coordinates": [ 121.112816999166668, 31.145661077222226 ] } },
{ "type": "Feature", "properties": { "Name": "顺源药房（城中西路）", "Ctype": "药房", "Ntype": "090601", "Address": "城中西路２６０弄１", "Telephone": null }, "geometry": { "type": "Point", "coordinates": [ 121.105879609166664, 31.1473112975 ] } },
{ "type": "Feature", "properties": { "Name": "天恩桥村卫生室", "Ctype": "诊所", "Ntype": "090300", "Address": "天恩桥路８８", "Telephone": null }, "geometry": { "type": "Point", "coordinates": [ 121.080648003333337, 31.154287150833333 ] } },
{ "type": "Feature", "properties": { "Name": "好药师大药房（青盈药店）", "Ctype": "药房", "Ntype": "090601", "Address": "青昆路４７", "Telephone": null }, "geometry": { "type": "Point", "coordinates": [ 121.112010842222219, 31.135596667222224 ] } },
{ "type": "Feature", "properties": { "Name": "上海市青浦区保平药房", "Ctype": "药房", "Ntype": "090601", "Address": "青安路７１０号", "Telephone": null }, "geometry": { "type": "Point", "coordinates": [ 121.120351855833334, 31.161454705277777 ] } },
{ "type": "Feature", "properties": { "Name": "云湖医药公司（界泾港药店）", "Ctype": "药房", "Ntype": "090601", "Address": "浦仓路８４６", "Telephone": null }, "geometry": { "type": "Point", "coordinates": [ 121.121374701111122, 31.157620799722221 ] } },
{ "type": "Feature", "properties": { "Name": "健健杂货商行", "Ctype": "药房", "Ntype": "090601", "Address": "青赵路２００号－３", "Telephone": null }, "geometry": { "type": "Point", "coordinates": [ 121.110758668611098, 31.153886151944445 ] } },
{ "type": "Feature", "properties": { "Name": "亿视佳青少年视力服务机构（青浦二店）", "Ctype": "医疗保健服务场所", "Ntype": "090000", "Address": null, "Telephone": null }, "geometry": { "type": "Point", "coordinates": [ 121.11151, 31.146046 ] } },
{ "type": "Feature", "properties": { "Name": "青浦区中医医院急诊", "Ctype": "急救中心", "Ntype": "090400", "Address": null, "Telephone": null }, "geometry": { "type": "Point", "coordinates": [ 121.11653, 31.149895 ] } },
{ "type": "Feature", "properties": { "Name": "润肤灵皮肤病免费试用中心", "Ctype": "医疗保健服务场所", "Ntype": "090000", "Address": null, "Telephone": null }, "geometry": { "type": "Point", "coordinates": [ 121.11722, 31.152418 ] } },
{ "type": "Feature", "properties": { "Name": "元炁堂（青湖路店）", "Ctype": "医疗保健服务场所", "Ntype": "090000", "Address": null, "Telephone": null }, "geometry": { "type": "Point", "coordinates": [ 121.127785, 31.145706 ] } },
{ "type": "Feature", "properties": { "Name": "杰瑞生健康管理中心", "Ctype": "医疗保健服务场所", "Ntype": "090000", "Address": null, "Telephone": null }, "geometry": { "type": "Point", "coordinates": [ 121.06688, 31.109495 ] } },
{ "type": "Feature", "properties": { "Name": "朱家角镇林家村卫生室", "Ctype": "诊所", "Ntype": "090300", "Address": null, "Telephone": null }, "geometry": { "type": "Point", "coordinates": [ 121.080559, 31.08921 ] } },
{ "type": "Feature", "properties": { "Name": "鞋子医院", "Ctype": "医疗保健服务场所", "Ntype": "090000", "Address": "三元路２７０－２７２号", "Telephone": null }, "geometry": { "type": "Point", "coordinates": [ 121.112868213888888, 31.150443058888889 ] } },
{ "type": "Feature", "properties": { "Name": "上海云湖美适康药房", "Ctype": "药房", "Ntype": "090601", "Address": "青松路１２１", "Telephone": null }, "geometry": { "type": "Point", "coordinates": [ 121.116505174444441, 31.145914461944443 ] } },
{ "type": "Feature", "properties": { "Name": "丰成参堂（青安路）", "Ctype": "医疗保健用品", "Ntype": "090602", "Address": null, "Telephone": null }, "geometry": { "type": "Point", "coordinates": [ 121.11704080277778, 31.150053449722222 ] } },
{ "type": "Feature", "properties": { "Name": "铁皮石斛", "Ctype": "医疗保健用品", "Ntype": "090602", "Address": "三元路２６６", "Telephone": null }, "geometry": { "type": "Point", "coordinates": [ 121.112843549166669, 31.150403626666666 ] } },
{ "type": "Feature", "properties": { "Name": "和悦堂药房", "Ctype": "药房", "Ntype": "090601", "Address": null, "Telephone": "021-59203126" }, "geometry": { "type": "Point", "coordinates": [ 121.10177, 31.151142 ] } },
{ "type": "Feature", "properties": { "Name": "上海同德医院老年护理", "Ctype": "医疗保健服务场所", "Ntype": "090000", "Address": "盈港路１００６号", "Telephone": null }, "geometry": { "type": "Point", "coordinates": [ 121.105664842222225, 31.161282364166667 ] } },
{ "type": "Feature", "properties": { "Name": "庆翠堂（体育场路）", "Ctype": "医疗保健服务场所", "Ntype": "090000", "Address": "浦仓路５００弄３２", "Telephone": null }, "geometry": { "type": "Point", "coordinates": [ 121.121649816944441, 31.151216464722221 ] } },
{ "type": "Feature", "properties": { "Name": "北京安富之家激光医疗体验中心", "Ctype": "医疗保健服务场所", "Ntype": "090000", "Address": null, "Telephone": null }, "geometry": { "type": "Point", "coordinates": [ 121.0524975, 31.108631111111112 ] } },
{ "type": "Feature", "properties": { "Name": "润檀经络养生馆", "Ctype": "医疗保健服务场所", "Ntype": "090000", "Address": null, "Telephone": null }, "geometry": { "type": "Point", "coordinates": [ 121.105089854444444, 31.156168272222224 ] } },
{ "type": "Feature", "properties": { "Name": "国际酸碱平健康管理工程", "Ctype": "医疗保健服务场所", "Ntype": "090000", "Address": "浦仓路５００弄３９号", "Telephone": null }, "geometry": { "type": "Point", "coordinates": [ 121.121858739444448, 31.151441057222222 ] } },
{ "type": "Feature", "properties": { "Name": "佰和优活健康睡眠体验馆（上海青浦卫中店）", "Ctype": "医疗保健服务场所", "Ntype": "090000", "Address": null, "Telephone": null }, "geometry": { "type": "Point", "coordinates": [ 121.10842792583334, 31.151583765555557 ] } },
{ "type": "Feature", "properties": { "Name": "伊伊商务（界泾港路）", "Ctype": "医疗保健服务场所", "Ntype": "090000", "Address": "外青松公路６０４８弄２０号１０７室", "Telephone": null }, "geometry": { "type": "Point", "coordinates": [ 121.124334821388899, 31.155937648611111 ] } },
{ "type": "Feature", "properties": { "Name": "朱家角镇残疾人社区康复站", "Ctype": "医疗保健服务场所", "Ntype": "090000", "Address": "祥凝浜路３３８弄７８", "Telephone": null }, "geometry": { "type": "Point", "coordinates": [ 121.060004444444445, 31.111018888888889 ] } },
{ "type": "Feature", "properties": { "Name": "益来康健康生活馆（万寿路）", "Ctype": "医疗保健服务场所", "Ntype": "090000", "Address": "万寿路２３９", "Telephone": null }, "geometry": { "type": "Point", "coordinates": [ 121.109377441111107, 31.157758286111111 ] } },
{ "type": "Feature", "properties": { "Name": "朱家角镇残障人辅助器具服务社", "Ctype": "医疗保健服务场所", "Ntype": "090000", "Address": "祥凝浜路３３８弄７８", "Telephone": null }, "geometry": { "type": "Point", "coordinates": [ 121.060004444444445, 31.111018888888889 ] } },
{ "type": "Feature", "properties": { "Name": "乐善堂（南淀浦河路）", "Ctype": "医疗保健服务场所", "Ntype": "090000", "Address": "外青松公路６９９９弄９６", "Telephone": null }, "geometry": { "type": "Point", "coordinates": [ 121.127838005277781, 31.139848987499999 ] } },
{ "type": "Feature", "properties": { "Name": "益来康健康生活馆（章浜路）", "Ctype": "医疗保健服务场所", "Ntype": "090000", "Address": null, "Telephone": null }, "geometry": { "type": "Point", "coordinates": [ 121.11871612249999, 31.145135733055557 ] } },
{ "type": "Feature", "properties": { "Name": "青浦区残疾人康复服务指导中心", "Ctype": "医疗保健服务场所", "Ntype": "090000", "Address": "青松路２３１", "Telephone": null }, "geometry": { "type": "Point", "coordinates": [ 121.116532778333337, 31.143732808333333 ] } },
{ "type": "Feature", "properties": { "Name": "益来康健康生活馆（界泾港路）", "Ctype": "医疗保健服务场所", "Ntype": "090000", "Address": null, "Telephone": null }, "geometry": { "type": "Point", "coordinates": [ 121.12396767777777, 31.155661151666667 ] } },
{ "type": "Feature", "properties": { "Name": "夏阳街道太来村卫生室", "Ctype": "诊所", "Ntype": "090300", "Address": "太来村１１８号附近", "Telephone": null }, "geometry": { "type": "Point", "coordinates": [ 121.104738769444438, 31.113762206944443 ] } },
{ "type": "Feature", "properties": { "Name": "华一口腔门诊部", "Ctype": "诊所", "Ntype": "090300", "Address": "盈中西路１０２", "Telephone": null }, "geometry": { "type": "Point", "coordinates": [ 121.10688693583333, 31.149780273333331 ] } },
{ "type": "Feature", "properties": { "Name": "好药师大药房（村谷药店）", "Ctype": "药房", "Ntype": "090601", "Address": "界泾港路６０４８弄２１号１１７－１１８室", "Telephone": "021-69717917" }, "geometry": { "type": "Point", "coordinates": [ 121.122832109166666, 31.155707065277781 ] } },
{ "type": "Feature", "properties": { "Name": "上海谦德大药房", "Ctype": "药房", "Ntype": "090601", "Address": "盈港路１７５５弄１９３", "Telephone": null }, "geometry": { "type": "Point", "coordinates": [ 121.09342392638888, 31.155974979722224 ] } },
{ "type": "Feature", "properties": { "Name": "好药师大药房（宝庆药店）", "Ctype": "药房", "Ntype": "090601", "Address": "盈港路７８８号", "Telephone": null }, "geometry": { "type": "Point", "coordinates": [ 121.106871393055556, 31.161182050555556 ] } },
{ "type": "Feature", "properties": { "Name": "华氏大药房（珠湖路药房）", "Ctype": "药房", "Ntype": "090601", "Address": "珠湖路６６３", "Telephone": null }, "geometry": { "type": "Point", "coordinates": [ 121.048802083333328, 31.120253635 ] } },
{ "type": "Feature", "properties": { "Name": "上海顺源药房（新风路）", "Ctype": "药房", "Ntype": "090601", "Address": "新风路１４３", "Telephone": null }, "geometry": { "type": "Point", "coordinates": [ 121.056883888888891, 31.108645833333334 ] } },
{ "type": "Feature", "properties": { "Name": "御善堂药房（新溪路）", "Ctype": "药房", "Ntype": "090601", "Address": "祥凝浜路３９６号", "Telephone": null }, "geometry": { "type": "Point", "coordinates": [ 121.060271944444438, 31.109410833333335 ] } },
{ "type": "Feature", "properties": { "Name": "云湖医药公司（珊瑚药店）", "Ctype": "药房", "Ntype": "090601", "Address": "城中南路５０２", "Telephone": null }, "geometry": { "type": "Point", "coordinates": [ 121.111825066666654, 31.145748739166667 ] } },
{ "type": "Feature", "properties": { "Name": "复美大药房（青松店）", "Ctype": "药房", "Ntype": "090601", "Address": "青松路４５９", "Telephone": null }, "geometry": { "type": "Point", "coordinates": [ 121.117848036111113, 31.137968478611111 ] } },
{ "type": "Feature", "properties": { "Name": "云湖医药公司（城北药店）", "Ctype": "药房", "Ntype": "090601", "Address": "青赵公路１９６", "Telephone": null }, "geometry": { "type": "Point", "coordinates": [ 121.110908228333329, 31.153906260833335 ] } },
{ "type": "Feature", "properties": { "Name": "上海顺源药房（源欣店）", "Ctype": "药房", "Ntype": "090601", "Address": "浦仓路６３０", "Telephone": null }, "geometry": { "type": "Point", "coordinates": [ 121.121186998888902, 31.153502276666668 ] } },
{ "type": "Feature", "properties": { "Name": "上海顺源药房（青峰路）", "Ctype": "药房", "Ntype": "090601", "Address": "青峰路２６６－２７２", "Telephone": null }, "geometry": { "type": "Point", "coordinates": [ 121.129250804444439, 31.144970521944444 ] } },
{ "type": "Feature", "properties": { "Name": "国珍健康生活馆（胜利路）", "Ctype": "医疗保健用品", "Ntype": "090602", "Address": "胜利路３７", "Telephone": null }, "geometry": { "type": "Point", "coordinates": [ 121.105446943888879, 31.15354280861111 ] } },
{ "type": "Feature", "properties": { "Name": "维拉宠物", "Ctype": "宠物诊所", "Ntype": "090701", "Address": "青松路３０８号", "Telephone": "021-69200088" }, "geometry": { "type": "Point", "coordinates": [ 121.115986030277767, 31.142520324166664 ] } },
{ "type": "Feature", "properties": { "Name": "无限极（海盈路）", "Ctype": "医疗保健用品", "Ntype": "090602", "Address": "海盈路２１０号", "Telephone": null }, "geometry": { "type": "Point", "coordinates": [ 121.108945728888884, 31.15027166222222 ] } },
{ "type": "Feature", "properties": { "Name": "陈氏本草经", "Ctype": "医疗保健用品", "Ntype": "090602", "Address": "美周路８９", "Telephone": null }, "geometry": { "type": "Point", "coordinates": [ 121.05477888888889, 31.108746944444444 ] } },
{ "type": "Feature", "properties": { "Name": "珍奥（新青浦体验店）", "Ctype": "医疗保健用品", "Ntype": "090602", "Address": "外青松公路６０４８弄２１号１１６室", "Telephone": null }, "geometry": { "type": "Point", "coordinates": [ 121.122853617499999, 31.155710218888888 ] } },
{ "type": "Feature", "properties": { "Name": "紫薇星（体育场路）", "Ctype": "医疗保健用品", "Ntype": "090602", "Address": "浦仓路５００弄３５号", "Telephone": null }, "geometry": { "type": "Point", "coordinates": [ 121.12180314611112, 31.151433897499999 ] } },
{ "type": "Feature", "properties": { "Name": "才云珠营养调理", "Ctype": "医疗保健用品", "Ntype": "090602", "Address": "美周路５２", "Telephone": null }, "geometry": { "type": "Point", "coordinates": [ 121.055411944444444, 31.109025 ] } },
{ "type": "Feature", "properties": { "Name": "康美尔乐灰指甲手足癣（祥凝浜路）", "Ctype": "医疗保健用品", "Ntype": "090602", "Address": "祥凝浜路７４７", "Telephone": null }, "geometry": { "type": "Point", "coordinates": [ 121.054224444444444, 31.105919722222222 ] } },
{ "type": "Feature", "properties": { "Name": "珍奥幸福家园健康体验馆（体育场路）", "Ctype": "医疗保健用品", "Ntype": "090602", "Address": "体育场路２１５号", "Telephone": null }, "geometry": { "type": "Point", "coordinates": [ 121.12175176416666, 31.151550980833331 ] } },
{ "type": "Feature", "properties": { "Name": "思思宠物美容", "Ctype": "动物医疗场所", "Ntype": "090700", "Address": "青赵路８５号", "Telephone": null }, "geometry": { "type": "Point", "coordinates": [ 121.114645334166653, 31.153328837222222 ] } },
{ "type": "Feature", "properties": { "Name": "新博士宠物医院", "Ctype": "宠物诊所", "Ntype": "090701", "Address": "淀湖路２０１－２０３", "Telephone": "021-59205670" }, "geometry": { "type": "Point", "coordinates": [ 121.103021104722217, 31.155844455277776 ] } },
{ "type": "Feature", "properties": { "Name": "上海彤乐宠物诊所", "Ctype": "宠物诊所", "Ntype": "090701", "Address": "青赵公路７７号", "Telephone": "021-59736943" }, "geometry": { "type": "Point", "coordinates": [ 121.115046883611114, 31.153181163333333 ] } },
{ "type": "Feature", "properties": { "Name": "上海申生宠物诊疗有限公司", "Ctype": "宠物诊所", "Ntype": "090701", "Address": "体育场路１２２号", "Telephone": "021-69717599" }, "geometry": { "type": "Point", "coordinates": [ 121.123640280277769, 31.152079888888888 ] } },
{ "type": "Feature", "properties": { "Name": "城东药店（城中东路）", "Ctype": "药房", "Ntype": "090601", "Address": null, "Telephone": null }, "geometry": { "type": "Point", "coordinates": [ 121.121056, 31.146772 ] } },
{ "type": "Feature", "properties": { "Name": "山芝源", "Ctype": "医疗保健用品", "Ntype": "090602", "Address": "青松路１７２南第三间", "Telephone": "021-69200738" }, "geometry": { "type": "Point", "coordinates": [ 121.115915611944445, 31.144960340277777 ] } },
{ "type": "Feature", "properties": { "Name": "权健火疗（人和路）", "Ctype": "医疗保健服务场所", "Ntype": "090000", "Address": null, "Telephone": null }, "geometry": { "type": "Point", "coordinates": [ 121.057381666666672, 31.102954722222222 ] } },
{ "type": "Feature", "properties": { "Name": "沪青门诊部", "Ctype": "诊所", "Ntype": "090300", "Address": "祥凝浜路１５弄１号", "Telephone": "021-59249555" }, "geometry": { "type": "Point", "coordinates": [ 121.066805013055543, 31.10828260638889 ] } },
{ "type": "Feature", "properties": { "Name": "上海云湖泽峰药店", "Ctype": "药房", "Ntype": "090601", "Address": "青湖路９８３号", "Telephone": null }, "geometry": { "type": "Point", "coordinates": [ 121.129383444722222, 31.145813368055556 ] } },
{ "type": "Feature", "properties": { "Name": "云湖医药公司（益寿春药店）", "Ctype": "药房", "Ntype": "090601", "Address": null, "Telephone": null }, "geometry": { "type": "Point", "coordinates": [ 121.115682511944442, 31.148189138333333 ] } },
{ "type": "Feature", "properties": { "Name": "聚岛堂参茸专卖", "Ctype": "医疗保健用品", "Ntype": "090602", "Address": "体育场路２１９－２２３", "Telephone": "021-69721198" }, "geometry": { "type": "Point", "coordinates": [ 121.121716807500007, 31.151545084444447 ] } },
{ "type": "Feature", "properties": { "Name": "上海瑞莉生物科技（青浦店）", "Ctype": "医疗保健用品", "Ntype": "090602", "Address": "浦仓路８１５", "Telephone": "021-37691210" }, "geometry": { "type": "Point", "coordinates": [ 121.12116563333332, 31.15657264888889 ] } },
{ "type": "Feature", "properties": { "Name": "天狮（城中北路）", "Ctype": "医疗保健用品", "Ntype": "090602", "Address": null, "Telephone": null }, "geometry": { "type": "Point", "coordinates": [ 121.112541445, 31.161355573055555 ] } },
{ "type": "Feature", "properties": { "Name": "丽江玛卡", "Ctype": "医疗保健用品", "Ntype": "090602", "Address": "浦仓路１１４号", "Telephone": null }, "geometry": { "type": "Point", "coordinates": [ 121.12154130388889, 31.144641728055557 ] } },
{ "type": "Feature", "properties": { "Name": "益来康健康生活馆（海盈路）", "Ctype": "医疗保健服务场所", "Ntype": "090000", "Address": null, "Telephone": null }, "geometry": { "type": "Point", "coordinates": [ 121.108688084166658, 31.149723695833334 ] } },
{ "type": "Feature", "properties": { "Name": "伊伊商务（海盈路）", "Ctype": "医疗保健服务场所", "Ntype": "090000", "Address": "海盈路２０６", "Telephone": null }, "geometry": { "type": "Point", "coordinates": [ 121.108992859166662, 31.150338901388889 ] } },
{ "type": "Feature", "properties": { "Name": "青浦区青少年心理健康辅导中心", "Ctype": "医疗保健服务场所", "Ntype": "090000", "Address": "公园路３０１", "Telephone": null }, "geometry": { "type": "Point", "coordinates": [ 121.120512723611114, 31.148199821111113 ] } },
{ "type": "Feature", "properties": { "Name": "量健自然健康养生园（章浜路）", "Ctype": "医疗保健服务场所", "Ntype": "090000", "Address": null, "Telephone": null }, "geometry": { "type": "Point", "coordinates": [ 121.11852708, 31.145963293611111 ] } },
{ "type": "Feature", "properties": { "Name": "青浦区残疾人辅助器具服务中心", "Ctype": "医疗保健服务场所", "Ntype": "090000", "Address": "青松路２３１", "Telephone": null }, "geometry": { "type": "Point", "coordinates": [ 121.116532778333337, 31.143732808333333 ] } },
{ "type": "Feature", "properties": { "Name": "量健自然健康家园（体育场路）", "Ctype": "医疗保健服务场所", "Ntype": "090000", "Address": "体育场路２０７", "Telephone": null }, "geometry": { "type": "Point", "coordinates": [ 121.121827994722224, 31.151565721388891 ] } },
{ "type": "Feature", "properties": { "Name": "亚健康理疗工作室", "Ctype": "医疗保健服务场所", "Ntype": "090000", "Address": "朱家角镇祥凝浜路５６９号３层", "Telephone": null }, "geometry": { "type": "Point", "coordinates": [ 121.057122222222219, 31.107693333333334 ] } },
{ "type": "Feature", "properties": { "Name": "夏阳街道城南村中心卫生室", "Ctype": "诊所", "Ntype": "090300", "Address": "南太路６８号", "Telephone": null }, "geometry": { "type": "Point", "coordinates": [ 121.104995931111105, 31.125299750555556 ] } },
{ "type": "Feature", "properties": { "Name": "上海陈进毅中医外科诊所", "Ctype": "诊所", "Ntype": "090300", "Address": "章浜路１８", "Telephone": null }, "geometry": { "type": "Point", "coordinates": [ 121.118357860555548, 31.145913919166667 ] } },
{ "type": "Feature", "properties": { "Name": "好药师大药房（和悦堂药房）", "Ctype": "药房", "Ntype": "090601", "Address": "青赵公路８３３", "Telephone": null }, "geometry": { "type": "Point", "coordinates": [ 121.101654459722226, 31.151150173611111 ] } },
{ "type": "Feature", "properties": { "Name": "御善堂药房（城中南路）", "Ctype": "药房", "Ntype": "090601", "Address": "青浦镇", "Telephone": null }, "geometry": { "type": "Point", "coordinates": [ 121.111270887499998, 31.13828152138889 ] } },
{ "type": "Feature", "properties": { "Name": "云湖医药公司（健补药店）", "Ctype": "药房", "Ntype": "090601", "Address": "海盈路２５９", "Telephone": null }, "geometry": { "type": "Point", "coordinates": [ 121.108409073611114, 31.149361108055555 ] } },
{ "type": "Feature", "properties": { "Name": "上海顺源药房（盈港路）", "Ctype": "药房", "Ntype": "090601", "Address": "盈港路１７５５弄附近", "Telephone": null }, "geometry": { "type": "Point", "coordinates": [ 121.093114978333347, 31.159727824166666 ] } },
{ "type": "Feature", "properties": { "Name": "好药师大药房（康裕药房）", "Ctype": "药房", "Ntype": "090601", "Address": "城中北路６１５", "Telephone": "021-69220415" }, "geometry": { "type": "Point", "coordinates": [ 121.112247195555554, 31.157486345277778 ] } },
{ "type": "Feature", "properties": { "Name": "新青药店", "Ctype": "药房", "Ntype": "090601", "Address": null, "Telephone": null }, "geometry": { "type": "Point", "coordinates": [ 121.116672873611108, 31.150193269166667 ] } },
{ "type": "Feature", "properties": { "Name": "上海顺源药房（胜利路分店）", "Ctype": "药房", "Ntype": "090601", "Address": "胜利路１７８", "Telephone": null }, "geometry": { "type": "Point", "coordinates": [ 121.105097081111111, 31.156083751944443 ] } },
{ "type": "Feature", "properties": { "Name": "云湖医药（城东药店）", "Ctype": "药房", "Ntype": "090601", "Address": "城中东路２０８", "Telephone": null }, "geometry": { "type": "Point", "coordinates": [ 121.120999106944438, 31.146711765277775 ] } },
{ "type": "Feature", "properties": { "Name": "上海顺源药房（朱家角分店）", "Ctype": "药房", "Ntype": "090601", "Address": "祥凝浜路８８０－８８２", "Telephone": null }, "geometry": { "type": "Point", "coordinates": [ 121.051855833333335, 31.104665 ] } },
{ "type": "Feature", "properties": { "Name": "顺源药房（西部花苑西）", "Ctype": "药房", "Ntype": "090601", "Address": "城中西路４０５", "Telephone": null }, "geometry": { "type": "Point", "coordinates": [ 121.102864583333329, 31.147201334722222 ] } },
{ "type": "Feature", "properties": { "Name": "云湖医药（悦民大药房）", "Ctype": "药房", "Ntype": "090601", "Address": "青安路２１０－２１８号", "Telephone": null }, "geometry": { "type": "Point", "coordinates": [ 121.117613905555558, 31.152151369722219 ] } },
{ "type": "Feature", "properties": { "Name": "和也健康睡眠（万寿路）", "Ctype": "医疗保健用品", "Ntype": "090602", "Address": "万寿路２１３", "Telephone": null }, "geometry": { "type": "Point", "coordinates": [ 121.109314600833329, 31.15727127472222 ] } },
{ "type": "Feature", "properties": { "Name": "国珍健康生活馆（环城东路）", "Ctype": "医疗保健用品", "Ntype": "090602", "Address": "环城东路３１８", "Telephone": null }, "geometry": { "type": "Point", "coordinates": [ 121.114539722222219, 31.142767777777781 ] } },
{ "type": "Feature", "properties": { "Name": "天汝参茸", "Ctype": "医疗保健用品", "Ntype": "090602", "Address": null, "Telephone": null }, "geometry": { "type": "Point", "coordinates": [ 121.061125833333335, 31.109126944444444 ] } },
{ "type": "Feature", "properties": { "Name": "紫薇星（青浦保健中心）", "Ctype": "医疗保健用品", "Ntype": "090602", "Address": null, "Telephone": null }, "geometry": { "type": "Point", "coordinates": [ 121.120782622222222, 31.151080886944445 ] } },
{ "type": "Feature", "properties": { "Name": "臻草堂（体育场路）", "Ctype": "医疗保健用品", "Ntype": "090602", "Address": null, "Telephone": null }, "geometry": { "type": "Point", "coordinates": [ 121.124077648055547, 31.152124505555555 ] } },
{ "type": "Feature", "properties": { "Name": "权健自然养生馆（南门街）", "Ctype": "医疗保健服务场所", "Ntype": "090000", "Address": "宝庆街１５３－１５５", "Telephone": null }, "geometry": { "type": "Point", "coordinates": [ 121.113441388888901, 31.143731388888892 ] } },
{ "type": "Feature", "properties": { "Name": "青浦夏阳街道青青心理咨询中心", "Ctype": "医疗保健服务场所", "Ntype": "090000", "Address": "城中东路２４３号", "Telephone": "021-27720082|26491916|69712980" }, "geometry": { "type": "Point", "coordinates": [ 121.123134223055558, 31.146147732222222 ] } },
{ "type": "Feature", "properties": { "Name": "上海一度立体健康管理中心（北淀浦河路）", "Ctype": "医疗保健服务场所", "Ntype": "090000", "Address": null, "Telephone": null }, "geometry": { "type": "Point", "coordinates": [ 121.120962031111105, 31.142728639444442 ] } },
{ "type": "Feature", "properties": { "Name": "青浦区爱心献血屋", "Ctype": "医疗保健服务场所", "Ntype": "090000", "Address": null, "Telephone": null }, "geometry": { "type": "Point", "coordinates": [ 121.118812934166669, 31.148731825 ] } },
{ "type": "Feature", "properties": { "Name": "盈中社区红十字卫生站", "Ctype": "诊所", "Ntype": "090300", "Address": "海盈路１６０弄８８号", "Telephone": null }, "geometry": { "type": "Point", "coordinates": [ 121.108597818888896, 31.151630588055554 ] } },
{ "type": "Feature", "properties": { "Name": "盈港中医门诊部", "Ctype": "诊所", "Ntype": "090300", "Address": null, "Telephone": "021-59710593" }, "geometry": { "type": "Point", "coordinates": [ 121.113745934444452, 31.16007866027778 ] } },
{ "type": "Feature", "properties": { "Name": "周家港村卫生室", "Ctype": "诊所", "Ntype": "090300", "Address": null, "Telephone": null }, "geometry": { "type": "Point", "coordinates": [ 121.055872156666666, 31.097371214722219 ] } },
{ "type": "Feature", "properties": { "Name": "青浦区社区药物维持治疗门诊", "Ctype": "诊所", "Ntype": "090300", "Address": "淀湖路５６", "Telephone": null }, "geometry": { "type": "Point", "coordinates": [ 121.104046078888885, 31.153535267777777 ] } },
{ "type": "Feature", "properties": { "Name": "好药师大药房（和春堂药店）", "Ctype": "药房", "Ntype": "090601", "Address": "城中东路２６２－２６６", "Telephone": "021-59724792" }, "geometry": { "type": "Point", "coordinates": [ 121.12001565777777, 31.146644211944444 ] } },
{ "type": "Feature", "properties": { "Name": "好药师大药房（青赵大药房）", "Ctype": "药房", "Ntype": "090601", "Address": "港俞路１１５３", "Telephone": null }, "geometry": { "type": "Point", "coordinates": [ 121.098306477777768, 31.149798448333332 ] } },
{ "type": "Feature", "properties": { "Name": "上海云湖相舒药房", "Ctype": "药房", "Ntype": "090601", "Address": "青安路３８８", "Telephone": null }, "geometry": { "type": "Point", "coordinates": [ 121.118227854166662, 31.155368002222225 ] } },
{ "type": "Feature", "properties": { "Name": "云湖医药（三元街药店）", "Ctype": "药房", "Ntype": "090601", "Address": "三元路２３２－２３４", "Telephone": null }, "geometry": { "type": "Point", "coordinates": [ 121.112284899722226, 31.149975685 ] } },
{ "type": "Feature", "properties": { "Name": "藏森堂参茸（青浦店）", "Ctype": "医疗保健用品", "Ntype": "090602", "Address": "城中南路４９６", "Telephone": null }, "geometry": { "type": "Point", "coordinates": [ 121.111831350555548, 31.145568388055555 ] } },
{ "type": "Feature", "properties": { "Name": "宏福山珍", "Ctype": "医疗保健用品", "Ntype": "090602", "Address": "浦仓路５００弄５９", "Telephone": null }, "geometry": { "type": "Point", "coordinates": [ 121.122334303888891, 31.151503330277777 ] } },
{ "type": "Feature", "properties": { "Name": "鑫汇林保健食品店", "Ctype": "医疗保健用品", "Ntype": "090602", "Address": "沙埭浜路４８号", "Telephone": null }, "geometry": { "type": "Point", "coordinates": [ 121.119981095555559, 31.153424983333331 ] } },
{ "type": "Feature", "properties": { "Name": "国珍健康生活馆（海盈路）", "Ctype": "医疗保健用品", "Ntype": "090602", "Address": "海盈路２５６号", "Telephone": null }, "geometry": { "type": "Point", "coordinates": [ 121.108152685555552, 31.149339113888885 ] } },
{ "type": "Feature", "properties": { "Name": "天基权健康科技集团（新海路）", "Ctype": "医疗保健用品", "Ntype": "090602", "Address": "新海路６４号", "Telephone": null }, "geometry": { "type": "Point", "coordinates": [ 121.114874858333337, 31.151917132777776 ] } },
{ "type": "Feature", "properties": { "Name": "艾颐轩痧道理疗馆", "Ctype": "医疗保健服务场所", "Ntype": "090000", "Address": null, "Telephone": null }, "geometry": { "type": "Point", "coordinates": [ 121.121681237222219, 31.151219606666665 ] } },
{ "type": "Feature", "properties": { "Name": "朱家角镇残疾人社区康复站（西南门）", "Ctype": "医疗保健服务场所", "Ntype": "090000", "Address": "祥凝浜路３３８弄７８", "Telephone": null }, "geometry": { "type": "Point", "coordinates": [ 121.060000555555547, 31.11091027777778 ] } },
{ "type": "Feature", "properties": { "Name": "伊伊商务健康体验馆", "Ctype": "医疗保健用品", "Ntype": "090602", "Address": "青峰路３２４号", "Telephone": null }, "geometry": { "type": "Point", "coordinates": [ 121.128248823055557, 31.144960409166664 ] } },
{ "type": "Feature", "properties": { "Name": "益来康健康生活馆（南门街）", "Ctype": "医疗保健服务场所", "Ntype": "090000", "Address": "宝庆街１７９", "Telephone": null }, "geometry": { "type": "Point", "coordinates": [ 121.113392198333329, 31.144186469166666 ] } },
{ "type": "Feature", "properties": { "Name": "朱家角镇残疾人康复服务指导站", "Ctype": "医疗保健服务场所", "Ntype": "090000", "Address": "祥凝浜路３３８弄７８", "Telephone": null }, "geometry": { "type": "Point", "coordinates": [ 121.060004444444445, 31.111018888888889 ] } },
{ "type": "Feature", "properties": { "Name": "奥诺康健康超市（青浦宝庆店）", "Ctype": "医疗保健服务场所", "Ntype": "090000", "Address": "宝庆街１８１", "Telephone": null }, "geometry": { "type": "Point", "coordinates": [ 121.113393283333323, 31.144221462777779 ] } },
{ "type": "Feature", "properties": { "Name": "复美大药房（祥凝浜路）", "Ctype": "药房", "Ntype": "090601", "Address": "朱家角镇祥凝浜路９９号", "Telephone": null }, "geometry": { "type": "Point", "coordinates": [ 121.065252821111116, 31.10838189027778 ] } },
{ "type": "Feature", "properties": { "Name": "云湖医药（朱家角药店）", "Ctype": "药房", "Ntype": "090601", "Address": "朱家角镇新风路１６２号", "Telephone": null }, "geometry": { "type": "Point", "coordinates": [ 121.056761944444446, 31.109276944444442 ] } },
{ "type": "Feature", "properties": { "Name": "上海顺源药房（城中南路分店）", "Ctype": "药房", "Ntype": "090601", "Address": "城中南路２３７", "Telephone": null }, "geometry": { "type": "Point", "coordinates": [ 121.111336805555553, 31.141093207499999 ] } },
{ "type": "Feature", "properties": { "Name": "国珍专营（浦仓路）", "Ctype": "医疗保健用品", "Ntype": "090602", "Address": null, "Telephone": null }, "geometry": { "type": "Point", "coordinates": [ 121.120641546111116, 31.151077273611108 ] } },
{ "type": "Feature", "properties": { "Name": "慧仁堂保健食品店", "Ctype": "医疗保健用品", "Ntype": "090602", "Address": "盈港路３３７", "Telephone": null }, "geometry": { "type": "Point", "coordinates": [ 121.117867930555562, 31.158934146666667 ] } },
{ "type": "Feature", "properties": { "Name": "无限极（漕平支路）", "Ctype": "医疗保健用品", "Ntype": "090602", "Address": null, "Telephone": null }, "geometry": { "type": "Point", "coordinates": [ 121.05295805555555, 31.108769444444448 ] } },
{ "type": "Feature", "properties": { "Name": "来自长白山（青浦直营店）", "Ctype": "医疗保健用品", "Ntype": "090602", "Address": "欧洲街６５", "Telephone": null }, "geometry": { "type": "Point", "coordinates": [ 121.119366518611102, 31.150491603055556 ] } },
{ "type": "Feature", "properties": { "Name": "甲丽净灰指甲（青赵公路）", "Ctype": "医疗保健用品", "Ntype": "090602", "Address": "青赵公路９０", "Telephone": null }, "geometry": { "type": "Point", "coordinates": [ 121.115062436388882, 31.153593866388889 ] } },
{ "type": "Feature", "properties": { "Name": "北京章光１０１集团（上海青浦服务中心）", "Ctype": "医疗保健用品", "Ntype": "090602", "Address": "盈港路３４５", "Telephone": "021-69218910" }, "geometry": { "type": "Point", "coordinates": [ 121.117643433888901, 31.158971693611115 ] } },
{ "type": "Feature", "properties": { "Name": "量健自然健康家园（界泾港路）", "Ctype": "医疗保健服务场所", "Ntype": "090000", "Address": null, "Telephone": null }, "geometry": { "type": "Point", "coordinates": [ 121.124147557777775, 31.155913140833334 ] } },
{ "type": "Feature", "properties": { "Name": "幸源健康服务中心（城东店）", "Ctype": "医疗保健服务场所", "Ntype": "090000", "Address": "章浜路１０１号", "Telephone": "021-33868408" }, "geometry": { "type": "Point", "coordinates": [ 121.118745028888881, 31.144766861111108 ] } },
{ "type": "Feature", "properties": { "Name": "科怡康健康体验中心", "Ctype": "医疗保健服务场所", "Ntype": "090000", "Address": null, "Telephone": null }, "geometry": { "type": "Point", "coordinates": [ 121.052462222222218, 31.10862361111111 ] } },
{ "type": "Feature", "properties": { "Name": "阳明灸馆", "Ctype": "医疗保健服务场所", "Ntype": "090000", "Address": null, "Telephone": null }, "geometry": { "type": "Point", "coordinates": [ 121.053405669444444, 31.107063816111111 ] } },
{ "type": "Feature", "properties": { "Name": "幸源健康服务中心（新青浦店）", "Ctype": "医疗保健服务场所", "Ntype": "090000", "Address": "界泾港路２１弄１２５号", "Telephone": null }, "geometry": { "type": "Point", "coordinates": [ 121.122536265833332, 31.155660262777779 ] } },
{ "type": "Feature", "properties": { "Name": "人康生活馆", "Ctype": "医疗保健服务场所", "Ntype": "090000", "Address": "北门街２４号", "Telephone": "021-60343773" }, "geometry": { "type": "Point", "coordinates": [ 121.113331189166672, 31.151137914444444 ] } },
{ "type": "Feature", "properties": { "Name": "妞妞宝贝专业宠物美容", "Ctype": "动物医疗场所", "Ntype": "090700", "Address": "城中北路４９２", "Telephone": null }, "geometry": { "type": "Point", "coordinates": [ 121.112415764444449, 31.155067311944443 ] } },
{ "type": "Feature", "properties": { "Name": "上海久鑫口腔门诊部", "Ctype": "诊所", "Ntype": "090300", "Address": "酒龙公路１８１", "Telephone": "021-59231389" }, "geometry": { "type": "Point", "coordinates": [ 121.065432942777775, 31.1083770075 ] } },
{ "type": "Feature", "properties": { "Name": "百乐益灵芝", "Ctype": "药房", "Ntype": "090601", "Address": "漕河街１９９", "Telephone": null }, "geometry": { "type": "Point", "coordinates": [ 121.054800833333331, 31.110268888888886 ] } },
{ "type": "Feature", "properties": { "Name": "上海顺源药房（留水园别墅东）", "Ctype": "药房", "Ntype": "090601", "Address": "盈港路５８２", "Telephone": null }, "geometry": { "type": "Point", "coordinates": [ 121.111847222222224, 31.160401111111113 ] } },
{ "type": "Feature", "properties": { "Name": "上海云湖凝秀桥药店", "Ctype": "药房", "Ntype": "090601", "Address": null, "Telephone": null }, "geometry": { "type": "Point", "coordinates": [ 121.104096036944441, 31.152803808055555 ] } },
{ "type": "Feature", "properties": { "Name": "华氏大药房（祥凝浜路店）", "Ctype": "药房", "Ntype": "090601", "Address": "朱家角镇祥凝浜路７３５号", "Telephone": "021-59243433" }, "geometry": { "type": "Point", "coordinates": [ 121.054710555555545, 31.106268055555557 ] } },
{ "type": "Feature", "properties": { "Name": "小美生机（青浦欧洲街店）", "Ctype": "医疗保健用品", "Ntype": "090602", "Address": "欧洲街２３号", "Telephone": null }, "geometry": { "type": "Point", "coordinates": [ 121.119271001388896, 31.149648287500003 ] } },
{ "type": "Feature", "properties": { "Name": "量健自然健康家园（城中东路）", "Ctype": "医疗保健服务场所", "Ntype": "090000", "Address": "城中东路２１７", "Telephone": null }, "geometry": { "type": "Point", "coordinates": [ 121.120876388888902, 31.146441111111109 ] } },
{ "type": "Feature", "properties": { "Name": "青浦区国民体质监测中心", "Ctype": "医疗保健服务场所", "Ntype": "090000", "Address": "浦仓路５６５", "Telephone": null }, "geometry": { "type": "Point", "coordinates": [ 121.120767144166663, 31.152357042222224 ] } },
{ "type": "Feature", "properties": { "Name": "上海吴东根中医推拿诊所", "Ctype": "诊所", "Ntype": "090300", "Address": null, "Telephone": null }, "geometry": { "type": "Point", "coordinates": [ 121.1239073511111, 31.155653610833333 ] } },
{ "type": "Feature", "properties": { "Name": "司氏养生堂", "Ctype": "医药保健相关", "Ntype": "090600", "Address": "胜利路２２０", "Telephone": null }, "geometry": { "type": "Point", "coordinates": [ 121.104993080555559, 31.156622606666666 ] } },
{ "type": "Feature", "properties": { "Name": "复美大药房（济满堂店）", "Ctype": "药房", "Ntype": "090601", "Address": "华科路１２１－１２３", "Telephone": "021-69210146" }, "geometry": { "type": "Point", "coordinates": [ 121.128249137222227, 31.156553639722222 ] } },
{ "type": "Feature", "properties": { "Name": "滋溢参草", "Ctype": "医疗保健用品", "Ntype": "090602", "Address": null, "Telephone": null }, "geometry": { "type": "Point", "coordinates": [ 121.119086879722232, 31.153534325277775 ] } },
{ "type": "Feature", "properties": { "Name": "百锦堂", "Ctype": "医疗保健用品", "Ntype": "090602", "Address": null, "Telephone": null }, "geometry": { "type": "Point", "coordinates": [ 121.12313755861112, 31.155523217500001 ] } },
{ "type": "Feature", "properties": { "Name": "上海兰淑实业", "Ctype": "医疗保健用品", "Ntype": "090602", "Address": "新海路８２号", "Telephone": null }, "geometry": { "type": "Point", "coordinates": [ 121.114578566944445, 31.151947924444446 ] } },
{ "type": "Feature", "properties": { "Name": "峰春堂参茸大卖场", "Ctype": "医疗保健用品", "Ntype": "090602", "Address": "庆华一路２４", "Telephone": null }, "geometry": { "type": "Point", "coordinates": [ 121.11667632972221, 31.150753489444444 ] } },
{ "type": "Feature", "properties": { "Name": "好药师大药房（爱星药房）", "Ctype": "药房", "Ntype": "090601", "Address": "久远路６", "Telephone": null }, "geometry": { "type": "Point", "coordinates": [ 121.107828430277777, 31.213072896944443 ] } },
{ "type": "Feature", "properties": { "Name": "上海民惠佳大药房", "Ctype": "药房", "Ntype": "090601", "Address": null, "Telephone": null }, "geometry": { "type": "Point", "coordinates": [ 121.09378, 31.212728 ] } },
{ "type": "Feature", "properties": { "Name": "大盈药店", "Ctype": "药房", "Ntype": "090601", "Address": null, "Telephone": null }, "geometry": { "type": "Point", "coordinates": [ 121.09087, 31.213054 ] } },
{ "type": "Feature", "properties": { "Name": "青浦区香花桥街道新桥村卫生室", "Ctype": "诊所", "Ntype": "090300", "Address": null, "Telephone": null }, "geometry": { "type": "Point", "coordinates": [ 121.092115239444439, 31.210429838333333 ] } },
{ "type": "Feature", "properties": { "Name": "好药师大药房（青敏药店）", "Ctype": "药房", "Ntype": "090601", "Address": null, "Telephone": null }, "geometry": { "type": "Point", "coordinates": [ 121.095842919722216, 31.165911330277776 ] } },
{ "type": "Feature", "properties": { "Name": "青浦区香花桥街道新姚村卫生室", "Ctype": "诊所", "Ntype": "090300", "Address": null, "Telephone": null }, "geometry": { "type": "Point", "coordinates": [ 121.102145182222216, 31.19824028861111 ] } },
{ "type": "Feature", "properties": { "Name": "王世兴普通外科诊所", "Ctype": "诊所", "Ntype": "090300", "Address": "大盈镇大盈路３１４弄３２号", "Telephone": null }, "geometry": { "type": "Point", "coordinates": [ 121.092849212777779, 31.211946800555555 ] } },
{ "type": "Feature", "properties": { "Name": "上海雷允上药品经营有限公司（华允药店）", "Ctype": "药房", "Ntype": "090601", "Address": null, "Telephone": null }, "geometry": { "type": "Point", "coordinates": [ 121.10103352, 31.166607599444443 ] } },
{ "type": "Feature", "properties": { "Name": "复美大药房（民惠佳店）", "Ctype": "药房", "Ntype": "090601", "Address": "新桥路１１７８", "Telephone": null }, "geometry": { "type": "Point", "coordinates": [ 121.09378, 31.212727777777779 ] } },
{ "type": "Feature", "properties": { "Name": "和也健康睡眠（大盈店）", "Ctype": "医疗保健用品", "Ntype": "090602", "Address": "新桥路６８９弄１９号", "Telephone": null }, "geometry": { "type": "Point", "coordinates": [ 121.105375777500001, 31.212910140833333 ] } },
{ "type": "Feature", "properties": { "Name": "白鹤镇杜村村杜村卫生室", "Ctype": "诊所", "Ntype": "090300", "Address": null, "Telephone": null }, "geometry": { "type": "Point", "coordinates": [ 121.122204381666677, 31.235391220833336 ] } },
{ "type": "Feature", "properties": { "Name": "上海顺源药房（外青松公路）", "Ctype": "药房", "Ntype": "090601", "Address": "外青松公路５５８５号", "Telephone": "021-69213587" }, "geometry": { "type": "Point", "coordinates": [ 121.121831111111106, 31.175638364166666 ] } },
{ "type": "Feature", "properties": { "Name": "上海盈康护理院", "Ctype": "医疗保健服务场所", "Ntype": "090000", "Address": "大盈镇大盈路４８８号", "Telephone": null }, "geometry": { "type": "Point", "coordinates": [ 121.0916288561111, 31.215585248055557 ] } },
{ "type": "Feature", "properties": { "Name": "青浦区医疗急救中心香花桥分站", "Ctype": "急救中心", "Ntype": "090400", "Address": null, "Telephone": null }, "geometry": { "type": "Point", "coordinates": [ 121.09403249361111, 31.211593638611113 ] } },
{ "type": "Feature", "properties": { "Name": "上海顺源药房（新桥路）", "Ctype": "药房", "Ntype": "090601", "Address": "新桥路６５７－６５９", "Telephone": null }, "geometry": { "type": "Point", "coordinates": [ 121.104856717499999, 31.213224341666667 ] } },
{ "type": "Feature", "properties": { "Name": "上海顺源药房（大盈路）", "Ctype": "药房", "Ntype": "090601", "Address": "大盈路２７０", "Telephone": null }, "geometry": { "type": "Point", "coordinates": [ 121.091850053611111, 31.210590709166667 ] } },
{ "type": "Feature", "properties": { "Name": "霍山石斛", "Ctype": "医疗保健用品", "Ntype": "090602", "Address": null, "Telephone": null }, "geometry": { "type": "Point", "coordinates": [ 121.105946366388878, 31.213204232777777 ] } },
{ "type": "Feature", "properties": { "Name": "青浦区白鹤镇南巷村卫生室", "Ctype": "诊所", "Ntype": "090300", "Address": null, "Telephone": null }, "geometry": { "type": "Point", "coordinates": [ 121.07738254111112, 31.242833116388891 ] } },
{ "type": "Feature", "properties": { "Name": "绿色心情俱乐部", "Ctype": "医疗保健服务场所", "Ntype": "090000", "Address": "新桥路６８９弄２９号", "Telephone": null }, "geometry": { "type": "Point", "coordinates": [ 121.104890022777766, 31.212912026111113 ] } },
{ "type": "Feature", "properties": { "Name": "上海盈康护理院（西北门）", "Ctype": "医疗保健服务场所", "Ntype": "090000", "Address": "大盈镇大盈路４８８号", "Telephone": null }, "geometry": { "type": "Point", "coordinates": [ 121.091080889722221, 31.215514866944442 ] } },
{ "type": "Feature", "properties": { "Name": "宝甲堂（白石公路）", "Ctype": "医疗保健服务场所", "Ntype": "090000", "Address": "白石公路２６３５", "Telephone": null }, "geometry": { "type": "Point", "coordinates": [ 121.084839601388893, 31.254589528888889 ] } },
{ "type": "Feature", "properties": { "Name": "上海顺源药房（梅桥街店）", "Ctype": "药房", "Ntype": "090601", "Address": "梅桥街６０－６２", "Telephone": null }, "geometry": { "type": "Point", "coordinates": [ 121.084901813333332, 31.25652375 ] } },
{ "type": "Feature", "properties": { "Name": "云湖医药（赵屯药店）", "Ctype": "药房", "Ntype": "090601", "Address": "白石公路２７４４", "Telephone": null }, "geometry": { "type": "Point", "coordinates": [ 121.082058648055551, 31.254569498611112 ] } },
{ "type": "Feature", "properties": { "Name": "李益林中医诊所", "Ctype": "诊所", "Ntype": "090300", "Address": "赵江路２９８", "Telephone": null }, "geometry": { "type": "Point", "coordinates": [ 121.08077148444444, 31.25883218472222 ] } },
{ "type": "Feature", "properties": { "Name": "白鹤镇五里村卫生室", "Ctype": "诊所", "Ntype": "090300", "Address": null, "Telephone": null }, "geometry": { "type": "Point", "coordinates": [ 121.092069366111119, 31.267143743055556 ] } },
{ "type": "Feature", "properties": { "Name": "青平药业", "Ctype": "药房", "Ntype": "090601", "Address": "赵江路３９７", "Telephone": null }, "geometry": { "type": "Point", "coordinates": [ 121.079708658888876, 31.260212131111111 ] } },
{ "type": "Feature", "properties": { "Name": "白鹤镇赵屯村中心卫生室", "Ctype": "诊所", "Ntype": "090300", "Address": null, "Telephone": null }, "geometry": { "type": "Point", "coordinates": [ 121.079970431944446, 31.260597330833335 ] } },
{ "type": "Feature", "properties": { "Name": "白鹤镇王家泾村中心卫生室（西北门）", "Ctype": "诊所", "Ntype": "090300", "Address": null, "Telephone": null }, "geometry": { "type": "Point", "coordinates": [ 121.128821454444434, 31.253625560277776 ] } },
{ "type": "Feature", "properties": { "Name": "白鹤镇阳光心园日间康复照料站", "Ctype": "医疗保健服务场所", "Ntype": "090000", "Address": null, "Telephone": null }, "geometry": { "type": "Point", "coordinates": [ 121.086499211111104, 31.25981909 ] } },
{ "type": "Feature", "properties": { "Name": "上海顺源药房（建屯分店）", "Ctype": "药房", "Ntype": "090601", "Address": null, "Telephone": null }, "geometry": { "type": "Point", "coordinates": [ 121.081820758611101, 31.257332503333334 ] } },
{ "type": "Feature", "properties": { "Name": "白鹤镇王家泾村中心卫生室", "Ctype": "诊所", "Ntype": "090300", "Address": null, "Telephone": null }, "geometry": { "type": "Point", "coordinates": [ 121.128859158333327, 31.253612992222219 ] } },
{ "type": "Feature", "properties": { "Name": "青浦区白鹤镇江南村卫生室", "Ctype": "诊所", "Ntype": "090300", "Address": null, "Telephone": null }, "geometry": { "type": "Point", "coordinates": [ 121.070588378888885, 31.250667046388887 ] } },
{ "type": "Feature", "properties": { "Name": "江南村红十字卫生站", "Ctype": "诊所", "Ntype": "090300", "Address": null, "Telephone": null }, "geometry": { "type": "Point", "coordinates": [ 121.07058810777778, 31.250667046388887 ] } },
{ "type": "Feature", "properties": { "Name": "上海浦屯贸易有限公司", "Ctype": "医疗保健服务场所", "Ntype": "090000", "Address": null, "Telephone": null }, "geometry": { "type": "Point", "coordinates": [ 121.083587824722215, 31.254053501944444 ] } },
{ "type": "Feature", "properties": { "Name": "和也健康睡眠（白鹤店）", "Ctype": "医疗保健用品", "Ntype": "090602", "Address": "赵屯梅桥街３４号", "Telephone": null }, "geometry": { "type": "Point", "coordinates": [ 121.085515133611111, 31.256636862500002 ] } },
{ "type": "Feature", "properties": { "Name": "中脉·道和生态养生馆（龙士路）", "Ctype": "医疗保健服务场所", "Ntype": "090000", "Address": "龙士路１１３", "Telephone": null }, "geometry": { "type": "Point", "coordinates": [ 121.240880604444442, 30.828742261388889 ] } },
{ "type": "Feature", "properties": { "Name": "上海恒德大药房有限公司（干巷药店）", "Ctype": "药房", "Ntype": "090601", "Address": "干溪街２７８", "Telephone": null }, "geometry": { "type": "Point", "coordinates": [ 121.23659616, 30.827123498055556 ] } },
{ "type": "Feature", "properties": { "Name": "廊下镇残疾人康复指导训练站", "Ctype": "医疗保健服务场所", "Ntype": "090000", "Address": null, "Telephone": null }, "geometry": { "type": "Point", "coordinates": [ 121.192004, 30.786058 ] } },
{ "type": "Feature", "properties": { "Name": "廊下镇残疾人康复服务指导站", "Ctype": "医疗保健服务场所", "Ntype": "090000", "Address": null, "Telephone": null }, "geometry": { "type": "Point", "coordinates": [ 121.191998, 30.786079 ] } },
{ "type": "Feature", "properties": { "Name": "金山区廊下镇山塘村卫生室", "Ctype": "诊所", "Ntype": "090300", "Address": null, "Telephone": null }, "geometry": { "type": "Point", "coordinates": [ 121.16417, 30.776024 ] } },
{ "type": "Feature", "properties": { "Name": "廊下镇中联村卫生室", "Ctype": "诊所", "Ntype": "090300", "Address": "中联村３０１３", "Telephone": "021-57397724" }, "geometry": { "type": "Point", "coordinates": [ 121.139699706944441, 30.814438205277778 ] } },
{ "type": "Feature", "properties": { "Name": "金山区金山卫镇星火村中心卫生室", "Ctype": "诊所", "Ntype": "090300", "Address": "钱鑫路２６８", "Telephone": null }, "geometry": { "type": "Point", "coordinates": [ 121.250939127500004, 30.771658528611109 ] } },
{ "type": "Feature", "properties": { "Name": "好药师大药房（王氏药店）", "Ctype": "药房", "Ntype": "090601", "Address": "钱商大街２２６", "Telephone": null }, "geometry": { "type": "Point", "coordinates": [ 121.253425835555547, 30.778859591944443 ] } },
{ "type": "Feature", "properties": { "Name": "好药师大药房（景乐药店）", "Ctype": "药房", "Ntype": "090601", "Address": "景乐路３０２", "Telephone": null }, "geometry": { "type": "Point", "coordinates": [ 121.190709364166665, 30.789837782222222 ] } },
{ "type": "Feature", "properties": { "Name": "廊下镇万春村卫生室", "Ctype": "诊所", "Ntype": "090300", "Address": null, "Telephone": "021-37392054" }, "geometry": { "type": "Point", "coordinates": [ 121.22278, 30.787938 ] } },
{ "type": "Feature", "properties": { "Name": "金山区金山卫镇塔港村卫生室", "Ctype": "诊所", "Ntype": "090300", "Address": null, "Telephone": null }, "geometry": { "type": "Point", "coordinates": [ 121.237857530277779, 30.778775770277775 ] } },
{ "type": "Feature", "properties": { "Name": "金山区金山卫镇横召村卫生室", "Ctype": "诊所", "Ntype": "090300", "Address": "横召村３００８", "Telephone": null }, "geometry": { "type": "Point", "coordinates": [ 121.239262152777783, 30.76044813361111 ] } },
{ "type": "Feature", "properties": { "Name": "恒德大药房（新吕药店）", "Ctype": "药房", "Ntype": "090601", "Address": "金张公路４８６４", "Telephone": null }, "geometry": { "type": "Point", "coordinates": [ 121.178891872777783, 30.828477105 ] } },
{ "type": "Feature", "properties": { "Name": "中脉·道和生态养生馆（塌石桥路）", "Ctype": "医疗保健服务场所", "Ntype": "090000", "Address": "新溪街８７", "Telephone": null }, "geometry": { "type": "Point", "coordinates": [ 121.23840721444445, 30.827442726111112 ] } },
{ "type": "Feature", "properties": { "Name": "金山区廊下镇景阳村中心卫生室", "Ctype": "诊所", "Ntype": "090300", "Address": "廊平公路５５６", "Telephone": "021-57390057" }, "geometry": { "type": "Point", "coordinates": [ 121.186541612500008, 30.785004068888888 ] } },
{ "type": "Feature", "properties": { "Name": "廊下镇友好村卫生室", "Ctype": "诊所", "Ntype": "090300", "Address": null, "Telephone": "021-57397293" }, "geometry": { "type": "Point", "coordinates": [ 121.153387315555563, 30.809364963055554 ] } },
{ "type": "Feature", "properties": { "Name": "廊下镇南甪村卫生室", "Ctype": "诊所", "Ntype": "090300", "Address": null, "Telephone": "021-57390474" }, "geometry": { "type": "Point", "coordinates": [ 121.176442871111121, 30.808301323888891 ] } },
{ "type": "Feature", "properties": { "Name": "金山区廊下镇中民村中心卫生室", "Ctype": "诊所", "Ntype": "090300", "Address": null, "Telephone": null }, "geometry": { "type": "Point", "coordinates": [ 121.141609158055559, 30.801871202222223 ] } },
{ "type": "Feature", "properties": { "Name": "金山区疾病预防控制精神卫生分中心", "Ctype": "疾病预防", "Ntype": "090500", "Address": "金石南路１９４９", "Telephone": null }, "geometry": { "type": "Point", "coordinates": [ 121.251097547777775, 30.772864040833333 ] } },
{ "type": "Feature", "properties": { "Name": "好药师大药房（廊夏药店）", "Ctype": "药房", "Ntype": "090601", "Address": "新村路１２２", "Telephone": null }, "geometry": { "type": "Point", "coordinates": [ 121.194537760555562, 30.788509385833333 ] } },
{ "type": "Feature", "properties": { "Name": "好药师大药房（九仙药房）", "Ctype": "药房", "Ntype": "090601", "Address": "汇丰大街４７０", "Telephone": null }, "geometry": { "type": "Point", "coordinates": [ 121.232000028055566, 30.830781425833333 ] } },
{ "type": "Feature", "properties": { "Name": "好药师大药房（云兴药店）", "Ctype": "药房", "Ntype": "090601", "Address": "康兴路３９", "Telephone": null }, "geometry": { "type": "Point", "coordinates": [ 121.181416015555556, 30.827730034722222 ] } },
{ "type": "Feature", "properties": { "Name": "上海恒德大药房（新东街）", "Ctype": "药房", "Ntype": "090601", "Address": null, "Telephone": null }, "geometry": { "type": "Point", "coordinates": [ 121.176621907500007, 30.827390950555557 ] } },
{ "type": "Feature", "properties": { "Name": "上海恒德大药房（钱圩药店）", "Ctype": "药房", "Ntype": "090601", "Address": "建圩路４８", "Telephone": null }, "geometry": { "type": "Point", "coordinates": [ 121.248685980833329, 30.774883897500001 ] } },
{ "type": "Feature", "properties": { "Name": "康源星健康理疗馆", "Ctype": "医疗保健服务场所", "Ntype": "090000", "Address": "兰亭街１０１", "Telephone": null }, "geometry": { "type": "Point", "coordinates": [ 121.234150419444433, 30.828932038888887 ] } },
{ "type": "Feature", "properties": { "Name": "金山区廊下镇中丰村卫生室", "Ctype": "诊所", "Ntype": "090300", "Address": null, "Telephone": null }, "geometry": { "type": "Point", "coordinates": [ 121.130546332499989, 30.7869354925 ] } },
{ "type": "Feature", "properties": { "Name": "金山区金山卫镇联合村卫生室", "Ctype": "诊所", "Ntype": "090300", "Address": "横召村联合２１３８", "Telephone": null }, "geometry": { "type": "Point", "coordinates": [ 121.25295410166666, 30.764072536944443 ] } },
{ "type": "Feature", "properties": { "Name": "上海恒德大药房有限公司（红光路药店）", "Ctype": "药房", "Ntype": "090601", "Address": "红光路１４６－１４８", "Telephone": null }, "geometry": { "type": "Point", "coordinates": [ 121.236811701944433, 30.829625166111111 ] } },
{ "type": "Feature", "properties": { "Name": "青青健康养生馆", "Ctype": "医疗保健服务场所", "Ntype": "090000", "Address": "新溪街１２９", "Telephone": null }, "geometry": { "type": "Point", "coordinates": [ 121.237068718333333, 30.827939163611109 ] } },
{ "type": "Feature", "properties": { "Name": "慈草地", "Ctype": "医疗保健用品", "Ntype": "090602", "Address": "廊下镇新村路１３５号", "Telephone": null }, "geometry": { "type": "Point", "coordinates": [ 121.194109700555543, 30.788548719722222 ] } },
{ "type": "Feature", "properties": { "Name": "上海市金山区血站（西门）", "Ctype": "医疗保健服务场所", "Ntype": "090000", "Address": "健康路１６６", "Telephone": null }, "geometry": { "type": "Point", "coordinates": [ 121.158752222222219, 30.893240555555554 ] } },
{ "type": "Feature", "properties": { "Name": "上海雷允上药品经营有限公司（云和大药房）", "Ctype": "药房", "Ntype": "090601", "Address": "亭枫公路２８５５", "Telephone": null }, "geometry": { "type": "Point", "coordinates": [ 121.205589550833324, 30.89324458 ] } },
{ "type": "Feature", "properties": { "Name": "金山区朱泾镇民主村卫生室", "Ctype": "诊所", "Ntype": "090300", "Address": "罗星南路１９０弄４５４", "Telephone": "021-57319702" }, "geometry": { "type": "Point", "coordinates": [ 121.170461174444455, 30.883090704166669 ] } },
{ "type": "Feature", "properties": { "Name": "道和天年（朱泾店）", "Ctype": "医疗保健服务场所", "Ntype": "090000", "Address": "城中路３８弄１０４", "Telephone": null }, "geometry": { "type": "Point", "coordinates": [ 121.164908888888888, 30.895026944444442 ] } },
{ "type": "Feature", "properties": { "Name": "上海市金山区医疗救护站", "Ctype": "急救中心", "Ntype": "090400", "Address": "卫生路４６", "Telephone": null }, "geometry": { "type": "Point", "coordinates": [ 121.16449, 30.889805 ] } },
{ "type": "Feature", "properties": { "Name": "英静艾灸堂", "Ctype": "医疗保健服务场所", "Ntype": "090000", "Address": "金龙新街４３６弄２０", "Telephone": null }, "geometry": { "type": "Point", "coordinates": [ 121.170455, 30.886545 ] } },
{ "type": "Feature", "properties": { "Name": "灸源堂", "Ctype": "医疗保健服务场所", "Ntype": "090000", "Address": "新安街８７", "Telephone": null }, "geometry": { "type": "Point", "coordinates": [ 121.165565, 30.895667777777778 ] } },
{ "type": "Feature", "properties": { "Name": "菲诺视力恢复中心", "Ctype": "医疗保健服务场所", "Ntype": "090000", "Address": "金龙新街９３８弄１６９", "Telephone": null }, "geometry": { "type": "Point", "coordinates": [ 121.1604688888889, 30.886525833333334 ] } },
{ "type": "Feature", "properties": { "Name": "洲韩参茸批发部", "Ctype": "医疗保健用品", "Ntype": "090602", "Address": "临仓街２９４－２９６", "Telephone": null }, "geometry": { "type": "Point", "coordinates": [ 121.172156944444453, 30.892885 ] } },
{ "type": "Feature", "properties": { "Name": "百岁园社区养老之家（南圩健康体验店）", "Ctype": "医疗保健服务场所", "Ntype": "090000", "Address": "南圩路８６", "Telephone": null }, "geometry": { "type": "Point", "coordinates": [ 121.163215, 30.898753888888887 ] } },
{ "type": "Feature", "properties": { "Name": "就好医用宣传中心", "Ctype": "医疗保健服务场所", "Ntype": "090000", "Address": "新安街９１", "Telephone": "021-57319601" }, "geometry": { "type": "Point", "coordinates": [ 121.165511944444447, 30.89566388888889 ] } },
{ "type": "Feature", "properties": { "Name": "古方纤体养生", "Ctype": "医疗保健服务场所", "Ntype": "090000", "Address": null, "Telephone": null }, "geometry": { "type": "Point", "coordinates": [ 121.161231913611118, 30.883286294166666 ] } },
{ "type": "Feature", "properties": { "Name": "鑫镁宠物会所", "Ctype": "动物医疗场所", "Ntype": "090700", "Address": "城中路９８", "Telephone": null }, "geometry": { "type": "Point", "coordinates": [ 121.163850833333342, 30.89594 ] } },
{ "type": "Feature", "properties": { "Name": "藏诺养生馆", "Ctype": "医疗保健服务场所", "Ntype": "090000", "Address": "城中路３８弄１７５", "Telephone": null }, "geometry": { "type": "Point", "coordinates": [ 121.163791944444455, 30.894809444444444 ] } },
{ "type": "Feature", "properties": { "Name": "润夫灵皮肤病", "Ctype": "医疗保健服务场所", "Ntype": "090000", "Address": null, "Telephone": null }, "geometry": { "type": "Point", "coordinates": [ 121.160993055555565, 30.895732222222222 ] } },
{ "type": "Feature", "properties": { "Name": "艾佳依养生会所", "Ctype": "医疗保健服务场所", "Ntype": "090000", "Address": "朱泾镇金龙新街７３９弄３３号", "Telephone": null }, "geometry": { "type": "Point", "coordinates": [ 121.163705931944435, 30.885383271666669 ] } },
{ "type": "Feature", "properties": { "Name": "大茫村计划生育生殖保健服务室", "Ctype": "医疗保健服务场所", "Ntype": "090000", "Address": null, "Telephone": null }, "geometry": { "type": "Point", "coordinates": [ 121.152373318055552, 30.860959472777779 ] } },
{ "type": "Feature", "properties": { "Name": "碧波庭养生馆（新安街）", "Ctype": "医疗保健服务场所", "Ntype": "090000", "Address": null, "Telephone": null }, "geometry": { "type": "Point", "coordinates": [ 121.163992777777779, 30.895575833333336 ] } },
{ "type": "Feature", "properties": { "Name": "衡远自然健康养生馆（金山朱泾店）", "Ctype": "医疗保健服务场所", "Ntype": "090000", "Address": "城中路３８弄１１４", "Telephone": null }, "geometry": { "type": "Point", "coordinates": [ 121.164841666666661, 30.895036944444445 ] } },
{ "type": "Feature", "properties": { "Name": "上海健辰健康管理中心", "Ctype": "医疗保健服务场所", "Ntype": "090000", "Address": "城中路３８弄１１９", "Telephone": null }, "geometry": { "type": "Point", "coordinates": [ 121.164650277777767, 30.894799166666669 ] } },
{ "type": "Feature", "properties": { "Name": "中脉道和生态养生馆（南圩路）", "Ctype": "医疗保健服务场所", "Ntype": "090000", "Address": null, "Telephone": null }, "geometry": { "type": "Point", "coordinates": [ 121.162869214722221, 30.902244552777777 ] } },
{ "type": "Feature", "properties": { "Name": "朱泾镇慧农村万年卫生室", "Ctype": "诊所", "Ntype": "090300", "Address": null, "Telephone": null }, "geometry": { "type": "Point", "coordinates": [ 121.224838595833333, 30.869189995555555 ] } },
{ "type": "Feature", "properties": { "Name": "吕巷镇和平村中心卫生室", "Ctype": "诊所", "Ntype": "090300", "Address": null, "Telephone": null }, "geometry": { "type": "Point", "coordinates": [ 121.221992098611111, 30.842822863888887 ] } },
{ "type": "Feature", "properties": { "Name": "上海荣祖实业有限公司", "Ctype": "医疗保健用品", "Ntype": "090602", "Address": "朱泾镇沈浦泾路５６６号", "Telephone": "021-57335668" }, "geometry": { "type": "Point", "coordinates": [ 121.174505479722214, 30.901842448055557 ] } },
{ "type": "Feature", "properties": { "Name": "朱泾镇长浜村卫生室", "Ctype": "诊所", "Ntype": "090300", "Address": null, "Telephone": "021-57330744" }, "geometry": { "type": "Point", "coordinates": [ 121.189223361666663, 30.907442762500001 ] } },
{ "type": "Feature", "properties": { "Name": "亭林镇浩光村卫生室", "Ctype": "诊所", "Ntype": "090300", "Address": null, "Telephone": null }, "geometry": { "type": "Point", "coordinates": [ 121.238652343888887, 30.911114095 ] } },
{ "type": "Feature", "properties": { "Name": "朱泾镇五龙村卫生室", "Ctype": "诊所", "Ntype": "090300", "Address": null, "Telephone": null }, "geometry": { "type": "Point", "coordinates": [ 121.196034613611118, 30.8625198025 ] } },
{ "type": "Feature", "properties": { "Name": "上海市金山区疾病预防控制中心", "Ctype": "疾病预防", "Ntype": "090500", "Address": "卫生路９４", "Telephone": null }, "geometry": { "type": "Point", "coordinates": [ 121.165007777777774, 30.88807083333333 ] } },
{ "type": "Feature", "properties": { "Name": "国大药房（汇佳店）", "Ctype": "药房", "Ntype": "090601", "Address": "金龙新街４６６－４６８", "Telephone": null }, "geometry": { "type": "Point", "coordinates": [ 121.170645833333339, 30.886286111111112 ] } },
{ "type": "Feature", "properties": { "Name": "好药师大药房（罗星药店）", "Ctype": "药房", "Ntype": "090601", "Address": null, "Telephone": null }, "geometry": { "type": "Point", "coordinates": [ 121.16923084194444, 30.904778897777778 ] } },
{ "type": "Feature", "properties": { "Name": "金山人参批发（东林街）", "Ctype": "医疗保健用品", "Ntype": "090602", "Address": "东林街３７", "Telephone": null }, "geometry": { "type": "Point", "coordinates": [ 121.16834194444445, 30.893631944444444 ] } },
{ "type": "Feature", "properties": { "Name": "金山区残疾人辅助器具服务中心", "Ctype": "医疗保健用品", "Ntype": "090602", "Address": "城中路３８弄１０１－１０５", "Telephone": null }, "geometry": { "type": "Point", "coordinates": [ 121.164964444444436, 30.894795 ] } },
{ "type": "Feature", "properties": { "Name": "创义美健康生活馆（浦银路）", "Ctype": "医疗保健用品", "Ntype": "090602", "Address": "浦银路３２５", "Telephone": null }, "geometry": { "type": "Point", "coordinates": [ 121.208585771388883, 30.891908597500002 ] } },
{ "type": "Feature", "properties": { "Name": "浙江奥元专卖店（上海金山店）", "Ctype": "医疗保健用品", "Ntype": "090602", "Address": null, "Telephone": "021-57330639" }, "geometry": { "type": "Point", "coordinates": [ 121.171995182222233, 30.902707685 ] } },
{ "type": "Feature", "properties": { "Name": "金日健康心家园（上海朱泾店）", "Ctype": "医疗保健服务场所", "Ntype": "090000", "Address": "金龙新街９３８弄２００", "Telephone": null }, "geometry": { "type": "Point", "coordinates": [ 121.159247777777779, 30.88656388888889 ] } },
{ "type": "Feature", "properties": { "Name": "朱泾镇东林医院残疾人康复站", "Ctype": "医疗保健服务场所", "Ntype": "090000", "Address": "卫生路９４", "Telephone": null }, "geometry": { "type": "Point", "coordinates": [ 121.165007777777774, 30.88807083333333 ] } },
{ "type": "Feature", "properties": { "Name": "喜喜健康咨询中心", "Ctype": "医疗保健服务场所", "Ntype": "090000", "Address": "金龙新村１７９", "Telephone": "021-57318459" }, "geometry": { "type": "Point", "coordinates": [ 121.168716111111124, 30.889274722222222 ] } },
{ "type": "Feature", "properties": { "Name": "复美大药房（朱泾公园路）", "Ctype": "药房", "Ntype": "090601", "Address": null, "Telephone": null }, "geometry": { "type": "Point", "coordinates": [ 121.162062777777777, 30.89524583333333 ] } },
{ "type": "Feature", "properties": { "Name": "才松堂医药（金鑫店）", "Ctype": "药房", "Ntype": "090601", "Address": "金龙新街５６１", "Telephone": null }, "geometry": { "type": "Point", "coordinates": [ 121.166788641666656, 30.885756715 ] } },
{ "type": "Feature", "properties": { "Name": "绿芙燕麦坊（新安街）", "Ctype": "医疗保健用品", "Ntype": "090602", "Address": "城中路３８弄１０６", "Telephone": null }, "geometry": { "type": "Point", "coordinates": [ 121.164887777777778, 30.895034444444445 ] } },
{ "type": "Feature", "properties": { "Name": "朱泾镇参茸、人参批发零售", "Ctype": "医疗保健用品", "Ntype": "090602", "Address": "胜利新村７号１０３", "Telephone": null }, "geometry": { "type": "Point", "coordinates": [ 121.165946388888884, 30.895861388888889 ] } },
{ "type": "Feature", "properties": { "Name": "鼎尊堂药业人参批发部", "Ctype": "医疗保健用品", "Ntype": "090602", "Address": "临仓街２８６", "Telephone": "021-67310320" }, "geometry": { "type": "Point", "coordinates": [ 121.172365555555558, 30.892871666666668 ] } },
{ "type": "Feature", "properties": { "Name": "九极（金山专卖店）", "Ctype": "医疗保健用品", "Ntype": "090602", "Address": null, "Telephone": null }, "geometry": { "type": "Point", "coordinates": [ 121.167985, 30.890345 ] } },
{ "type": "Feature", "properties": { "Name": "世家养生馆", "Ctype": "医疗保健服务场所", "Ntype": "090000", "Address": "临源街６７１", "Telephone": null }, "geometry": { "type": "Point", "coordinates": [ 121.165185555555553, 30.8995825 ] } },
{ "type": "Feature", "properties": { "Name": "马明仁膏药铺（朱泾店）", "Ctype": "医疗保健服务场所", "Ntype": "090000", "Address": "万安街３８２－２号", "Telephone": null }, "geometry": { "type": "Point", "coordinates": [ 121.172308888888878, 30.897065833333336 ] } },
{ "type": "Feature", "properties": { "Name": "上海市金山区血站", "Ctype": "医疗保健服务场所", "Ntype": "090000", "Address": "健康路１６６", "Telephone": null }, "geometry": { "type": "Point", "coordinates": [ 121.15876722222221, 30.893241944444444 ] } },
{ "type": "Feature", "properties": { "Name": "八俊", "Ctype": "医疗保健服务场所", "Ntype": "090000", "Address": "东林街２５２号", "Telephone": null }, "geometry": { "type": "Point", "coordinates": [ 121.164108055555559, 30.894197777777777 ] } },
{ "type": "Feature", "properties": { "Name": "朱泾镇阳光职业康复援助基地", "Ctype": "医疗保健服务场所", "Ntype": "090000", "Address": "新洲路１３５", "Telephone": null }, "geometry": { "type": "Point", "coordinates": [ 121.206271995277788, 30.892594812500001 ] } },
{ "type": "Feature", "properties": { "Name": "韩国明洞生活馆（晶韩金山店）", "Ctype": "医疗保健服务场所", "Ntype": "090000", "Address": null, "Telephone": "021-67220767" }, "geometry": { "type": "Point", "coordinates": [ 121.162169175, 30.902735020555557 ] } },
{ "type": "Feature", "properties": { "Name": "珍奥（南圩路健康体验馆）", "Ctype": "医疗保健服务场所", "Ntype": "090000", "Address": null, "Telephone": null }, "geometry": { "type": "Point", "coordinates": [ 121.16325055555555, 30.897828611111112 ] } },
{ "type": "Feature", "properties": { "Name": "金山区朱泾镇慧农村中心卫生室", "Ctype": "诊所", "Ntype": "090300", "Address": "慧农村５０１８", "Telephone": null }, "geometry": { "type": "Point", "coordinates": [ 121.216894816111108, 30.880636951666666 ] } },
{ "type": "Feature", "properties": { "Name": "朱泾社区卫生服务中心罗星门诊部", "Ctype": "诊所", "Ntype": "090300", "Address": "罗星路１９３", "Telephone": null }, "geometry": { "type": "Point", "coordinates": [ 121.169270555555556, 30.897465277777776 ] } },
{ "type": "Feature", "properties": { "Name": "恒德大药房有限公司（罗星药店）", "Ctype": "药房", "Ntype": "090601", "Address": "罗星路１０４", "Telephone": null }, "geometry": { "type": "Point", "coordinates": [ 121.169573333333332, 30.895680277777775 ] } },
{ "type": "Feature", "properties": { "Name": "上海恒德大药房有限公司（城南药店）", "Ctype": "药房", "Ntype": "090601", "Address": "塘园路４０７－４０９", "Telephone": null }, "geometry": { "type": "Point", "coordinates": [ 121.161871944444442, 30.886250833333332 ] } },
{ "type": "Feature", "properties": { "Name": "上海恒德大药房有限公司（华氏金山第一药店）", "Ctype": "药房", "Ntype": "090601", "Address": "万安街６５７－６６３", "Telephone": "021-57317328" }, "geometry": { "type": "Point", "coordinates": [ 121.165757222222226, 30.896838888888887 ] } },
{ "type": "Feature", "properties": { "Name": "上海培健食品贸易有限公司", "Ctype": "医疗保健用品", "Ntype": "090602", "Address": "南圩路１１２", "Telephone": "021-57315563" }, "geometry": { "type": "Point", "coordinates": [ 121.163207777777785, 30.89925 ] } },
{ "type": "Feature", "properties": { "Name": "康源冬参批发", "Ctype": "医疗保健用品", "Ntype": "090602", "Address": "朱泾镇罗星路１１８号", "Telephone": null }, "geometry": { "type": "Point", "coordinates": [ 121.16956277777777, 30.89597777777778 ] } },
{ "type": "Feature", "properties": { "Name": "和也健康睡眠（秀州街）", "Ctype": "医疗保健用品", "Ntype": "090602", "Address": null, "Telephone": null }, "geometry": { "type": "Point", "coordinates": [ 121.170616468333336, 30.902702657777777 ] } },
{ "type": "Feature", "properties": { "Name": "天狮产品经销店", "Ctype": "医疗保健用品", "Ntype": "090602", "Address": "临仓街３０６", "Telephone": null }, "geometry": { "type": "Point", "coordinates": [ 121.17171, 30.89286666666667 ] } },
{ "type": "Feature", "properties": { "Name": "遥军骨骼保健用品经营部", "Ctype": "医疗保健用品", "Ntype": "090602", "Address": null, "Telephone": null }, "geometry": { "type": "Point", "coordinates": [ 121.161240555555565, 30.89973333333333 ] } },
{ "type": "Feature", "properties": { "Name": "加越参茸", "Ctype": "医疗保健用品", "Ntype": "090602", "Address": "金龙新街３８９", "Telephone": null }, "geometry": { "type": "Point", "coordinates": [ 121.172523874444451, 30.886136591944442 ] } },
{ "type": "Feature", "properties": { "Name": "吕巷镇蔷薇村卫生室", "Ctype": "诊所", "Ntype": "090300", "Address": "吕青路１００２", "Telephone": "021-57371241" }, "geometry": { "type": "Point", "coordinates": [ 121.154741210833336, 30.835819498611109 ] } },
{ "type": "Feature", "properties": { "Name": "金山区朱泾镇大茫村中心卫生室", "Ctype": "诊所", "Ntype": "090300", "Address": null, "Telephone": null }, "geometry": { "type": "Point", "coordinates": [ 121.152373318055552, 30.860959472777779 ] } },
{ "type": "Feature", "properties": { "Name": "好药师大药房（清波药店）", "Ctype": "药房", "Ntype": "090601", "Address": "罗星南路５８４", "Telephone": null }, "geometry": { "type": "Point", "coordinates": [ 121.16954166666666, 30.89072611111111 ] } },
{ "type": "Feature", "properties": { "Name": "好药师大药房松隐分公司", "Ctype": "药房", "Ntype": "090601", "Address": "亭枫公路１９７３", "Telephone": null }, "geometry": { "type": "Point", "coordinates": [ 121.24175320083333, 30.894816623333334 ] } },
{ "type": "Feature", "properties": { "Name": "好药师大药房（临源药店）", "Ctype": "药房", "Ntype": "090601", "Address": "万安街３０２", "Telephone": null }, "geometry": { "type": "Point", "coordinates": [ 121.17408694444444, 30.897098055555556 ] } },
{ "type": "Feature", "properties": { "Name": "无限极（朱泾人民路）", "Ctype": "医疗保健用品", "Ntype": "090602", "Address": "人民路３８", "Telephone": null }, "geometry": { "type": "Point", "coordinates": [ 121.1667775, 30.8945975 ] } },